lat,lon,alt,roll,pitch,yaw,vn,ve,vf,vl,vu,ax,ay,az,af,al,au,wx,wy,wz,wf,wl,wu,timestamp,rel_time
49.001034921100626,8.43248745182855,124.64173722006208,0.0064275313874240445,0.034878752732560615,3.0707011595005604,-0.9632889800738865,-19.3509135950007,-5.930887033463966,0.02258935993455465,-0.9352407636551121,4.886374313503071,0.030675229116889885,9.965735909138017,-1.539350645249943,9.621018581890565,9.633645486282518,0.08788219833151616,0.03839825754279944,0.16972329838863456,0.03526255847684294,-0.07334218122869895,-0.2363776290559477,2011-09-26 15:26:02.154765714,0.000000000
49.0011547711661,8.46103151476015,124.39128859393013,0.040612662520063104,-0.006293640781484977,2.799498307217635,0.752491329453963,10.03072945202932,39.39075444494687,0.008853210750231315,0.37861600904535175,-0.3548417874385039,-8.720193134043663,7.678107689194796,-0.6404256220709824,1.770268395832748,9.258848101983059,0.0869850941706814,-0.43613993976750454,0.13675998240824455,0.047775037533172075,0.1300309879462686,0.29802286433914776,2011-09-26 15:26:02.254659604,0.099893890
49.01843455694201,8.35774213444365,122.11138287704323,0.043348133298494435,0.01015212656529044,2.558487190941354,10.576455496310151,-161.9008414972397,-211.30413217207732,0.1404776128192037,0.15826101096472464,3.060259232600637,-2.4808371043589195,17.133713028500786,1.087412660065486,0.5698243726346668,7.817622421408274,-0.07146838168492665,-0.038941779185949814,0.06391663173736054,0.03837531552964655,0.040553905715077235,-0.04084767051628848,2011-09-26 15:26:02.354669272,0.199903558
49.00288084169169,8.448986736801423,142.16667841727767,0.042491628877384544,0.04144870264144937,2.483258562842342,-2.158806553446087,-30.23473537090889,128.61712224732227,-0.06845452904284402,-0.1467447754902269,0.2752327744830212,1.2689435289890807,9.614513690917796,1.7900282816984705,-0.7035992249969067,4.323318170999798,0.04672529502759792,0.08115141102356987,0.08839081163338049,0.028029889160854915,0.024767515009447363,-0.07010385309200104,2011-09-26 15:26:02.464709916,0.309944202
49.000663058732,8.474939240488656,117.13978654180227,-0.15898911020507306,0.06265361971691885,2.9491461225993207,10.154992398546073,-36.57488963792074,54.992426910683996,-0.008280267712843063,-0.2825598881551584,-9.328388370422593,-0.5164231623273854,9.506392735735359,-0.9212639102740944,1.0306266592847129,9.356218521392897,-0.011256826637543743,-0.02852622926208824,-0.8033918898166406,0.041897560087917875,0.014541498836597107,-0.0819587152869035,2011-09-26 15:26:02.564723050,0.409957336
48.998149327123656,8.465631152859174,123.76171922927415,0.018490609973946366,0.07050585438058746,2.4396361713094286,1.950998994880087,8.289865559838764,3.1496034216655766,-0.17973227276651252,-0.029479220003003726,1.00172288681495,-19.479630043392834,11.111457422157834,-3.858512660533918,-1.2515518550826545,10.49405953898192,-0.10424057938521708,0.02984591391778545,-0.15598869644092037,-0.11681052405787314,-0.026711747899595486,-0.017103973725140584,2011-09-26 15:26:02.664904444,0.510138730
48.99547149929533,8.452241639976755,119.27684015768821,0.007691631068478769,0.004120826744893936,2.802527206707743,5.999484506412682,13.805520478013165,-8.022632836607503,0.5589029401363335,-0.6331096009116715,2.206107939537728,1.105375112998206,10.653957558849843,-0.5099195978804589,0.08238708722528514,8.450931630688494,-0.06389193103279038,-0.18278189013634902,-0.12098586537698199,-0.024714921290135704,-0.04716527178100463,0.19551315119919274,2011-09-26 15:26:02.774735684,0.619969970
49.00221728172667,8.445804035977366,119.44134208529748,0.0026798811244947984,0.013109430197858343,2.6931565496405083,-3.474067516468142,75.14451302032857,9.370896950245166,0.053483993425187906,-0.2123817205662542,-16.619797092051584,3.2431206665536165,7.2747802007937405,16.724490562470784,2.0117073030700374,9.46091881044771,0.04245247260312871,0.03184348948013433,-0.09681982152526247,-0.002851848259118228,0.1144724611253749,0.04618299701853339,2011-09-26 15:26:02.874734600,0.719968886
49.00057355838908,8.453945897556672,119.35721117850234,0.0046426162499277265,0.05423722728463223,2.615251096859923,-21.380780341581886,2.4957303292357835,9.759986819714209,0.2794400463584207,0.17973005036399145,-0.9779935711646777,1.668297940968724,9.073051654367813,-1.163189670497225,0.004362084036647229,10.09169536130858,-0.047431532103138205,-0.007027870546631855,-0.10793084829313832,0.041442080798145646,0.028544514754121713,0.15353215124176053,2011-09-26 15:26:02.974729799,0.819964085
49.00180303232193,8.448994251477016,122.57243563052299,0.12231889758035033,0.047385535926448494,2.551206555100986,-10.878527160819564,-11.632445764019154,-37.69952761644048,-0.13202827578668733,-0.18592616529314893,1.4965269676998734,1.4787775483255146,9.888425530465067,-1.9592816193425686,-0.39641844306795687,8.76106076422,0.19028025738454102,0.08320854812257539,0.786819259040007,0.07617909526782116,-0.045948085518333286,-1.0958065315198395,2011-09-26 15:26:03.084731430,0.929965716
49.00012965762868,8.49185258129591,115.88076115024396,0.05543119723666347,-0.05367938948692962,3.2071965571405556,8.283649119980026,-7.213935760846511,2.7437772973548147,0.11586098063964248,-0.12914702425957747,-3.5387679371591707,-1.5219937158513726,9.491172974633757,0.14722931406979856,0.662530359984104,9.24575142480429,0.03285543282137827,0.008203913962160254,0.04244984876084625,-0.06727245414297128,-0.009260671111270127,-0.12467728404153454,2011-09-26 15:26:03.184814523,1.030048809
49.00185705622869,8.446981422889394,119.28535132762377,-0.01533424553668392,0.043717905211173635,0.3895710261266112,4.435283807543687,-19.110620028013262,-2.28689928976706,0.0281726798136761,0.016868560524033585,0.7602724955570149,0.6635708544563603,14.384629849176953,-0.07085998423966046,8.07297311497205,10.477497816834548,-0.011258838326941077,0.024401317347094855,-0.20548197663328202,-0.023134366186519224,-0.035861259433010696,0.1245258418129487,2011-09-26 15:26:03.284740405,1.129974691
48.99789603181303,8.48527421172691,119.41220254437208,0.00272117776367033,0.06534227450245671,2.7302925672157063,1.4810492173718754,-3.5943205627073023,9.411681051687614,0.011803975606786157,0.19894754257654299,-0.5791278749650987,-4.819055653089228,12.702726267536612,2.6285301707143653,0.8815057192149124,8.595628923763185,0.008026376236440707,-0.048342812780721764,-0.075868684266047,-0.05842659649772165,0.007508358097486493,-0.2809885729630189,2011-09-26 15:26:03.394744059,1.239978345
49.00158742505581,8.486783052783412,120.55246454275107,0.061038582782186795,0.020129300087369167,3.1406406338762123,0.5750201115610294,-37.46213991196374,-17.087847824993613,0.09791394701932052,-0.03444875478520826,-1.8625443695491635,0.05065795435051923,15.2705824237601,-3.7343196494024724,1.5108783468417577,10.029938995005574,-0.04998146888873612,-0.031031059176681586,0.6122133919989406,-0.06730949712914099,0.052098667982226565,0.007867346625222765,2011-09-26 15:26:03.494763979,1.339998265
49.00060508372867,8.447471167376523,123.15940369694547,-0.023236996700310996,-0.0007066632909950507,3.124051440312623,0.7311103146606531,-9.256013330129276,3.8572793298692374,-0.0800929753365016,-0.42906303020433206,-2.963835538905997,-1.811798320965733,10.033509392932823,2.0045005270750735,-1.1705473196303122,10.100925790617495,0.05709858423509516,0.05914759460474641,0.18052811317977407,0.091346808180832,-0.041195891722135794,-0.17479574424380076,2011-09-26 15:26:03.604810736,1.450045022
49.00231733679819,8.445991838790514,137.4205311847569,0.05532393557721186,0.010571680121497076,2.714845123045939,5.445468574172904,-0.2369662911019196,11.123293424350035,-0.2049519992366047,-0.14847801850450612,-1.1795232132543836,-0.2614564522778731,10.596246554354467,-1.023110002796125,-1.196552764365297,11.394066610532676,-0.017258815916642432,-0.030452430485976466,0.42829363487320515,0.06302517271963183,-0.05546663032784664,-0.08633469195125547,2011-09-26 15:26:03.704807744,1.550042030
49.002021345158546,8.477157167362973,120.40248655338189,-0.005861180487555254,0.04418345243868912,2.621358241147781,1.9669290895832383,-55.066844227915915,-8.804663927422158,-0.019519443038529347,0.10389271137833825,3.371979438486899,3.051171324411222,11.587157123789872,-0.5644254437166343,1.5042831689254814,9.640186377368002,-0.09317702166106458,-0.2726254623314952,-0.0032129736049413063,-0.008879598675822224,0.033318469992093966,-0.07778534392439687,2011-09-26 15:26:03.804792964,1.650027250
48.997065430527186,8.404646121574885,117.95128937973124,0.044387137614788366,0.03738489521032439,2.6785653598922945,-3.631829837338302,10.277768729036719,-10.583499660263703,-0.09039740437851736,0.3089822966635018,-6.312420283267215,3.0836511249401273,9.239591471365648,3.427136583772694,0.1775624970765855,8.513258358570377,0.0002744618242123606,-0.02733798137804619,0.010168214534438691,0.09062385274485833,-0.028170126248168476,0.05746443215418869,2011-09-26 15:26:03.904766779,1.750001065
48.997471121049806,8.459135401401811,124.35718923188512,0.04841134881684403,0.3523000399887462,3.365419093391109,-1.4105549536992428,-15.088409075060207,10.881744746665712,-0.25013897417815484,-0.12942122952392326,-2.0676712958685535,-1.1934622125465673,8.418820991915807,-2.6431784161244476,0.29609264462036394,9.38710252960055,0.09523474927343907,-0.024366371187256916,-0.14137741177086746,0.22373961686186472,0.01092306860629693,-0.09409808172602334,2011-09-26 15:26:04.014787460,1.860021746
49.002081419303536,8.443453006394291,118.76901790565009,0.0460652984025246,0.030568155713735556,3.8840507058892073,2.4702461850527646,-6.664388040223525,-7.227616462742778,-0.13200467836992724,0.024735134339598744,-6.822750158751565,-0.7840161838943074,7.467410092514071,-2.650671982168929,-1.2669305898327083,9.260650319188924,-0.13068211301175328,-0.4359766141799067,0.07874624963986925,-0.0878958050185557,-0.054852081978812035,0.23311667095222194,2011-09-26 15:26:04.114758672,1.959992958
48.99927017211554,8.491219391955704,120.6911642000491,0.023155409306175965,0.045222418708514685,2.9253828219560214,12.229077940285318,-26.380314933895974,-38.702861123794506,-0.02807744588397583,1.9673495502519545,1.453937556074719,0.38408578525271386,15.000862109674797,-0.48340567883354624,0.19234605318632556,8.892010470284076,-0.07204695751320951,-0.0024338739933441977,-0.2529572037131639,-0.12539412586556647,0.07274781946891562,-0.20755910075389675,2011-09-26 15:26:04.224846385,2.070080671
49.002594693768195,8.435550995706167,127.58904457253837,0.022405688568929077,-0.01510358906148166,1.9051083460639626,3.2746311149968657,19.188961575224813,-13.20202277147945,-0.21839249275185224,-0.020012871646612126,-1.8180763690829862,0.20629190325957747,10.294214914816608,0.4052942698843174,-1.5240223678786502,9.980344437196027,0.0907212539411883,-0.6505571891571879,0.0943714421840056,0.08032473120712658,-0.17334188565522146,-0.15295117731692792,2011-09-26 15:26:04.324822405,2.170056691
48.99938993105723,8.456825226528496,118.29754814348222,0.032127758860927724,-0.009615477255325265,2.711895798287886,-6.177308169410416,-22.198260639174503,-6.888483676989804,-0.19653969278325173,0.14852338372542465,2.353933471354609,-3.540171136172753,11.791024009451954,-11.710234576710853,5.881050168876167,11.499821591322078,0.0028567800465554155,0.40876205720697917,0.10622342788552437,0.0651455972091217,-0.09089717906508347,-0.07047532735465922,2011-09-26 15:26:04.424833049,2.270067335
48.99739615258791,8.4840767145576,122.33010843825917,-0.07696472662192584,0.0648527498404375,2.8184231183380697,1.8236771214871326,12.352964834056651,-3.3227851758113354,-0.045446728021861726,-0.35606812217760236,-1.3396396596156888,9.97677806957576,9.988895416919094,0.31096123890391164,-1.1197386161490197,9.028199949861976,0.009760219022726264,-0.037348463326596235,-0.03115114810387793,0.0038727401132557706,0.018500321779397064,-0.05778803023874982,2011-09-26 15:26:04.534794543,2.380028829
49.00192378924663,8.44768624532341,123.98692598170372,0.05761214162115091,0.024859093150374142,3.150623357248351,3.118320246543733,27.573555506917586,-11.77176217514727,-0.05024781585350747,-0.4496787318256102,0.4676894830974398,8.141329146007413,10.87877518300637,1.1816938006429127,-0.6843863206539894,10.508976619094708,0.06691036709427563,-0.0771765092968674,-0.05049168139467945,-0.03227847696949731,0.09151936745857457,-0.10105157071296231,2011-09-26 15:26:04.635012818,2.480247104
49.00750319861693,8.470514596949991,122.87011975060022,0.004329816027942614,0.2237926542788536,2.5946411004479333,0.31607771561268067,-42.944587767893815,-12.006881554510565,0.08755530821304267,0.17517025924031362,2.7649831884228457,0.7521445927099656,10.020871289982146,-13.836412824014367,0.7349282223563566,10.437992492858994,0.085592054120602,0.015147681665539139,-0.15823811397499385,0.04733578075655163,0.03294638539761058,0.09778155324807523,2011-09-26 15:26:04.734847577,2.580081863
49.00070131338745,8.46019019611883,118.1960327771146,0.021161893021356643,-0.0014285850897887767,2.773416057930933,2.7156267135479504,26.247214236385954,2.9564370139835923,0.1404745598893703,0.05590555592891786,-0.12639209954389324,2.852952454780643,8.059089731426264,-1.9058935135959896,-1.2838757103096623,9.610227533975525,-0.03615083594336928,0.033324810458408814,-0.13519045154527612,0.03304170740595616,0.01572242025674363,-0.016438977428590566,2011-09-26 15:26:04.844993221,2.690227507
49.00047171929129,8.424156642022385,117.17127891091228,0.01426025043364045,0.05988958006759716,2.0523079410300085,-4.4253212672402,6.702315840015567,-8.78251881124109,1.2645015752548079,-0.42837348441953327,13.051704986054114,0.1980536124686868,11.884959321480089,-6.08749603360941,1.1439755862826089,11.031251592873641,-0.01309020611760715,0.09734356869829605,1.0705604757627682,-0.01558985969719655,-0.03494134937276514,-0.13965596615030867,2011-09-26 15:26:04.944837986,2.790072272
49.00072495071456,8.499915467897209,120.95431374516316,0.03533391023581081,0.04574017803295929,3.119115909400662,-1.2712351123359493,15.033831820334342,14.389058201623747,-0.039800866871417394,0.11977824874878285,1.0940528909645217,3.1357996178875007,10.252059194378095,-4.70887338174881,0.35267736494234936,10.604952542346977,0.022157767538388034,-0.023801683486011433,-1.2649676611844956,0.04368816455975926,0.025792501665847605,-0.1882678620534383,2011-09-26 15:26:05.044865826,2.890100112
48.99914018660449,8.428685166964115,138.39936331475954,-0.13038113461587364,0.050781308281787334,3.1665577260723268,9.037641748669135,3.006873470877736,-20.15641123157095,0.03130583813634391,-0.5207145499818742,-0.6371285410362975,0.22643330603362094,9.524215702912175,1.3561205627389594,-3.6079988316233766,9.380718633861935,-0.01703978287915025,-0.0342430579168684,0.1633209852784894,0.08223400026915723,0.08212407024870585,-0.07359105581075735,2011-09-26 15:26:05.155109086,3.000343372
49.000666200850695,8.487914727144723,121.99399666689479,-0.004338250524327875,0.08141569167812387,2.6956859729480813,-0.1149639420351894,-44.23168926937092,-104.80523187438384,-0.13394578293693263,-0.46994900553751473,9.051423657048478,-0.0663550831249276,8.546374792224732,-15.818851061498586,3.227152300893367,11.514240174316829,-0.002972179300911791,0.35556476993055625,-0.10450711718270916,-0.041727230973713426,0.0918956656943057,-0.024996418791701277,2011-09-26 15:26:05.254818913,3.100053199
48.99938597020035,8.390973178687332,121.50958466317626,0.059395085792096056,0.21019821843310388,2.5047571859124838,7.755419071467203,7.5694054571048905,11.273190492178202,0.010858641858816022,-0.10628228599140972,0.13526513628090875,-5.208335201727287,9.503348777686927,-0.6343313419540461,2.116498204911668,10.565421218300132,0.08329774618012024,0.0186107292707263,-0.344251297687877,-0.000662147325846129,-0.03692333118075234,0.03269937272379454,2011-09-26 15:26:05.354796460,3.200030746
48.999238254328375,8.428736059718586,124.6939865472712,0.22728038378672963,0.03926435705143898,2.884539115029465,4.196970850707449,-10.615972434264787,13.636830056679932,-0.23036465676150214,-0.3517694285833568,-0.7168533539081685,-0.7576267501060258,8.746489327834198,0.26166518326066085,0.12173954151770534,10.753768992422314,0.0017364762193323112,0.04303360302006545,0.011635585307481289,0.09196517141337304,-0.07248622892977341,-0.08827705801535461,2011-09-26 15:26:05.464827597,3.310061883
49.00205813536973,8.451102583330727,110.08047636967319,0.003974647849695326,0.06622770953430818,3.4814884147529446,-15.24706358781507,24.095676557392267,87.6388066782035,-0.11495266679205254,0.4279130321384052,-0.9022085905304975,-0.8410033928488565,10.258132953556071,0.47873033270632487,0.42707629716389184,9.320709109419987,0.03823414591157114,0.0015743497191258126,0.041076872337885116,-0.057334336446995246,0.02680876710124773,-0.0988414263180543,2011-09-26 15:26:05.564842226,3.410076512
48.999179736016096,8.45871354569765,117.70913847997159,0.04908981219017544,0.07266421551597352,3.0111237999373244,-7.305009937280186,-15.737008790495553,8.23738983861988,0.05760234259909204,-0.860430562585274,-0.04897512399778198,5.278026727341875,9.292063630176632,-2.3862636631923952,-1.5552358823594377,10.2856109649309,0.03704308521713086,-0.07835008015316261,-0.16569177303369198,-0.02895082619163406,0.05811553346068804,-0.30764481694021234,2011-09-26 15:26:05.675028583,3.520262869
49.001263186463724,8.44796072052956,117.2922348126449,0.03572553805092471,0.050717609734003556,2.8135179033894535,-8.035217418078243,12.199248646077326,8.940413458444738,0.04719648234235664,0.47646471591733,2.4477205321281215,0.8803230278527094,8.6393561544782,-0.5222288264992411,-2.802292186782352,10.666805888695167,-0.06640593679040292,0.04872269528077695,-0.29456715216120455,-0.04520596011307141,-0.016459963262686315,0.9232904385555039,2011-09-26 15:26:05.774845475,3.620079761
48.99885762157084,8.460034930739921,122.6326310053804,-0.08099343948098114,0.025440602602730143,3.0891211512439307,7.7001372241500095,12.194633305435463,1.1416980033582638,-0.053959237111305555,-0.5285548444884719,-0.802203245930152,2.349327524113793,10.847285101171936,0.6447941658574058,-3.4747673238718484,10.41709246924247,-0.01666456571629058,-0.01603555352990545,0.07180258815038214,0.1109411482713928,0.007498581470909805,-0.060548833910020125,2011-09-26 15:26:05.874873172,3.720107458
48.99983286747322,8.441912612138008,133.86177422032125,0.05750228396795619,0.02927651821575776,2.8942498071160196,-13.541202577773827,25.20605034088566,4.041198711217118,0.41789734297586517,0.15875695301954346,-3.321413037011837,-1.6658307963353356,9.174608601429231,-0.31356140525881754,0.9123703942628382,12.162157141340852,-0.04282281795265673,0.033321465752826906,0.15264099663703817,-0.008158017116866145,-0.06487179109622464,-0.1739756856026029,2011-09-26 15:26:05.974857313,3.820091599
48.99760219887669,8.466307726218698,123.08643986600539,0.04660958424221251,0.050267562307159376,4.1026320751939,-5.208284363544159,15.994805058622932,0.1662192225435551,-0.22873473005340025,1.1598494975912945,-0.885623557364466,1.2084434533277442,11.876059352660793,2.2166572722689346,-0.145243315495232,10.922323755723651,-0.003752645773926421,0.0923787373294697,-0.04246622370400919,0.0070562502393569215,0.008606643470362,-0.2373816004076292,2011-09-26 15:26:06.084854722,3.930089008
49.00247529853913,8.572013154285905,116.13807318985138,0.04148632012500412,0.06210594799392272,2.4371623336784856,-6.573050706158186,32.31111426580153,21.26225909242745,0.05114166120562822,-0.01119092490595254,1.902502179808256,-0.39007526642311435,8.689193379330993,-0.020711924887835673,-2.2141669348329676,11.874871157234407,-0.0015762422623772326,-0.0444315325592537,0.24929496123776573,0.06286717162104333,-0.014622568956745297,0.009345403217411586,2011-09-26 15:26:06.184905935,4.030140221
48.99819373000709,8.452478669520755,121.19585621100285,0.06293551403488427,-0.027016548647101672,2.4758582224102104,-17.23390557532494,7.649501809624002,-204.50955588665198,0.674875225530577,0.11220842208551698,3.0636678791731162,-0.7560235797124346,8.879656228740636,-5.4258834365644235,0.6206116801059955,10.986441447394323,0.02171613420505952,0.12085927561267867,0.08055672797970008,-0.006052257778340259,0.3571597809028506,-0.7613309646176383,2011-09-26 15:26:06.294843886,4.140078172
49.00188739578058,8.46369704201702,113.27964837707327,0.04168896540760672,0.02500418788001268,2.744166006978128,-1.5096944772201717,0.9276181370705776,-1.1379164822139096,-0.007169288323166302,0.1877303123194548,-1.8013712236052426,-11.768092819467816,9.153771324951576,-0.5052989161074695,0.15637730036735054,10.554475929574917,0.06764176972088676,0.09797439537592845,0.04585245601945775,0.46275786892401793,0.06164227698792013,0.14461003518947527,2011-09-26 15:26:06.394806536,4.240040822
48.997820307123334,8.457710792244916,117.75031716204947,-0.088660455493795,0.05167022431806202,4.028039034972762,-2.7631663964956776,-5.777056800305975,-51.80968571786419,0.028612498781277775,-0.07381575954251976,-1.7054873775185093,-2.3644070128654286,14.483437441254681,-1.6600066227633594,-7.267980003186579,6.4769039998223645,-0.020212354552418044,-0.061478727088159865,0.0005377731613030498,0.13075871189435703,0.046402113238648596,-0.23812498463551743,2011-09-26 15:26:06.494882266,4.340116552
49.00139157812452,8.486392445652461,123.16011226801928,0.03971816041006018,0.017807782844308197,2.923222387415522,26.249559858861147,23.71902129153338,-0.39949828536367277,0.055849147218160006,0.0719849096810456,-0.6668201801571496,5.327530276471709,9.044803194451479,0.9401187230106999,2.0358144476565254,11.039429932294414,-0.005463496455388469,0.01598046352884376,0.16974731754578867,0.026237873012738534,-0.06293637136499806,-0.1923077580337599,2011-09-26 15:26:06.604879735,4.450114021
49.004471346254704,8.466045811999285,123.67016897494787,0.09246447620762382,-0.11753675507165748,3.4186866275670984,12.136624803712719,-22.43481727502249,2.6264301518542936,-0.24131870162799418,-0.3201773586089027,-3.4093032707111153,0.592462029213675,8.754823185453807,-8.112237935350198,1.054221630676349,8.755162609848549,0.020910612158998355,0.06259994381970223,0.08591393090862962,0.017176541824473875,0.004807696952478071,-0.26184084505603794,2011-09-26 15:26:06.704905163,4.550139449
48.98094282808384,8.428065457788675,124.3588428098819,0.06717925709303943,0.09242638642265158,2.995000296974325,-4.790782914006606,-16.30774608312492,-9.749998499186871,-0.25723366894135036,0.2314159511099821,-2.8163602443129574,7.255489277005523,11.743462197475873,1.8051790375375123,-8.153881105700004,8.88214224184125,0.08454249772615956,0.00807137267921113,-0.10967886845068042,-0.03424645005192885,-0.08292914692578636,-0.12330789847861574,2011-09-26 15:26:06.804853565,4.650087851
49.001666944103235,8.485682084523212,123.86315046350035,-0.019338906956566183,0.025727634642822232,2.6289295535551864,-7.64195770316554,4.713719464310822,24.053166258984497,0.00034629362939886735,0.17635227292708022,-0.6558688793796708,0.5928164220822787,9.113998823102664,-0.061135974126296594,-10.09353485447807,8.830682558340222,-0.008508155861452739,-0.010288449623027444,0.27107011208336906,-0.02425608269168934,0.03005143431152525,0.07970639121613446,2011-09-26 15:26:06.914923161,4.760157447
49.00895440084053,8.438272830434462,120.10787093610051,0.033476721524570034,-0.10333286772379194,2.700213311036564,-3.0397861713929313,18.373766447132237,3.962067273776967,0.008575316922697298,-0.11285718147245305,1.3708942654384426,-2.254491167750982,9.137251069234239,0.5704982005404353,-0.7234367031174169,4.556505907490841,-0.2782676198077079,0.04351749707917216,0.0247949032683928,0.06295575407618395,-0.005288633823480109,-0.014023014598861148,2011-09-26 15:26:07.014867549,4.860101835
49.017360249283655,8.466276993948487,123.41389851497566,0.06649923337530024,0.3463106293916848,2.922530792286846,0.8698239392773026,-5.498235125616018,-7.4343175595052635,-0.04364784732800657,-0.6673015404196172,0.9654026737784607,0.6803820693676856,9.381354469350786,-0.17510939560144378,-1.5335262434564636,5.699914199632242,-0.00658597362855067,-0.020390830653558616,-0.3476587200209583,-0.009371977850999282,0.32959968904944836,0.1867823523931306,2011-09-26 15:26:07.114838524,4.960072810
49.0019919868954,8.46055340391825,129.5496656413726,-0.00632875444149519,0.0279033775638024,2.804365088218416,-1.0304781054427299,-10.387050892255202,13.665819952377815,0.02752736546619098,0.5116801099717511,0.2758988295163598,0.9449631830798998,7.589355227529149,1.2187902048411414,0.4630774627955939,10.984906683428722,0.10066159926546665,0.1389584511417884,0.120882348756385,-0.023927199223267213,-0.09321314022213038,0.018760655614618024,2011-09-26 15:26:07.225129996,5.070364282
49.00315844996032,8.471434668123212,119.35293568694742,0.026226056542067798,-0.009903460190989768,3.1385556180370773,2.5897311924881876,-24.382790675926337,-13.086247056232219,0.45127857468161375,1.2980088526739584,-1.7754567792347091,7.528869713076801,9.353478472423303,-0.5394627618030102,1.6471943881273392,10.028677228162499,0.07905078274380777,-0.10774519519094934,0.10541667537688154,-0.0650481295429986,0.05352414089321588,0.8848195863241174,2011-09-26 15:26:07.324963984,5.170198270
48.99013298003967,8.395274998422629,126.05413959554461,-0.05329275988111311,0.06908047717085894,2.9602908843873834,27.54603929363494,-114.8526604621127,11.607330745959608,-0.2561401717991873,0.02978241291365879,1.2260516256763132,0.28995305395905396,10.348403000380541,-1.4943944382140817,-0.7121527974739149,10.305539088986347,0.006884109150163033,0.05628121364430922,1.0550169678072638,-0.01761055307175444,0.09393218820291203,-0.015789862434139622,2011-09-26 15:26:07.424913233,5.270147519
48.999576385842495,8.480483017068673,138.82012510653058,0.04787543401285427,0.040961352773816795,3.0074975703799742,0.6429899104635737,8.78468112771063,-1.4004078483942042,0.10425846911163289,1.1318128439362203,6.4746964842226795,-2.6255415104614963,2.608373836736586,-0.999001684974719,-0.8932398224095731,8.394710574150778,0.09628827036654862,0.024450827350684885,0.017397214019039577,-0.016932311144543438,0.06658690284332738,-0.22006880506103157,2011-09-26 15:26:07.534904391,5.380138677
49.004257054937945,8.456540113076175,113.30116900938302,0.2111977010898982,0.05654931671574993,0.3406661036710812,-1.7098386957931124,-4.557062101080957,-20.361635964207046,0.002147614428544828,-0.02543975251766219,-1.7619026920927716,4.268659921806426,9.52403043414373,1.052052889706787,1.8726570382121257,9.413104357000364,0.026939798756153103,-0.07642772266928814,-0.011910643999562083,-0.0682525372020187,0.13995139922613445,0.07344331862057228,2011-09-26 15:26:07.635086362,5.480320648
49.00336496437436,8.43701148164248,124.46678032980489,-0.09540337780193647,0.01971408066548372,2.9282095947598745,-1.2248829640319587,7.420572664268676,-57.2005952085493,0.013611403841288065,0.17413364061953257,-1.885611504041055,-0.2587927243876979,9.38793630552681,-1.0372016738305225,-1.1712428519899438,9.5148808256589,-0.8636864045955418,0.01809113001202177,0.3456340145002489,0.01184438758985449,0.3599881476198603,-0.8730420172444353,2011-09-26 15:26:07.744981094,5.590215380
49.00190207715047,8.481656048992773,121.1383799119095,-0.14615209430328432,0.022410986085093204,3.942956474618541,-5.727358652265302,65.84928521106023,4.103863523713039,-0.04630365339721848,0.30153292431245327,4.419952867850629,-1.6198032202295978,11.407836592579395,-5.8561514806798,0.3655617573039778,11.149582091356324,0.03520773977779914,0.016669294494224714,0.4516766050860853,-0.015060744787340341,-0.04189132550748487,0.2130987967649516,2011-09-26 15:26:07.844963118,5.690197404
48.99852457371042,8.437366802642888,122.35217814402964,0.03046787898101809,0.010079003768487162,2.7954748958924567,5.9594151330879575,-12.5325632713283,65.74564177512187,-0.02387904663387863,0.05899983699901731,3.097291249391705,0.5457380337318558,10.759414135234703,-1.6113661335314362,0.5119479671015855,9.665344353146411,-0.04926471134978527,-0.012592327010980493,-0.05261551081942288,0.027750408070988643,0.09417125853078016,-0.09168723524645582,2011-09-26 15:26:07.944897548,5.790131834
49.028208541390136,8.449386057122616,120.49458245512069,0.03330831445471418,0.09557473848152515,3.155224461845621,-7.753967747528281,-8.960197269995874,20.05657499272202,-0.18364120826456168,-0.17176100964073798,-3.223274694884269,-3.0868285485062197,11.18839976140324,-0.2449442520697512,-1.424656896190283,7.494060804937359,-0.01356941189664158,-0.0338675913996039,0.041866497679749884,0.0344307402579931,0.024188669610551914,0.24725970532881109,2011-09-26 15:26:08.044974005,5.890208291
48.99861061105154,8.43403434707075,119.74157836893289,0.004027594707145272,0.055004087414817826,3.2247627832033,5.521762563947722,-10.031210301778762,58.76250492054194,1.2002027408079938,0.2321146443817726,-0.3113272607272792,1.9407883242969985,8.556966690439523,2.433218865387778,0.33905413011670454,9.318564057172221,-0.05853887750491553,0.02528661396783885,-0.04945886034095181,0.04500333462464484,0.04568217592685152,-0.3967020852132764,2011-09-26 15:26:08.155155276,6.000389562
48.99619283594797,8.447783745019674,122.67320287360822,-0.003932280309259181,0.019087830448791067,2.6359221235008414,18.8582440045244,-1.7943971552231779,11.771003457185161,-0.008242913505918256,-0.17443100615557977,-2.2464701196143917,-1.5108270061181377,13.526959102889245,-0.2681522031608959,-2.2317621163744525,8.708845632800287,-0.005214342279264261,-0.02700662635567496,0.18319690773772143,0.036904441966208706,-0.039043866429153196,-0.0784859001011677,2011-09-26 15:26:08.254977741,6.100212027
48.99671115474698,8.470037635918175,123.2472663311088,0.07679244731961132,0.09505300337947503,2.593495320127403,0.9013807896452274,11.05701966416467,16.326766759289015,0.1431135471980465,-0.10438216153977424,-4.635802595400144,5.553028806767335,11.714815184879711,8.349838636141506,-1.701221257219146,9.550327220371306,-0.006194697509904855,0.08582007089570122,-4.542388191270568e-05,0.03888000320495766,0.006848951908370745,0.2898633572533134,2011-09-26 15:26:08.354933800,6.200168086
49.00269726209007,8.47971870627444,126.13963373129234,-0.03247487783654453,0.1562246137695687,2.6385939374069043,0.9142601403402146,-50.805429611775544,-30.408342737047363,0.10840486452730298,0.12205912328839148,1.0078935816899572,0.9522820324525658,8.334260952292553,0.7179778880531935,0.364798265673644,9.86789174137077,-0.04473270559764858,0.015309046126356807,-0.40203377441099997,0.00931663472320001,-0.0043861691383123205,0.14243951965548146,2011-09-26 15:26:08.464953007,6.310187293
49.00448428499611,8.426732388494756,121.92152087808554,0.008153132040585497,0.0519388132479891,2.7648426058083717,0.6829713248182502,-23.02060188916,-26.852892319423265,-0.33086030920232273,0.8428722373003785,1.287917172891658,-0.6267965267175749,8.833614149809884,0.3122278945606165,0.31149650989922534,9.918627913053566,-0.039022443201822944,-0.03787132496625454,-0.9298168669085664,-0.06340103244703388,-0.06578414875446631,0.15776411605240043,2011-09-26 15:26:08.564963376,6.410197662
49.003890393653684,8.451025025141396,146.800664179134,0.055993838791409664,0.03454537995867204,2.7865547179928445,3.5398229902933296,-10.047814396027851,9.472774861231201,0.1333068513439323,0.5144949287366076,0.6946428312773576,0.27064715027555664,9.15197472982304,-0.5540114853410925,2.035814582354062,10.039984240502665,-0.01983026568583397,0.03847558010199361,0.2165053171803764,0.06663943196004246,-0.4496400974667585,-0.08806432401021594,2011-09-26 15:26:08.675161432,6.520395718
49.00242615030297,8.480092053511148,117.27217987476905,0.0407621507374194,0.019309800947411773,3.160310886989926,-5.397640402697745,-7.886323193444655,-12.677923021200574,0.0695967347600634,-0.05307028870483505,-0.517132376896721,1.7761191867897985,9.494665771191652,1.4103234242155043,-1.800338391095851,8.724024275924561,0.05470017064381372,0.05501726312911731,-0.046550604981418185,0.14018910718490163,0.06547963201743184,0.08341174020566047,2011-09-26 15:26:08.774936708,6.620170994
48.99443314096435,8.439667935041308,120.00749724397112,0.03552438048586317,0.008083842785306942,2.782019807549495,0.5147349043160739,0.5615690259352829,13.097017011784153,-0.18120804218362668,0.08184916659066815,11.353799425759098,0.6277926295523755,11.88779936474159,-8.578878683594276,-1.958845466984911,10.66642340986991,-0.03469673149796604,0.12121533792476803,0.07056893117290206,0.013656782529473518,-9.276076198476467e-06,-0.14255354787152297,2011-09-26 15:26:08.874941642,6.720175928
48.99505339330352,8.461214228666293,125.25766111060322,0.0172023151919415,0.015628634252965304,2.437868736705748,-2.7015114178401722,-8.355245152502896,26.07901544040918,0.010740319176864022,-0.18039965832038637,-0.6140242322879474,-8.421065770881798,8.162298149334681,-5.903573504171618,-3.022636320340632,7.820546650444561,-0.05393827895710422,-0.09008802792462482,-0.08835886443925078,0.04171259731383319,-0.01746661114535695,0.027540652070415048,2011-09-26 15:26:08.984968892,6.830203178
49.00280795673208,8.464631425635051,117.86925472476527,0.03122991223215068,0.03130142046249875,2.4885995897317095,-4.906739240319307,-39.61912950320957,8.28727446788121,-0.1578985970554253,1.9542289795975594,0.7878197307233807,-0.352880126805031,-1.2664447334219062,28.325077395465964,-0.9191643814160543,9.871806555265614,-0.03251180068788653,-0.01050601800465148,-0.07001399410639939,0.027027614225851967,0.03482687889567435,0.16135438951942904,2011-09-26 15:26:09.084965505,6.930199791
48.992434000991786,8.451687557696086,115.3253302510251,0.03029416930931249,-0.03405174718554975,2.7177062182448664,-0.645674824905572,9.316934019399998,-104.87530059721034,0.06975684702331356,-0.18282009598057386,0.6316451246003181,-0.7813179033511068,10.222622684629041,2.5090855143375688,-0.32589312975513995,9.602833538814894,0.015225937718066794,-0.03178517391667942,0.08659669797287518,0.04178738740078134,-0.10827386389749409,-0.13396327263016505,2011-09-26 15:26:09.185192069,7.030426355
49.00304632435946,8.459904470144023,120.33817138467909,0.1472596991902732,0.034573184483059856,2.364189021912056,-6.372491292225115,-9.946472573459852,-36.305439891344804,-0.24281186109492625,-1.6962021468376367,-2.6309462258576444,-1.7500257962647643,8.768123404397862,-4.341950074004882,0.7258223292950063,10.814419017530435,-0.007395868211890165,0.010708333314663296,-0.06633030921714146,-0.03736254462430878,-0.012571131689918908,0.08852852029651587,2011-09-26 15:26:09.294967516,7.140201802
49.002752960032275,8.443515475482036,122.7250519785666,-0.024366904602715834,0.008168569746659946,2.8712612448900128,9.03544582052898,-1.5055363920111624,-8.969181843046893,1.3807857169692297,-2.180918956306731,-0.44243438115712225,0.27401619561754287,11.824686451650605,-11.92670424962455,0.38502812471243203,9.083132654202396,-0.11626310316033449,-0.09126269572295365,0.07512905216960562,0.05220379602107527,-0.0804262178378741,0.20584196821993891,2011-09-26 15:26:09.395011671,7.240245957
48.99849707593675,8.446042658640126,124.23900199894626,0.01738930167045163,0.05781790160712322,2.920083606928666,11.856581678119651,22.79981775945191,-0.7847529195394785,-0.29082163654585885,-0.07480799511027497,-0.5964091913670719,0.6908922793218313,9.697510194390437,-8.24095512525862,9.572923505144114,10.100672322355244,0.04198745354393114,0.06244241052892529,-7.80448489337611e-05,-0.09401344211328053,0.3619226543472654,0.5425806367522394,2011-09-26 15:26:09.504978004,7.350212290
49.020142379113025,8.462856611866346,121.22047527496561,0.03520751011567217,0.030227620809919555,3.0517755813868,3.6612463194938343,4.5733704020161845,-20.09805225928951,0.12452630224406605,-0.10787870357111706,10.428806783758224,-0.18414544716575204,9.827099249881657,-0.2721114303923852,-0.23988895609058722,9.257960372998747,0.21542616422325783,0.08317290423150904,0.11374607441945384,0.029709078748847505,-0.027575963615397225,-0.022795163422121754,2011-09-26 15:26:09.605037847,7.450272133
48.994530257620156,8.476943775644953,120.29035220304286,0.008842616326409716,0.04243490185740122,2.866875840725883,1.427464259066283,-10.638784317716093,-3.833141641796936,0.09595323192396304,0.4130455506729622,-13.679839678511609,-0.7022916003374755,9.42456991927186,0.257023579584754,0.004524898082072298,4.089343539362851,0.010829593385666341,0.03695345576616079,-0.6196649010601747,0.044718634560008935,-0.13555272343872282,-0.025796249762921795,2011-09-26 15:26:09.705064922,7.550299208
49.00583411150962,8.4783913864021,122.52787802473826,0.00022934825374049117,0.02649141579046129,2.7206335300110767,0.40184854727142866,-14.285280947980153,22.420851686438024,-0.1288488330830638,-0.18612369566993742,-2.2780346953248314,2.455606598604504,6.537746423464838,-2.728422533567347,1.539631919376613,9.719131640819924,-0.005193563992327798,0.07449972104876713,0.5553399520595431,0.005870322730690708,-0.09018547654254938,0.018015110350479122,2011-09-26 15:26:09.804992739,7.650227025
49.00299607956816,8.458809537968495,122.1491875783757,0.04422442595457961,0.03788714142326209,2.942301223087422,-8.263878343485715,-32.083385581206834,-184.42244200242487,0.22299194221052143,-0.15195371788071327,1.2603544793336647,2.5706703353580145,11.358590653367838,2.204211192497815,5.947151947233561,8.494517678805572,-0.0436562468590192,-0.014345795325195166,-0.017154642714900453,0.03035147346355342,-0.0600193275777571,0.1794707541321787,2011-09-26 15:26:09.915023489,7.760257775
49.01072150290734,8.38440020447472,119.83119584322742,0.020084909984122448,-0.0673452848114673,2.7802859141847596,-1.7463777940842142,2.9283752802978302,-10.46585362762152,-0.18386057888416293,0.4177934711491519,-0.2467935992644369,-6.801782940010247,11.77384663184476,-11.454174948196954,0.8334709955104829,4.5526811107571215,-0.09640194465281193,0.006181313073415534,0.09047029742244787,-0.49142991752677095,0.021893597625266013,0.037872772616374874,2011-09-26 15:26:10.015047226,7.860281512
48.99833529879769,8.474364339035942,115.44721694751107,-0.024928529223670656,0.05848467541104576,2.9500706216359265,1.2228506356343223,-1.890682310063535,-13.914682291776185,0.24424999795662009,-0.25384311521781566,-2.1406894990156355,2.8881825432982127,10.122652770336838,6.706900454099615,-0.6285149572758939,10.945130359712127,0.43501011606920653,0.2775878178833011,0.04506366801145354,-0.024207404296328155,0.00447209498145661,-0.10694209360048813,2011-09-26 15:26:10.115009246,7.960243532
48.99618774023564,8.395579114740881,124.03317847456465,0.04536053693250308,0.13048049260024358,0.02107237524659089,-2.9946153940049873,30.943699671343193,-2.5687298747469476,-0.024883306512108752,-0.1280885177363928,0.5385880632992909,1.964889386401195,9.574943695840075,0.3933310981302729,-0.6825144697202387,16.202806433983582,0.0011601643204887766,-0.07050351031782565,0.0058457520874822,-0.019006488202467975,0.008385704516583513,0.21305670480114589,2011-09-26 15:26:10.225054455,8.070288741
49.004471622522246,8.45566851999748,122.18088413228183,-0.024022201645518073,0.013447771656485513,3.1931166635402874,-5.710202012003128,45.3829040981651,110.07126519881507,-0.1986210249828349,0.11468614078031303,0.4415597540933177,1.0011472221695925,13.53362955744998,0.5009659429075236,-0.8954516182520275,9.070014903962297,-0.024953727461002398,0.002348351215247107,-0.03213790204976091,0.06617738917136072,0.07276000486702186,0.1901230345629491,2011-09-26 15:26:10.325088000,8.170322286
49.023571476478516,8.481265976538559,125.34096769706515,0.07714937305497753,0.10542507610598804,2.6740943806553927,-4.778207172604515,-13.420224976843464,-0.05867863254318309,-0.01030086848134653,-0.04709648916320757,3.8263251671605003,1.1422346844438465,9.628068315771468,-1.4041323227101659,1.3565138742526806,5.951669503880719,-0.0514962069635471,0.0015202527258992276,0.6876985293515454,-0.14805954423483744,0.038605889664734425,0.10062459541862577,2011-09-26 15:26:10.425058249,8.270292535
48.997088984477216,8.35988973987057,123.03964989111766,-0.0024666839096112517,0.06975482632074947,3.216873977396876,-3.712772717344384,-51.851941767451265,-17.724330677244996,0.1773823359548118,-0.21383290111182618,-0.6340935970442898,-14.277976355220593,9.517454339504338,1.4425479615129937,-8.785678283909567,10.53024047577107,-0.09038783687941865,0.028919701235665264,0.8298464690780922,-0.08841248942922508,0.009742078729566473,-0.1543391004759279,2011-09-26 15:26:10.535035478,8.380269764
49.00225615092026,8.472854374120548,117.86389022152656,-0.0067510933486598125,-0.0382412532381875,2.227972858082368,-5.811225391734,-30.87259116625008,-22.069870996168092,-0.1591516997617727,-0.0980752940451384,1.2717285250024817,2.4420572319551543,9.597518456992201,-1.5895501497656856,0.8517943281466106,9.696961102677319,0.0462936693112802,-0.06250403199767582,0.044953126715207056,-0.004569778058576524,-0.04605344563003754,0.1453745692810151,2011-09-26 15:26:10.635244252,8.480478538
48.996595635179865,8.458892766943796,120.03203641012558,0.019666442865791216,0.07523518806327598,2.9421369298462148,4.6287799323058705,-14.493847148391472,17.425049943163227,-0.9818247503661564,0.21313905428356716,-23.42628556644594,1.492949914995049,9.63539689484001,1.640828159760218,2.733383536461705,8.908558813272323,-0.09102287234604538,0.3035448958157098,-0.2938239404544753,0.03071687648693417,0.10830547301097758,0.12875258800383452,2011-09-26 15:26:10.745098845,8.590333131
49.0013036625642,8.41948679847198,120.10732700070623,0.06851531264555066,-0.004084107313868858,2.8321114638534897,-18.7540898438033,-6.803205423749288,-3.283521944460658,-0.2242293406256442,-0.26307731346538965,0.8075075099767187,-0.3442821418894666,10.125357872218702,-0.38148429313799215,1.4829359626514997,9.568938846115536,0.06220997438165997,0.16118017509305327,-0.14333201619248873,-0.09733964522318583,0.0173317270781322,0.4280844661101544,2011-09-26 15:26:10.845036009,8.690270295
49.00272050555087,8.437518733865645,123.4344086468951,0.002165030877590953,0.05452050169754538,3.061108742679432,3.6903868689300126,-11.05761796787834,-7.248784602034947,-0.1954427585847283,-0.11632358582807864,3.5048025875590336,-1.4445386368174766,10.215664604525024,-0.007086587944024836,-0.284434936132663,4.893740105222335,0.09703252352503938,0.062453052607895944,0.12449352858708743,0.02436837420387588,0.07464227562133655,0.2307429987541514,2011-09-26 15:26:10.945021774,8.790256060
49.000842732990634,8.457084560928068,121.97945435146912,0.014723382494189492,0.02464441870916318,2.5156848945972357,14.914110267597428,-9.768747929680327,-34.482877411282665,0.20985563708389876,0.3163661972876602,-1.8924569820933805,0.8438533947847646,10.133988700069985,4.9770638551836415,1.474000590680722,10.9024750410491,0.07126213743386428,0.1368106143909914,0.17614041903616096,0.11040505223793622,0.009361728467600644,0.3497329678015928,2011-09-26 15:26:11.055080373,8.900314659
49.00525085907777,8.489596112180458,134.5491118397194,0.01644433292094377,0.027405081564457555,2.6374265150841123,5.7708413592140975,4.473569853611819,-27.140054587565217,0.07161541152922497,0.10413990071159884,-0.011147709456145904,1.4069542663718269,10.409539832794708,1.6760817469911273,-1.767811422865216,10.856183551184122,-0.09592024304313798,-0.01417835256655651,0.1253230494383219,0.2645786782915473,0.07081009266372351,0.0453205102678025,2011-09-26 15:26:11.155295391,9.000529677
48.99613857322653,8.460264352271004,127.88552632579531,0.016509733886259995,-0.09161174940794822,2.8516988882431455,-9.831719007654804,0.18975827292815672,20.707244419236524,-0.35376013359286557,0.00021924342090882606,-13.27131189912986,-1.9441393112546563,1.4921139236714875,-0.6320952067971719,-1.2639155697998106,8.28961269162677,-0.03470217002576878,0.012502807249889296,-0.007984739328807266,-0.07308151056409776,0.012581119817531825,0.2404013090878114,2011-09-26 15:26:11.265091987,9.110326273
49.004558398652094,8.559555658298144,136.4088915010444,0.07677941551537462,0.019351800139327677,2.593038330212772,-5.720769917701857,0.7748896043361727,33.867447639620295,0.03712770913254154,-0.06081811549870481,2.2107026605734124,0.08889482903977625,17.23888500590637,1.7881853493422244,0.64199858893978,9.833459173431567,0.2984905290910954,0.013034484546591944,-0.2510595399276634,-0.05685590992748444,0.06258646942094676,-0.3320252397489609,2011-09-26 15:26:11.365078081,9.210312367
48.99585020040953,8.456067422730348,118.65358422216879,-0.005085296315113709,-0.266910194195075,1.3467363718847292,0.7488173016229058,9.67126312457679,-11.969431412850085,0.24832653461867085,1.305793089676895,12.894393410433468,0.021267493200818305,8.618404852751112,1.0096637545496807,-2.846259687262035,9.52247402732291,-0.0036038662026098905,-0.004767367553245916,0.0029958474537620135,0.01742156758183321,-0.012565347345194093,-0.020183400665892384,2011-09-26 15:26:11.465120310,9.310354596
48.99972277793078,8.475530778506444,121.27719279220449,0.06743146201782624,0.007848795119102123,3.4707252335157035,10.549276005098452,-27.452823816524315,4.774033749863151,-0.2794310282952432,-0.2712680510928195,1.6016592596543981,-1.3253044559257516,10.733729275897447,4.25759970585934,0.8075902465377248,8.090509297559855,-0.014706683153310925,-0.07692709248622503,-0.2625832339134419,-0.09183855113812271,0.324634645992562,0.1490296251806504,2011-09-26 15:26:11.565121081,9.410355367
48.999325199999284,8.452247173607875,119.15921363997607,0.002668866090824805,-0.013615533156096489,1.862801723124003,-2.388103388635231,9.83887840707274,19.422470541654707,0.0369361681580537,0.6787877074837141,-0.1863168801459637,-0.8130446784041652,8.862566961058713,3.1673823906367904,1.0008856221465612,2.361094604313805,0.06131836724847914,-0.01462237372793679,0.9852924140488631,0.0035059330070231136,0.25161502290258186,0.0980956325329351,2011-09-26 15:26:11.675191190,9.520425476
49.000683339264974,8.480917496976792,118.56700047612166,0.08344062176053313,-0.10752099207260948,2.8500871922480857,4.3184361228412085,204.87510153118788,11.830355935466986,-0.01795707305596614,-0.2189331884385004,0.9126252733754998,-10.206529367208763,7.978755058309734,10.738145001439266,0.08476525431222198,8.335375290001526,0.4280212835016846,-0.3309573003405933,-0.005845929804164037,0.05962461830270818,-0.041505598798220196,-0.267444977095361,2011-09-26 15:26:11.785115365,9.630349651
49.001600269116814,8.469936782039918,136.72206361799286,0.023859790310415237,-0.1973066101606574,2.569522463943724,-1.2953563156377077,12.464087282557522,-7.7366509848901135,0.025085817700697063,0.27910772946219453,1.7126475256535472,-1.1204968536007158,8.416297285145392,2.18188435759012,-0.5979786034134819,10.364021532468891,-0.06482405235394186,-0.025063825506437546,-0.0657568578404213,-0.20483955001338025,-0.10509926036266934,0.2252102982582606,2011-09-26 15:26:11.875098413,9.720332699
49.00276941346132,8.46557877269864,121.8820134841579,0.16127872630350792,0.2638038542658687,3.1412909818681833,0.5236394246663751,10.793784021579219,-4.533932801951856,0.5742760779615913,0.44165203571863676,-0.7035004291637943,1.4977922888719761,7.873219729913241,-2.2206516725858014,1.4985601219934022,10.069228966231217,-0.08129331070331554,0.0016862949419680301,-0.2242328333994432,0.030521322990057106,0.09065917866994494,0.2573174524483764,2011-09-26 15:26:11.985102387,9.830336673
48.99854819935479,8.445145774252353,123.96572017058904,0.02602606140702294,0.05285513674848782,2.264953557994052,-8.173234755073437,30.743588625299157,-11.039871519946407,-0.022977273708803047,-0.37427527843079966,1.7095302988027867,0.4311651050909435,10.313364417295558,0.6471983332804184,1.6074242505484222,8.60156065861392,-0.31665039187409355,-0.0022955046234149016,0.21866131516640916,-0.01611722415319147,0.001031259573985464,-0.030126530280078112,2011-09-26 15:26:12.085117617,9.930351903
48.99880933095512,8.457415615472966,121.05956403137105,0.048898459752620596,0.021497172504212996,2.814422372931923,0.5348191917818856,26.891175909357575,-27.057539478568998,0.18716340201294443,-0.5383264398481881,-1.7701162801664807,2.0592008697555158,8.641116956640335,2.681480646139347,-0.5803826644352494,9.55118339397186,-0.03936589243188002,0.012159583134095871,0.07986894347884341,0.8657596982799166,-0.015334910443676936,-0.03915866768817243,2011-09-26 15:26:12.185183488,10.030417774
48.999620589481985,8.46771590040711,121.82626979898636,-0.014099872426384674,0.08246217372167335,3.125700563851219,5.050994542606646,-30.81417104563415,2.2594196511670774,0.11227528155864486,0.012576413535119561,-0.2983132280381898,1.4492110020878382,10.296597988246326,-1.7228435334524819,-1.8572725951110334,4.406711825094914,3.991992956321679e-05,-0.09767647610011632,-0.08542623963728466,0.012366848011222785,-0.010353462403977238,-0.20784500462846026,2011-09-26 15:26:12.295124337,10.140358623
48.99911718014505,8.665983761244474,125.51364022600394,0.10588341649123945,0.220383224915521,2.409219213170585,-5.035493242588436,2.9146125448091666,-29.163752401462954,0.18271820328880445,0.076925421184864,3.2364933610293507,-0.7765242240453296,9.721910697541821,-0.15468980534999477,-8.942497121107328,9.803987622241989,0.058342824462548806,-0.007736729537254197,0.2366596118119305,0.056949446259280424,-0.5523491556106775,0.09641758282790923,2011-09-26 15:26:12.395091748,10.240326034
49.001064059839834,8.470185504764157,122.10142824978622,0.027405352166301404,-0.0013300154321441576,5.533606968308698,4.485849240300244,8.734342362027462,4.629256357592424,0.01880094280938181,0.04524523063166341,0.31577301106176986,1.6355411713761638,8.472621508203384,-1.841402984628134,-0.6860640931124211,8.457075405450517,0.11346903086486074,-0.02724962537267133,-0.45545297242215127,-0.047806981700017334,0.04170800690497003,-0.08117260785113325,2011-09-26 15:26:12.495143909,10.340378195
48.99849175122491,8.463704660179488,124.00023489023341,0.04820847486415547,0.026221596560316317,2.640522345597014,16.163267854749698,-7.398737927625356,16.313776909105684,-0.13288514710518265,0.04809018787694414,0.1706306843866815,2.5269811987662494,9.010762493544657,-10.974624291300701,0.44878425300127134,8.674098436517555,0.05132725343465967,-0.061366985209105746,0.06379339797756174,0.0053364929084043985,-0.11005793169035542,-0.004319497624075785,2011-09-26 15:26:12.605187402,10.450421688
48.9981067728214,8.456783222212671,123.12205584839688,0.01601323875615175,0.02289171124873324,2.7596723860587082,-0.7337651956120371,30.584320354212252,13.545169239009466,0.02139195199072557,0.0022093514146551904,-5.550340034646015,3.66019764394405,10.91878244301948,3.0172333406894425,-1.5103542139560975,11.886835781229719,0.6211719432666092,-0.09731882765436788,-0.1462956357973118,-0.010559844147091317,-0.033472892226960246,-0.2610323315288689,2011-09-26 15:26:12.705227973,10.550462259
49.004928469283215,8.486084194376089,118.30470264616852,0.016441468170878264,0.02365200154615054,2.346795745822117,-5.818644181541602,-17.316342864197377,6.250724743243312,0.15880711783967646,0.41533955706215914,-1.5966982414773783,-1.6302321752915114,9.805113807327464,-2.0985462065916254,0.7756678303119798,10.271534772330675,-0.006661779522293162,-0.04074559596754688,-0.0686171409529923,0.04111620390601711,-0.03216246833846819,0.2731938150916102,2011-09-26 15:26:12.815159689,10.660393975
49.00292339919883,8.455109370312174,121.65528140264284,0.02326892211930574,0.015752066155604445,2.5755224320375545,-0.5693540062527351,-0.3710155551200469,-4.908687295961272,0.15598843814119584,-0.10160499354163954,4.123733216529809,-0.39891546516360044,9.486902447992518,0.6802179154626292,-6.775877491399023,11.246286229024415,0.05895253662413393,0.06369235649983286,-0.08357213338376668,0.24578091771660499,0.019566945219276658,0.47793838505681413,2011-09-26 15:26:12.915144848,10.760379134
49.007034335373,8.455227814172888,121.28009234009077,-0.025089031267270967,0.013448989121530794,3.0548616663381214,-17.898475440012238,-23.5239839279107,9.218059909982893,0.1537385297405837,-0.30668448556703615,2.3306271315446674,3.4192955674524255,8.37315389119502,0.05461111514204564,0.8125085451251859,11.24240417199009,-0.08364417977175478,0.006532038268058373,0.11414240155701857,0.04943270438158124,0.09682913897677516,0.21018860878744544,2011-09-26 15:26:13.025167182,10.870401468
48.99669144488693,8.427101896610875,116.2840468568271,0.04935976519310441,0.019679333810647466,2.773970186071743,-6.178651463825347,-6.194292899934168,4.265549832422288,0.010955450561287761,-0.013557301974382152,-1.3617128230096447,2.2617324747794196,6.028393134436952,2.5836777991496245,-0.5828017032699615,10.979237907869386,0.02531382169643566,0.11377034604585512,-0.24226032027512656,-0.3222373885878126,0.16512800144720416,-0.15350404047892616,2011-09-26 15:26:13.125197405,10.970431691
49.01589342629834,8.436426971910704,120.34391044912961,0.030102958735381873,0.06374920314610133,2.5817887497556247,-1.9201744467963995,-27.534894665334686,7.272237907232283,-1.6097548052269577,-0.047298805136114036,0.06360672627784703,0.37954735470361234,10.020061322779743,3.0653449730223423,0.5908960487410221,9.548944207578504,0.07830263738464847,-0.33174431739147675,-0.026583077337214177,0.127651573539769,-0.10928831566175218,0.784712349132429,2011-09-26 15:26:13.225176184,11.070410470
49.001193590489194,8.45047048555198,125.01339181672591,0.17433560630585862,-0.046698596195795035,3.132580504683542,16.864496073952903,0.7355518436786226,21.7435657654616,-0.2687890567983871,-0.01844743876754306,0.619925431589188,0.9707599337943252,9.472070442765748,-0.6484983137248665,-7.719298627975795,8.905937087621368,0.017416711406191995,-0.060338677905176,-0.1474839074044601,-0.03613328043967542,0.025313092423400775,0.08395380632472682,2011-09-26 15:26:13.325215694,11.170449980
49.002252249726254,8.496521650440936,122.01801491654732,-0.03553008924268235,0.06779422181228498,2.5035220230899125,-8.324746498859307,-3.189303039874667,-25.310204138251294,-0.20917247972621747,0.24538637331411972,2.9983305981451176,0.749478330984442,10.299856120035644,1.4859358211305962,-4.015435161332679,8.99849196882628,0.11115320853076097,0.09160378004409409,-1.54136249727428,-0.01137459957295181,-0.4838463301380011,0.10690965166444288,2011-09-26 15:26:13.435297771,11.280532057
48.999135442931646,8.437776541309653,117.68549156629324,0.0681283505152788,0.011894812809446492,3.170486278085882,2.305989713642707,-15.150205898445432,-12.915455972706805,-0.016560071071846913,0.058692257387202657,17.983691859574613,-7.1650568554953935,10.944687775598359,2.0084325817277726,0.13283576482816187,9.999554921037245,-0.02493912300705666,0.024175113147121667,-0.17463972954558557,0.062386193318311876,0.06655905252860114,-0.09828134474839859,2011-09-26 15:26:13.535376127,11.380610413
49.00476105169361,8.462672561218007,100.96164208868824,0.02402962315479561,0.35349937453296365,2.729148628710155,18.621837776696033,-16.194145074412393,21.932665530392182,0.12696706405950497,0.05005059708151116,-2.662272626419063,2.9454910291714027,10.575948516500457,3.432190181006786,-0.9836763084022706,10.41699938645924,-0.05064102973707392,-0.0010302791985329575,0.038118697516549324,-0.002542127777608735,0.03717145469721751,-0.9775116161123506,2011-09-26 15:26:13.645252175,11.490486461
49.00121334468204,8.46589917302663,124.4246549026408,0.048009859921755924,-0.014614071877500558,2.9843321572920063,-36.39825234445423,5.537396374851481,21.307488332801245,-0.0402260823963865,-0.07716349076999993,1.938869858809304,0.676533433284565,11.478007404985814,0.001005644283504914,1.7731472061864808,11.851404939842782,-0.1166942028896283,-0.37834133424660754,0.1929463349604489,-0.01117799297608688,-0.06468775669542588,-0.07268701973208874,2011-09-26 15:26:13.745212305,11.590446591
48.99861683255398,8.473222384345211,127.34385366870366,0.03699040251414487,0.037141900795588836,3.424681631770474,4.081479293784802,27.15526221699281,102.7412149205206,0.26621106159965796,0.1731231066773517,1.4992351987632206,0.7560676081409001,6.413504297804549,4.639287288524223,-7.505458819440426,13.3778467521199,0.004651216697402968,-0.059428100779628505,0.22024694935848452,-0.024939480007464782,0.048321395996610714,-0.2757592561086191,2011-09-26 15:26:13.845197051,11.690431337
49.003159937891404,8.477344199458578,117.2243590043118,0.036769334384414085,0.0287843657051841,2.7864809716191883,1.2182645909338896,-4.902381928662569,11.342731594536406,-0.5160044102881958,-0.004248751916624965,2.156260985404447,1.795531533127946,6.475116790338921,-0.07644945265255831,1.1455663437659984,9.253549585099455,-0.09434879414724281,-0.13661685565130438,-0.17629518047618378,0.0330764320164863,-0.010868005403744187,0.007966280334897683,2011-09-26 15:26:13.945375579,11.790609865
49.00631859164929,8.438272765545912,118.3348761141365,0.0149365633400174,0.048485029381928335,2.7851573108818086,-0.3697416752808369,11.309602500656005,13.289961216201448,0.26936650860610317,-0.15500213788885578,2.778451535605077,2.1796400983107973,5.8255160377172075,2.258982953315666,0.7678936199117508,9.912840372494518,-0.01901614098964993,0.11186390487398509,0.08223903123407618,0.03858520434718307,0.04791697743257387,-0.07123653675166164,2011-09-26 15:26:14.055183835,11.900418121
49.00161027384462,8.443830079433608,125.87490129978346,0.023933349543488417,0.03127993537583253,2.6301207579025414,10.853099278131317,70.2135635927749,4.994762476141416,0.3027660800471885,-0.14839727964598448,0.5592491915412643,5.19980187206649,11.273639574846378,-1.2200990519672745,2.381307328705285,10.366696688707338,0.0417566519645071,-0.25397908686688253,0.023359423919360606,0.06768076089182218,0.09849495728998076,0.08903740735246089,2011-09-26 15:26:14.155235282,12.000469568
49.01308137626878,8.475977663795225,121.03781753517356,0.07549608738600025,0.026514715349277716,1.833575920812972,0.41334303879487955,26.1742202000599,21.48621853379299,0.1857390460165166,-0.31563510920772375,-3.489416580113595,0.9760644174013402,8.982627254804049,1.3334608536988195,2.095907807170669,9.410666577775487,0.06694456310263408,0.13465531563454208,0.041109530417108096,0.0011686906122824175,0.01420770922451725,0.06065110855914048,2011-09-26 15:26:14.265286444,12.110520730
49.00292655048731,8.436357056970653,114.61570784603455,0.23284153139877906,0.0035015614725910915,3.0865460506129105,4.003021178016011,-2.9274747540417705,24.320966835182396,0.21871599840371292,-0.6530893932605675,0.5022110987395904,5.286399309855715,11.488810673359112,0.035725581181693444,0.055876469553431375,10.646802648085066,-0.0052981944941572125,-0.018896327894222024,-0.024628469105495123,-1.6274337721580018e-05,0.015917030930739456,-1.3609550354864388,2011-09-26 15:26:14.365186295,12.210420581
48.96542517145781,8.450035621760584,121.64071765930267,0.0027774741003588725,0.037198568209721714,2.456569238620818,6.63856696299735,-13.05288521388813,14.744444388585812,-0.2046507821157036,0.2902617254616255,-1.4513583914076773,-1.3255435686207848,7.879455617933246,4.653920362844,2.4404618439853927,8.70315843617385,-0.029936208961892755,-0.0007565121320835283,-0.1827073033370692,-0.061759543940071125,-0.04257919898502748,-0.38419414812130137,2011-09-26 15:26:14.465201335,12.310435621
48.99849736875562,8.440972742881426,118.71130803383885,0.017759980596559862,0.07525213930423577,2.9362451723485217,11.054343630088985,-22.227307173328615,20.28577808063607,0.04276680868578183,0.615871520317081,2.0158093362469147,-4.056308593643455,11.56917188587166,-1.343161042108626,0.06491808203282495,6.923936080999182,-0.11675375873069443,-0.03230818964467954,-0.009687898929824192,0.2264690153998261,0.01942069617774892,-0.21557878798861155,2011-09-26 15:26:14.565209751,12.410444037
