lat,lon,alt,roll,pitch,yaw,vn,ve,vf,vl,vu,ax,ay,az,af,al,au,wx,wy,wz,wf,wl,wu,timestamp,rel_time
48.99015539043169,8.428422752712143,121.15862170186017,0.042988412233293784,0.009159608003792622,2.7772372397325107,-1.3760430499314897,-142.4237715765139,25.111775378219335,0.20310037702225633,-0.14495082522573402,0.6206706909676852,2.807285990607839,8.756953891033021,-1.088722299342533,-1.9389664845045786,10.77669656080819,0.1430360116813018,-0.606578895303772,0.20037773325731048,0.03926841817853326,0.03350083075137138,-0.22774903131221103,2011-09-26 15:26:02.154765714,0.000000000
49.00247504996811,8.467672822271567,126.22523407471753,0.051643073842380656,0.04935325234798929,2.8902175872142286,-2.705930794934576,4.035491166954643,2.0419852001157546,-0.146612814615454,0.045200220709177404,-2.268283994883872,0.24517532670187148,9.611602457548015,2.1438496095954642,0.8003965922326565,10.227536377919302,-0.05615177987423873,0.0846031160501308,-0.0010748130636170136,2.2337035601991014e-05,0.2644232089159597,-0.029298802180850472,2011-09-26 15:26:02.254659604,0.099893890
49.00464508054818,8.461421795099923,115.54596467686773,-0.0027493271262171264,0.025223595791165253,2.8030090656007025,-2.905447832395798,-17.220326294454626,0.01486968234453969,0.023106428744108034,0.943669599528087,1.1060996643539087,1.68503429376586,10.259812993149783,0.1109330245509578,0.43790973204693234,11.807492877676411,0.28799613847801825,-0.031142402066706182,-0.2238184593992741,0.00471978582473245,0.011672462664744752,-0.37459128406875764,2011-09-26 15:26:02.354669272,0.199903558
48.999538549613504,8.448232277448462,124.3011423164067,-0.011907409295855102,0.07808545031462877,2.8403118534587466,4.623707620717096,-8.220226954817951,11.627437831475744,-0.07119132084324675,-0.12165871747896218,2.2240607468244575,-0.9537316046764022,9.212741204236591,-2.3723320267244183,-0.17410461521570986,14.903500463865418,0.0499395193199139,0.03128777191655614,0.12701697554680907,-0.28286092177012945,-0.03904160558841435,-0.1864084357880703,2011-09-26 15:26:02.464709916,0.309944202
49.00346896968708,8.499606620758872,126.17867557630593,0.038094075600152905,-0.0973785808114159,2.7090960015225565,-4.165743928208241,8.954650491229556,-33.97698224042511,0.11965173682688966,0.057862366482393686,3.100373531210347,2.031609163455636,9.48128007463522,0.8694694583314643,1.4909828793102708,11.038865701949593,0.1066547626270853,0.02863632971018303,-0.08630620710786073,-0.16644747227723689,0.016468612406314195,0.0216272396825391,2011-09-26 15:26:02.564723050,0.409957336
48.99360300698135,8.450772478081607,119.83160672459749,0.04387657028043293,0.0531393130521886,2.61848341117669,4.661040360600681,16.81445631433076,3.5657010794140063,0.34353938534662054,0.4068661161456837,-0.07957450464993321,0.43708931508517923,10.47359043026056,-2.0288190032087425,1.4761077178384263,9.89330182047378,-0.10450064497025244,0.05187142068211267,1.3149622079256664,0.08910148724284675,-0.01820939967339218,0.056060566530358735,2011-09-26 15:26:02.664904444,0.510138730
48.99647689510292,8.471560809969475,119.39061939953808,0.029436482940276013,0.00227076470052609,2.673432410517057,-0.34902573434366524,25.775782079908467,-11.089259932725213,0.015130330258779013,0.36421519790216084,-2.0154194445435434,-0.28791981615244644,9.070980156546117,-3.5490935490298585,-0.3531217692888242,10.671863959865233,-0.0772442554544556,-0.003869765726351871,-0.12278441679740207,0.015759243148330063,0.0016268058213343,-0.11209431857642681,2011-09-26 15:26:02.774735684,0.619969970
49.00026033175218,8.405275927893465,117.94146843969078,0.02247798721131577,0.05501935123836689,2.8202913617927727,0.6118973011957183,-41.13668410095184,11.62267581794186,-0.11829204880107647,-0.062308551066779995,-1.0793442611021935,1.825089956541901,20.094877200853904,-2.841668537567446,1.0715316399449584,11.068942466452478,0.04671310630742546,0.0595269575487331,-0.11811160050463274,-0.2836538396783387,-0.03492394529699117,-0.048065242866961254,2011-09-26 15:26:02.874734600,0.719968886
48.9941925014413,8.485150141381101,118.17719516474371,0.007892369704349044,0.029000149098248048,2.6482717853462283,4.502050005439009,25.499402252699117,-93.97414278056073,-0.25416535664564033,0.7049771607780488,0.6216411910155478,-1.5120686363848552,8.128708265537071,-1.3463075730031344,-1.765476906736811,9.408071109352743,-0.043411095537776105,-0.07139995823694177,0.008099356247215507,0.12851072279704273,-0.05534838018377714,-0.34227496235370275,2011-09-26 15:26:02.974729799,0.819964085
49.006568224301766,8.32065084623543,125.83229153302797,0.0330065069059717,0.05262402608563308,2.3496254779832126,3.124286802303356,27.077391134073093,26.988162247759444,0.03162971918825985,3.3656204694473324,3.336767163494534,2.4317385308539885,11.28848142063417,0.7617298614902394,-0.43382469692191455,9.269724657735708,0.01772134527545666,-0.025198477013270392,0.02075273744665627,-0.04415274481813781,-0.03687035737534325,-0.17038777350862663,2011-09-26 15:26:03.084731430,0.929965716
49.00173772493514,8.449524229190468,108.01260445889955,-0.16554857583932464,0.0747459950876598,2.9965191010983614,-2.466124526693078,22.623760442121444,-19.038019615871317,-0.1637156632502753,0.2131258628268021,-3.2587032438479775,-12.619247386102387,9.817554167814025,-0.4354914118532627,-0.0885791043206646,8.404985375280512,-0.06361115560468278,-0.06430393457485262,0.0370589553296116,-0.125490409681913,0.05242391885072663,0.04321778044440863,2011-09-26 15:26:03.184814523,1.030048809
49.000758679776375,8.467168003370169,116.27689520639171,0.054210840403501354,0.0009773480768189013,2.5799070881500614,6.736900905490996,-4.351250541730066,7.678115420408143,-0.321764032455474,-0.19453676535948405,-12.410454554331924,0.4390510191170325,11.314645747360418,-1.2770613579704024,-0.6471419438508672,10.311584126244407,0.02733069314115851,0.0708078690286312,-0.4123113897021551,-0.10613291567137065,-0.010654128472525438,-0.013460293472017675,2011-09-26 15:26:03.284740405,1.129974691
48.99766725581584,8.464533918849103,121.36165489137395,0.012570498015725656,0.10022617717247694,2.3963795688551595,-5.8372430268162665,13.917120268408391,-20.709017382663635,0.08659986619524618,0.3063606379036706,-1.1651397029131498,-10.637389297401418,10.845852953354411,-1.5550005854830957,-3.3118416698094393,8.752863791728025,-0.028592277289120345,0.025251012159717447,0.05899933803511863,0.06882205849050455,0.021866311650720147,0.04301051117410803,2011-09-26 15:26:03.394744059,1.239978345
49.00888318754505,8.356149606484182,121.64618926931382,0.07497384441556743,0.014277045761263072,2.7225109324824306,-6.639198089201554,-4.828817988416625,18.080001760055115,0.044447699732704626,0.37203807099102754,0.30745050381908967,-0.0014718152827692954,1.9007139283468462,0.962089290281297,-0.5465265007027675,10.009094918811327,-0.03272149119845629,0.09213557777986667,0.06795108954655117,0.040388272735501815,0.006513847274330386,-0.09827141317321578,2011-09-26 15:26:03.494763979,1.339998265
48.99721224639294,8.422886942078923,123.39922384354128,-0.004608885471902257,0.02626952775523851,2.164790787298454,-52.636530081954945,9.934108466513102,-10.56295990891461,0.16111079697839864,-0.1572327882686226,-2.7895867630969495,1.7156930181133099,10.606023300957569,2.823080719012798,6.30516103240616,9.036351818184867,-0.003257536312683354,-0.33347190767044277,-0.015015571663217575,-0.04113220116433882,-0.039312911992182314,0.15568890706633337,2011-09-26 15:26:03.604810736,1.450045022
48.995172125342506,8.449322912990764,117.89398048796497,0.006568887573249232,0.06488418688683453,2.479741340735604,-31.706806902225022,1.3890839477249346,-25.992030898409595,-0.40781093186907647,-0.26245417683721406,-1.8751350331868326,-1.7685388005141933,9.804965700829909,-0.9975585565840437,8.532673912917899,10.792025454114928,0.04197255602484014,-0.06893703196024822,0.02305543086774879,-0.2549506662452637,-0.1329837029117186,-0.01938229645628602,2011-09-26 15:26:03.704807744,1.550042030
49.00018620988667,8.45384371159381,120.08698211758487,-0.2476346234022928,0.05041853303782398,2.6434325648846486,-33.50785011546647,-5.8638445875270575,-33.12673097898308,-0.18084187806501795,0.5979342559103475,-0.5713901774139438,1.2923125734750833,9.028372878980322,-1.2736336025506334,0.5981497889568206,10.59572277122159,-0.005677311837301649,-0.007960675988452553,-0.0942057377538672,0.08912198266764436,-0.009691857616350299,-0.1860820432700652,2011-09-26 15:26:03.804792964,1.650027250
48.9999765459815,8.484488680463194,121.24460268013004,0.022704029463362002,0.07183083539375668,1.913450723674496,-1.1979264614179492,36.7330996188168,12.340494196427207,0.12724246638542847,0.060765630340979815,-7.164250985099666,2.9096364535234405,8.742437600631746,0.7590045012857765,-1.9123053683924431,7.7683412545973045,0.07083510947229696,0.012686608370772871,-0.11209401259998868,-0.08196104889479831,0.39512680336733225,-0.19304408805967266,2011-09-26 15:26:03.904766779,1.750001065
49.00108906870918,8.464792684877764,129.2223506643684,0.29529384374372836,0.021695902305373993,3.18000573350518,-8.688651270722437,7.760812938484923,24.72345956767475,-0.07336400403817575,0.49876284284206135,-5.226932447833442,0.13650887384965413,10.180802580472122,-0.26441860333132317,14.235038320892746,10.337147030124804,-0.10002389206582202,-0.059986849200685054,-0.0883171513609166,-0.0785837358047472,0.061748578650879175,-0.06969304281731326,2011-09-26 15:26:04.014787460,1.860021746
48.99694726720763,8.471616307104883,118.56974656524802,-0.11429251069921995,0.01329108270961352,4.608836187849487,-2.235069015717286,-40.06018078850668,26.169481969344854,0.15100951386099631,-0.19206796222277736,1.5926704507545855,-1.1261423577835667,9.506328747358564,0.953881644243888,-0.5034182612077214,10.177349262771331,-0.07854838489792228,-0.17380969602835994,0.09500932881872749,0.038068192703366595,-0.06135167913866639,0.07400757898921174,2011-09-26 15:26:04.114758672,1.959992958
48.99525885744616,8.695039195726238,125.75167034664356,0.12848526001118815,-0.020488388482914774,3.0639160901321065,2.3719690902501926,53.23153862379407,27.79149845926076,0.08985449429047632,1.5476352080325246,4.045913714183891,0.11436881984529881,11.107417792551779,1.3811133124870583,1.0924755053747772,11.339700077934737,-0.015527419294965247,-0.01818276469978661,0.02013848491648765,0.03838661761726072,-0.05645945980647759,-0.08876044464327279,2011-09-26 15:26:04.224846385,2.070080671
49.018356078002896,8.417718173621578,125.66099718849831,0.025018765408143028,-0.013461941123081689,2.82794735442558,8.312744773506582,10.632538603498745,-0.5026178458939461,0.02462801516975538,-0.2186230936986937,-1.0117502593455652,0.8390460698360367,8.246028102678501,-0.544765685398706,-5.566427670435239,14.208708577747501,-0.040734005736578524,-0.04094269846954132,0.034396230295730114,0.07196592885085074,0.02309183647310816,-1.419186586680792,2011-09-26 15:26:04.324822405,2.170056691
49.00304531685548,8.481160348300833,118.61900895240166,0.05070699679769197,0.07132670975442143,3.1940292542444544,37.5901859454344,6.8484472364525955,-13.485022106575975,0.02305387402471041,0.07681471658167885,-0.4129502161400448,1.1036412664186597,10.782592382852622,2.6317741542413717,-0.3386833728567238,9.98580782398704,0.03329493891370657,-0.059630566233182344,0.7764902215286004,-0.01830427271197198,0.08282164191319237,-0.2221791957068469,2011-09-26 15:26:04.424833049,2.270067335
49.00265653717679,8.453355190367704,129.80594867138836,0.017791062668095797,0.04076733797481636,2.948425070182925,-1.1023643242234133,1.1879142043301434,-2.9756969429630544,0.5140392035424769,-0.27939439269485083,-2.164979596598015,-0.013641876361235594,10.11644450716997,-0.24526368757666728,0.5215733109689331,10.652471469613229,-0.004941858687865073,0.0020140418887893267,0.1633108556294123,0.31439169922226623,0.02272882615777879,-0.6142284170669352,2011-09-26 15:26:04.534794543,2.380028829
49.014484161716716,8.464346506893772,118.41816445809695,0.03228713206163922,0.02850803109254612,2.2884799843295287,-4.3652802718458785,22.589712133296636,-4.420069530309183,0.024859295834134786,0.013164864598275414,-2.3462323556082385,0.9719129633080905,10.019033002445513,-2.0563378891903685,1.1764759070653386,15.852925823086792,-0.016500421335463648,0.011028283444235917,0.06662264178410982,-0.06532534003155396,-0.052287771621234616,0.12480235629509007,2011-09-26 15:26:04.635012818,2.480247104
49.00998749021581,8.43171925838987,118.19640611679172,-0.012335977139934055,0.07623147930922228,2.7544284043002802,4.523326024630424,-5.214136087693538,-0.24440299766073317,-0.06398272417911108,0.25947496678408766,-0.836198768711077,2.79183631925864,8.896002518897207,-2.92337618214411,0.31307522929983955,8.149306782228457,-0.018769912827286416,0.0373775649059446,0.013665877317536783,-0.07146567327790951,-0.08633505449182999,0.1983344276099853,2011-09-26 15:26:04.734847577,2.580081863
49.00793055182034,8.455353043492,124.51457306124543,0.06285579188879059,0.0012544293121307462,2.8606424770377408,5.585731174549875,144.837052970515,-5.292200461785956,0.004479349331617904,-0.47424362871413694,1.9344413217192162,7.1570192638279435,10.20445144787329,0.6485944828312011,0.06996380999561469,9.008881891842309,-0.05667015315405376,0.35323416546301784,-0.02208281024743574,-0.010575786904749345,-0.012593261271827085,0.001163514461859907,2011-09-26 15:26:04.844993221,2.690227507
48.99736728781217,8.459651312064938,131.10319922266063,0.0593671381829612,0.22823152898425042,3.369044898552633,0.26755100399267856,-6.094152540433921,15.705679608841146,-0.05132574014753129,-0.20180746760296547,-2.7571795166583715,0.20835202132202546,10.261917622159235,1.7399933377494543,0.901997099628073,10.946531307330204,-0.03922545291766074,-0.0470701206996691,-0.22227221823817256,0.019218150266000187,0.07195981558907048,-0.04269700993230713,2011-09-26 15:26:04.944837986,2.790072272
49.005644706109585,8.452731612184873,118.63463523595524,-0.019085673075526745,0.013440356333795124,2.7971279935746463,-6.433633951667804,-17.282102160910718,1.7775147947271501,-1.1701918907920161,0.5104483896846768,1.2218080218241958,0.48959560651278866,9.000587958641972,1.6065280200900425,-0.613766932789576,13.742648339647628,0.06941782240634821,-0.05484188500100472,0.12505874356204497,-0.0405237670606338,0.039889193455625936,-0.014004192210887246,2011-09-26 15:26:05.044865826,2.890100112
48.99876258293582,8.455605106563437,122.72192913082449,-0.014908110631708275,0.08504437016745228,2.5410481320437133,1.3781417616560445,-27.300411410629927,-7.035857610534023,-0.01597694238598952,0.1935355856231063,1.0149541278649372,0.30710166965509084,14.04727234360239,-1.0788913261663584,0.2370921756827864,11.790126897306536,-0.07053206820932588,-0.0058775499324482,0.11393635136372181,-0.019373938107210973,0.04780191478046717,-0.7396932061523032,2011-09-26 15:26:05.155109086,3.000343372
49.00110008629559,8.465754896328226,158.8726612937173,0.0242299925532845,-0.07672097458798852,2.5617447309837322,-4.926393977242204,1.5084742358142864,5.93284405002953,0.22754219719351745,-0.25971577290864345,1.3965802289995992,1.2214902818958988,10.780196019889527,1.7189581233363722,-0.6373780926705562,9.013907534956923,-0.018352988137608956,0.06551770621647975,-0.04932390916868563,-0.0035967232220682765,0.03563445178710974,0.024076453883087157,2011-09-26 15:26:05.254818913,3.100053199
48.99910592433248,8.379404631015705,120.17201495869907,0.06305360461240325,0.05679168400715308,2.9980441027332856,-4.06792164188186,4.877630039492521,-6.839410452211863,0.07900932291720075,-0.48658669384628084,1.3120439931964767,-0.9862229960255591,9.643323418458952,-4.160771390633706,0.6248467242760767,11.481618495523584,0.062625183329669,0.00826701695381278,-0.1062414048800193,0.055783251125829825,0.03273565562509329,0.05342932331873576,2011-09-26 15:26:05.354796460,3.200030746
49.00143929847303,8.47111958275127,125.15682350927845,0.05871707990586252,0.050318003349393,2.684859014491429,8.117538220906683,20.06071340950043,-4.095758547313799,-0.13159626333155114,1.9711198791867872,14.812441890490136,1.4640462927416351,9.31514117988241,-1.5714949152324698,0.8196802392297464,10.547890221392022,0.2094706813549584,0.04954463882129606,0.2916401208921338,-0.021095697096392085,-0.49712015991489733,0.1808482474033407,2011-09-26 15:26:05.464827597,3.310061883
49.021971909266625,8.450696317431268,124.03706337582922,0.07343137251584993,0.038399746023841955,2.9755610701069264,-0.8251519171681814,-11.296554516370339,20.228646837217998,-0.20418752351280067,0.2509420792341053,1.0620897431239504,-0.401594812619899,8.47994085310237,1.4038234019551876,0.4279233819524622,8.114379161187198,0.10958054464597022,0.03016748322766211,-0.31775181741528247,-0.053650815111950086,-0.04375754265929564,1.1573870142822318,2011-09-26 15:26:05.564842226,3.410076512
49.005043544682465,8.484535677724287,122.8859914285447,0.06811456869833876,-0.002504040590311306,3.1788878578748423,5.219523901896332,8.343379970838164,-12.269055873236312,-0.2691332875834735,0.4692042951375594,-4.212073942639418,-0.56446132445509,8.845242528492914,-1.0941577776966729,0.571862487573389,9.132578485082096,0.2126273459744556,0.01531959147642338,-0.009858617912460827,0.06331435093669337,-0.015276694714716292,0.3125579139531476,2011-09-26 15:26:05.675028583,3.520262869
48.998683030746136,8.44999588056682,119.55973332336391,0.00029643956996490764,0.039508684828250075,2.6574148831794426,5.079453261108867,-161.91523019464464,-28.457127168230457,-0.13532220883934595,0.05320923812047456,-0.12555623949846087,-11.787455616961964,10.487858828536691,2.1421154835909255,-4.592991671172843,10.798308755156594,0.012541968016996462,-0.020440328536595574,0.1149555434515238,-0.008754563734143423,0.052779721459616624,-0.01529259064086489,2011-09-26 15:26:05.774845475,3.620079761
49.00440192344434,8.453391288334359,121.44411453072223,0.04816022218942441,0.0027829676621561744,0.6561691941026115,-24.750869980545552,5.230496155972745,-10.902169389364897,0.07884718700971981,0.0018695569343692205,2.3402569777775404,1.8306471060235334,9.165640728402135,0.12074514709736409,-2.3719704615593384,10.421628725282469,-0.04368366955272458,0.10092266615822536,0.07946653674779627,-0.015250767163319183,-0.08555421750034314,-0.15425240435515883,2011-09-26 15:26:05.874873172,3.720107458
48.997605618098156,8.465468608883622,122.40454810281217,0.02731791391464827,-0.08702877900636283,2.747874322899513,0.0015108273588390966,-76.4704763608054,4.2786894918063565,-0.21904054696156167,0.7964727794157034,-3.346778142034859,0.6546586356899051,9.911196826959381,25.387793520096366,-1.1304543209424445,10.061124750767192,-0.11049785652198824,0.014922575524403675,-0.22840454643860808,0.006742221651398945,-0.012350124108708296,0.25329958979988537,2011-09-26 15:26:05.974857313,3.820091599
49.00071525201936,8.481832876453131,124.88367088419778,-0.11345329416737955,0.022346040700973825,2.7208174365552535,0.3154495783828978,-22.75790885421306,0.25744390727517136,-0.20208545675461645,0.1497634284235798,-0.6763740511845409,-0.9150769855696922,7.0485448313744445,-0.3398083939798331,1.4831106937667826,9.15002230625007,0.034343173134616774,0.06634848406980344,-0.22727515564749862,-0.051815715387446504,-0.2089272447630199,0.1928391229282045,2011-09-26 15:26:06.084854722,3.930089008
49.002134297681366,8.42106703632953,122.66063654493588,0.044075989654315195,0.055209031561731466,2.506130730725414,-3.445728783822088,-9.643269353371345,19.699512804961234,0.09462804720726546,0.6485395792913877,-2.0345070333208017,-2.3437307786796664,8.4703442894739,-1.4157710989532086,3.5327992516576097,10.056733629390953,0.060892763038113036,-0.0505097119520173,0.20020230991403284,0.12333208371286355,-0.11304281812297502,0.05478204402648193,2011-09-26 15:26:06.184905935,4.030140221
49.001638311301775,8.452242327106779,139.7875226382527,-0.14674305342045063,0.05028047431788781,2.9638332897849464,3.8029949806857575,-0.8670516799816737,17.779965110759274,0.17654230647685415,0.5151387845841003,-0.7712325728055869,3.000366791614742,10.153262403030741,-2.384814472701188,2.6551447562279447,11.645395716390773,-0.02223083448307565,0.03814504696300953,-0.0780967551702987,-0.04474401485751302,-0.004770908185119685,0.14080355531069583,2011-09-26 15:26:06.294843886,4.140078172
49.00275561473683,8.463576654965825,123.40560511587681,-0.03663791651258065,0.04970552021119843,3.0553264194100023,-0.028708083565732467,32.98910716126722,-21.9121370151578,-0.04994169099350574,0.2511368109296881,0.4870540910404601,-1.5514345881706935,10.767918356526614,0.529556817036045,1.770812026228655,3.083296448478035,0.3137120377255009,-0.0078921797047319,0.024796374007405836,-0.026091242664538317,-0.006119331269116952,-0.130131306445804,2011-09-26 15:26:06.394806536,4.240040822
49.02231357369318,8.455465687997828,122.23826301357524,-0.0028486772806644127,-0.005272632627703312,2.414859141713388,10.068983383002422,-4.26149352507239,9.000554970126087,-0.02723763489801784,0.0456694284339477,-0.6929538194099167,1.0249837064297103,11.067396170659121,1.3096236220851647,-2.183417710141972,9.279066057839403,0.018330706716530677,-0.0258066595517706,0.06323856199130944,0.0012880266717172706,-0.01061236474992153,0.025738811669340226,2011-09-26 15:26:06.494882266,4.340116552
49.00108077373621,8.46795543212193,105.20072853726342,0.1799768657781745,0.0004887241648956694,2.65503806105381,0.5103729971384169,21.717814783028977,4.132041386218743,1.1449012894357453,-0.07839549705309257,-4.158179369173612,-4.028617955701068,7.775778210000212,0.09397181065169571,-0.5617898226972527,7.667755883357801,-0.04051052530211301,-0.06426755445814152,-0.0033739461727948206,-0.3604624998073882,0.02906772525529814,0.08515865222799866,2011-09-26 15:26:06.604879735,4.450114021
49.00143844519863,8.482534034742065,119.83110113289561,0.028834769120466376,0.29854136096620504,2.4743437334115614,-7.310924697385245,-6.726142748521911,5.016885809723584,-0.017820981395083743,0.24593090514157395,1.6236012137091405,1.3094903340936543,9.858175111295877,-1.5365776322230427,2.363904884138831,8.31617183884622,0.04835049735554781,-0.0041849632361719265,-0.1268903391360428,0.0674389997869931,0.006654338612127079,-0.13883821141591302,2011-09-26 15:26:06.704905163,4.550139449
48.99401120258462,8.485275849522452,123.92435139238557,0.03858928831662203,0.06123758961838224,2.9569599730930576,-4.017335369892479,-15.601829576493188,-7.892198746590111,0.1124882756693453,0.35051957705204795,-0.9173182343456276,1.2357388005787824,10.479892754975168,0.7632179504706376,-1.603248117040576,9.241218155685232,0.038650793139429276,-0.09575968036937972,-0.017287392097758043,-0.06247089009706492,0.01157684470810056,-0.1480040579359914,2011-09-26 15:26:06.804853565,4.650087851
49.001131423755524,8.45702267796306,108.31979571928066,-0.09928425020035098,0.05232435180087602,2.9470553482317037,2.06419479120772,-35.49621012011915,4.576117588604689,-0.138583489747053,0.26706378854868557,1.9362161392632529,1.6907968732754282,8.985724404978143,0.008761256136645523,-1.273334926454699,10.442586704283928,0.02033260270020759,-0.017987802685690533,-0.23646943203265589,0.026610160520519812,-0.008736570938063145,0.06265862086431284,2011-09-26 15:26:06.914923161,4.760157447
49.00165133772125,8.48589382854931,123.79977998511643,0.04104105660857001,-0.019694326441945964,2.385713498413992,1.5346389673123182,10.081590369842214,-82.075216005497,-0.9625884378326569,0.17944968298524433,-6.923448874374902,4.68010256118166,9.85875876501419,2.362289214077409,0.8802570378998218,12.015965346478534,-0.009662027833808704,0.01751557983505927,-0.11492342326671391,-0.3167476586033182,0.05782667988417593,0.02515909262268428,2011-09-26 15:26:07.014867549,4.860101835
49.00317584498937,8.358758053344765,119.5182474097191,0.028814929768203688,0.023460881283613837,0.20942168706514863,-6.173719029069352,11.655985126840623,-18.500072033478833,-0.031830193494072005,-0.11700640334138566,3.4989511642628424,1.4952165051354476,11.292120706862327,-1.4947873999757004,1.748399568969784,8.813774724953145,0.023961233851959567,-0.08567844781127493,-0.04667933622054021,0.09173549352540558,0.09401982165166402,0.007729551541584109,2011-09-26 15:26:07.114838524,4.960072810
49.000466077181706,8.496431201851253,124.10839050326625,0.03557678477441002,0.024643550227033385,2.111507104273309,4.043184436758659,10.90256726398882,-49.820284231945806,0.061677190750696,-0.24539455083163744,-17.460896694865504,9.729012769824633,9.812728554809254,-1.4339262614639405,-1.0768400947657166,10.834606668793299,0.04768925198980731,0.006395551917808698,0.17608847985835294,0.22366919075587022,0.43482936945406503,0.1916190260909008,2011-09-26 15:26:07.225129996,5.070364282
48.99895896402061,8.424451277702998,119.7248697410597,-0.011794820770205362,0.035409425151549455,2.8139069187119268,0.6538832702656463,-25.521164883661594,-103.95305519550544,0.11285192863326785,0.18526343255766461,-7.68149991043517,3.887333691255845,9.852452778194156,0.7087638681078365,-0.6422547131190596,10.517427633548412,0.003979891088738409,0.09020227570244962,0.018970393066695426,-0.10470084931539028,0.15809137692825875,-0.08691897310746417,2011-09-26 15:26:07.324963984,5.170198270
49.003743491342114,8.448375358541925,122.22914746527398,-0.008289139274290109,0.01877404977459722,2.326988289912017,-8.079272137794975,-9.73844465157094,-44.63599731114101,0.15481890071725116,-0.44448794356569965,-0.002438947901345967,0.6603279070922172,8.089070541264316,1.03588855121411,-0.9891029645502846,10.484587045384394,0.038858090347954705,-0.04366701184990122,0.04582413601685257,0.10831502238482985,-0.04913361722619854,0.093589049243837,2011-09-26 15:26:07.424913233,5.270147519
49.00357762950416,8.437831918851131,122.87495337476679,0.15028789328074021,0.017494562684358343,2.997726958527541,-3.9032555858808347,-57.994504631834985,4.869300449714886,-0.009546822646934258,-0.18280194529270516,-2.860029169072958,-0.14953379247395004,9.794928232322237,-10.801049367043815,-0.20157994638738924,9.521219547043442,0.05476269064162753,0.10051310982064385,0.09094409151974235,0.10399312234207113,-0.09057936056018527,1.1113178313585883,2011-09-26 15:26:07.534904391,5.380138677
49.00031625215391,8.48242148425939,120.36725159846848,-0.003813776104981542,0.0943906410714989,3.145389061973681,4.377448094582608,5.9324851672432155,10.341553209180477,0.0419454893215591,-0.08879186227539565,-0.48248581211024116,1.9986648814792687,9.193932171794511,2.466838312652349,-1.6676824020663288,15.836252357868958,-0.053736507222350995,-0.005213530115555282,0.22685966318810702,0.031876695747421364,0.12624208072710905,0.11720752597478254,2011-09-26 15:26:07.635086362,5.480320648
49.00205283627911,8.45579000389345,121.72437968492791,-0.04647743293047052,0.03690955592310403,1.2276311469061074,-2.753547936194759,-11.34353570851115,8.3960444068832,-0.627196035298413,-1.380977263122011,1.5521838717312435,1.5105099311214907,10.72710249935107,1.9964308015738492,-0.628571125850774,9.230831820600047,0.07777634382666075,0.06591946425283741,0.035699190985251913,-0.02638473156115474,-0.018461154135292757,0.027694272500504144,2011-09-26 15:26:07.744981094,5.590215380
49.02269168737981,8.467077366513445,122.23271919553808,0.05430288149642068,0.0318537793922508,2.737071695620495,-4.080850301789201,73.58457746154012,26.819739270217315,-0.04324090151767304,0.0022063272090137066,-0.29281236912899977,2.7456103858885506,9.2599241705487,-0.357034314352833,18.63934519412185,10.719411694877564,0.07151589431302169,-0.07040858847624233,-0.026384543095725903,0.0540027210759083,-0.03971863750074476,0.05316263474584365,2011-09-26 15:26:07.844963118,5.690197404
49.00145343305958,8.597835977661989,124.33223724986793,0.056116864738724515,-0.004156879735975061,2.849694881447928,-4.613730575327324,-37.51217545317701,8.17128882192523,0.1576573288957536,-0.09470868401507719,-1.3095822825117773,0.28976223989204386,10.999473090836087,-2.2759980606735613,0.08935068053178948,11.97430065183132,-0.096105457176169,0.35362445872737613,-1.5673270482953403,-0.028376410531530043,-0.018368169962808253,-0.09389530090526235,2011-09-26 15:26:07.944897548,5.790131834
49.00364507783496,8.481575958383184,125.75445476452416,0.028925014050675466,-0.06781790078046943,3.135942034085386,-0.3203532327732065,-7.800504502928481,17.784293269074233,-0.008426804516820006,0.4948147852959581,-2.2197754109311436,-5.144816846179859,11.24937705052316,0.658552850536255,-1.9058525352521012,8.785576136320303,0.045638829235896614,-0.3739967264171328,-0.03105333105645936,-0.017381791373201845,-0.0596508771079795,-0.22412735319256277,2011-09-26 15:26:08.044974005,5.890208291
48.98965023142248,8.464828609272038,119.18973977725184,0.018131926431848508,0.04913688038508365,3.0213347198448397,0.3899656152006453,5.14437627242517,-4.5779270267651855,1.2481942544909537,0.6535945465476191,0.33370417104530375,1.606249387946969,9.07625633960194,0.044901404947279636,-2.4934162402861393,10.753717815629921,-0.058291837174030595,-0.014634903511690448,0.2165666594526494,0.010203522584635322,0.03347996260444251,-0.021130797919163596,2011-09-26 15:26:08.155155276,6.000389562
48.99797374050802,8.4469762882979,125.55444292258196,0.0900006975946774,0.0066575128617216844,2.2826129643302844,3.9048446314325433,2.721272411709694,-28.087758054658657,0.12305141036228613,-0.3250717066442006,0.9539473188207059,10.9901935938004,9.788195534956706,-0.6257488510134257,0.03148491036600247,10.311605882991014,0.20744211341327076,0.035665282620015,0.012768994183183852,0.05782658990548406,-0.02583200505317303,0.1801829369475012,2011-09-26 15:26:08.254977741,6.100212027
49.002292656361476,8.502207904035204,120.76082310194705,0.04595575126658627,0.04956638749035901,2.648619135356411,-0.4584223756618999,77.21851064761432,5.927498782339951,0.01409844857789232,-0.5559504175315437,2.2712453673059017,7.501754700864053,11.308817925021623,-0.348478138155438,-2.220150166001169,10.319129637776816,-0.05041161052874671,-0.00733773642052999,0.022977023365768713,-0.098507921229788,-0.015587076647113424,-0.2383805705352456,2011-09-26 15:26:08.354933800,6.200168086
49.00673182312963,8.440620382976794,121.1563339568205,0.024127408543789045,0.04425973298995872,3.062226998689455,8.013588443015784,-4.333033257946829,11.231622717327658,-0.0758875281843086,0.11976214658271762,-2.0019740141423497,-0.6619841250848082,7.106297944856015,-0.9867349777789307,-0.17850519624331287,9.75086670309664,-0.05016661824828297,0.17919746362935282,-0.038211298426853245,-0.06059963751238361,-0.007534252279029084,-0.20375338082578345,2011-09-26 15:26:08.464953007,6.310187293
48.9965022041622,8.58849060872629,120.99457173608266,0.05657434880771143,0.047964737214926695,2.664117098745947,-3.5502268017812724,-92.5651367885123,6.643295113833664,-0.9966101723641435,0.32641676463945896,-1.263519478773846,-6.241443826082499,10.439677228264234,0.42730338098582166,-1.2962196721133952,0.42217430815224155,0.02423780564993688,-0.02578347323912975,0.010959797596829092,0.07255711546735359,-0.058258923184510945,-0.023609974659532802,2011-09-26 15:26:08.564963376,6.410197662
48.99907877109736,8.474256496891188,109.1587790960672,0.05864776221692937,0.03897187193147923,2.871311417797231,-11.708397582384231,8.377589204384662,-7.981280727641257,0.0998342182202282,0.14581923269567793,-1.0478435780427813,-1.33375818249255,11.674049706661602,-3.1630125121153196,-0.8342306914403861,10.00588366811681,0.012387580081325768,-0.026485375224398023,-0.08740675655957117,0.014963389493747788,0.026220159053129913,-0.029591901108399894,2011-09-26 15:26:08.675161432,6.520395718
49.00282468222944,8.453301206633247,122.95035513887568,-0.017425084001031953,0.04677655858202892,2.9726528784759134,2.04157088603685,-22.757222070927046,15.021697963330316,-0.12064378321792417,0.022892818069114206,2.067007949808673,1.119252840994962,10.508518715246876,0.5851860760218279,-0.9510829659545197,9.361861813817397,0.001292189304423494,0.028186840195580196,-0.3590716955750478,0.02427000282955556,-0.006254941804447784,0.14647251912375392,2011-09-26 15:26:08.774936708,6.620170994
49.00401711376329,8.505808757336688,124.55927442717228,0.00366040106549978,0.09823328128995737,2.9249111010937847,-4.948399509543994,1.7104447943956356,-19.299619405692,-0.043102185617965694,0.34570674323758827,1.736607004073013,-0.27159488517570873,9.069861721701104,0.6196734260817518,0.2829553080870459,10.148077607437944,0.03446494612580088,-0.028960499301301925,1.3247681021612698,0.054878038249970805,-0.017688365652194327,0.12275044006932659,2011-09-26 15:26:08.874941642,6.720175928
48.9974929768202,8.475385811961155,104.0562465020503,0.04413983076578519,0.020968109542153186,1.1734816766102307,26.95723187340695,0.16618987861106935,-2.7332698732787923,0.8551273062443208,-0.005293149582548984,1.1028929651041717,-3.14302656767372,8.458060429910743,3.310460805135229,-2.030213918475529,9.133576080332249,-0.0535260994236154,-0.05400828926094707,0.23657519476061664,0.006465817938506115,-0.0031219009098536667,-0.10832950881194238,2011-09-26 15:26:08.984968892,6.830203178
49.00183506441825,8.454518634595894,124.15899340484151,0.09262450760408425,0.05292073918846867,3.0737494837020543,17.475852456369765,-62.3573463439291,7.136311898015326,-0.09843092263706227,-0.010690100874668144,-0.5640795485672133,-1.2198258141763159,11.14054001375005,-3.679079712509962,0.715018544458778,8.885783361019474,0.030253515666435322,0.07937275410859385,-0.03971910002912794,0.03773450076243341,0.21864721507112844,0.11237554611943328,2011-09-26 15:26:09.084965505,6.930199791
49.02349113712714,8.463691843120971,122.35671077229131,-0.1007036356123978,0.06282466678582259,2.6616539535206116,0.6600829792417511,139.61474001755582,-10.764436018446522,-0.09057473054021226,-0.0087623968165318,-0.4286375404456726,0.3912188994730753,14.990307096588316,-1.519942210550274,3.7267968932667834,9.684785518854612,0.007104893618275764,0.09954602332929427,0.051431073012613744,-0.016554875346129833,0.027283502911359638,-0.06609254527006765,2011-09-26 15:26:09.185192069,7.030426355
48.99418755110553,8.478719548315084,125.58030682333981,0.05064515449705966,0.018281203760605633,2.8034224608234126,11.315149809725616,-12.731598042758437,-63.2718488442853,-0.27314396256087975,0.06296626422578945,-0.24725876305384759,-12.786874765370483,12.46951078907199,0.5331644129827281,-0.9870595433812887,10.44669529815118,-0.0002772209784130009,-0.10264452224080377,-0.0009530575822775842,0.03816723141335364,0.008722219773761508,0.2981388005652849,2011-09-26 15:26:09.294967516,7.140201802
48.99967211241025,8.373973648669361,120.22351118490978,0.05148756470530058,-0.23112102134521928,2.9565235656574003,3.861144822713601,-1.48398682601679,-1.792336120505538,0.1211874279911537,-0.03579269337803804,-2.6933471919879466,2.0627339807815517,11.718532986267885,1.977397245668571,-0.2991552013762128,9.950684842241827,0.061560422095209025,0.0391088899230001,-0.09260396979461152,-5.1853537437211765e-05,0.001669920158136596,0.05287326104195438,2011-09-26 15:26:09.395011671,7.240245957
49.000003223559126,8.512035773834928,120.39526125919102,0.014518891393589342,0.035447192598406,2.689248189971503,-1.044946802482032,-12.633427574452977,12.605105735126578,-0.04930938938438457,-0.08670935256890007,-2.037979937413449,1.7584521940583704,9.297615144243096,2.3054534171900447,-2.6302308438929223,7.6820452128229455,-0.06175691394890836,-0.04476635841366971,-0.04966618417137828,0.04259600212075784,0.2739727060456243,-0.09402054722808521,2011-09-26 15:26:09.504978004,7.350212290
48.99841715939227,8.440456291690394,103.63631756187229,0.039965102104695865,0.029122510029738875,2.5529602386942942,30.88836091775704,44.55541245430777,-10.709444764220915,0.07714394001549542,-0.22128784728658604,0.055369015852112846,1.8723296962454117,7.704164989983699,1.9098244832519502,-0.31054905261824556,9.477494211924576,0.01160422123689338,0.07451863474543594,0.20246187696140783,0.07192987146533446,-0.24987357994246612,-1.1781849265601867,2011-09-26 15:26:09.605037847,7.450272133
49.00065618882887,8.468236595692334,120.50135011951677,0.1438892459511173,0.019055062461063404,2.653584477072124,-7.9934356383781004,15.339172559788532,14.974331292690728,-0.24799667005806753,0.1602493037546617,-1.634395628385382,-2.8803513429934187,7.997035677873387,-2.973170095301182,-1.788292536460423,9.277206321410707,0.04138907601414254,0.07991511289043259,0.2213467954994591,-0.0008104242372769912,0.017332824194201814,0.2962933353927665,2011-09-26 15:26:09.705064922,7.550299208
49.009324401697675,8.464674977012924,124.12021816695687,0.0914112306796125,0.039135138153979496,2.9071870106177524,-5.525881482419744,20.148979466716806,-27.918820419161886,-0.09021865409338822,-0.07454910539017817,-0.01564997703222043,2.0006218476174955,13.229396461858542,-1.5180912584143968,-1.337478084204554,10.719308595071393,-0.37248316488092487,0.04942536525802472,0.06687208007392356,0.0640961230567484,0.02328112654519023,-0.1843044007332847,2011-09-26 15:26:09.804992739,7.650227025
49.003394298033,8.476068445204632,123.26697665333151,-0.105524383375116,-0.04703230765926606,2.889700457030252,-1.7059677032413392,12.005287426528911,-20.986964511021732,0.028186396527442058,-0.19428644842541154,-2.306660053926357,2.5176096497806437,8.527288679358213,-0.8282477185070712,-0.14715708236344438,13.294097457253931,-0.017065741032725866,0.3804642890982037,0.0730199428471753,-0.041877284714271955,-0.055628682169445824,0.051770077402130556,2011-09-26 15:26:09.915023489,7.760257775
49.00271086482053,8.465453474880245,122.04466367124232,0.025009573936243232,0.05959235663622302,2.6004608529234243,12.995158550740962,3.3658848979792197,8.11617020813944,0.08071088848089623,0.16515137724791257,0.7732408405248937,-3.6827621533310215,10.385308478409135,0.9692518271304766,4.796833702975519,9.96209479811194,0.0025621542344789034,-0.11954852409452733,-0.15625940658566462,-0.062297324364679316,-0.2956186084675504,-0.07599231727330219,2011-09-26 15:26:10.015047226,7.860281512
49.00339644871097,8.462917641388335,122.36629753119396,0.025681988815986212,0.04482959811973233,2.6784223478240574,-2.5399977805982186,-3.0757884844773837,16.235189981487547,0.09034787616451294,0.14711433400695884,0.2811205583822104,0.33124312354963126,8.619247634936883,-1.4874307775234075,1.4698186339167143,14.628551090550793,0.2081998913414166,-0.025045608276899153,0.2690189712153662,0.009879652911612608,-0.044327383454120184,0.056601555215597156,2011-09-26 15:26:10.115009246,7.960243532
49.00143523557291,8.451652017885529,123.07753300196819,0.07249000026594085,0.03582860018173802,3.078627845678544,7.964968612452416,-3.448222212381519,50.109099475564584,0.06743837254296793,-0.08838125068363997,-1.1578370616995732,1.8804725177079584,5.19514928879847,7.955578376489814,1.4668452800460634,8.837233734437758,0.04870955296686978,0.4434971986521452,-0.010347956844940128,0.05516120105726201,0.04183943545541302,-0.3174155699591836,2011-09-26 15:26:10.225054455,8.070288741
49.001353873093585,8.47699821154397,113.25780472073407,0.05802207292335575,0.05795750498367015,2.4673434687776457,-0.18816919344085467,-5.894248365005731,-23.20559696166537,-0.031457635151287584,-0.5228147682057424,1.0183804869195445,0.37606889044284925,7.49541145372833,3.759320804374813,-2.2576603061994938,9.624586012520119,0.05635196263704124,-0.05664966023051375,-0.11557780198062673,-0.007981750767513672,-0.054780983661478,0.02351477644273584,2011-09-26 15:26:10.325088000,8.170322286
49.00587567569154,8.481898653264833,117.60338630256798,-0.011195084788637653,0.022567866964347746,2.5875558679150252,-0.2532290667481863,-12.541028637156046,1.293592945322915,-0.04206652225548613,-0.12586793681583003,-0.2466682971914005,2.3143670340378626,10.171291167276891,0.9460710914963062,-1.0749535813893603,10.615016614424968,0.04137986830409837,0.04537718274787567,-0.10903427403973354,0.05122258937370968,0.0019759176744758872,0.010907493576342776,2011-09-26 15:26:10.425058249,8.270292535
49.003940178048445,8.47983498788714,119.17386725024588,0.0366510341694201,-0.20346012699087643,2.595966945413519,3.7353541372439127,-38.37472706036455,1.3249797753262331,-0.5357633024210047,0.14526945555966952,2.573545933580214,-13.433887115021854,8.463027208326517,-0.171899824791801,1.1881904705353203,7.469640340519176,0.035848764511970214,-0.012159205731050829,0.058794948767748524,-0.03504180043222769,-0.03339592814754891,0.26181154735228834,2011-09-26 15:26:10.535035478,8.380269764
48.96225940819324,8.463750424846548,124.28552185320525,-0.008438172343824182,0.02413989207612135,2.7023069490216263,-0.5386413724389902,10.223603708024626,6.663210406593261,0.013428562053350366,-0.07993786448218479,-4.179714232738936,-1.574635818762414,10.936185646598883,-0.737924581557963,-0.11510617468044311,9.681923453435164,-0.41684857427573957,-0.17994062677440176,0.13745490388588358,-0.002841191556426146,-0.041644380887281944,-0.057129393512127924,2011-09-26 15:26:10.635244252,8.480478538
49.00114189005306,8.467709190892098,124.87988062578088,0.02748303726452867,0.00215216671828717,2.71110506467165,-2.5002704108897658,-27.519943610459695,-3.14052389814699,0.9281963867372022,0.540060671268384,2.9171087691548343,6.483676134950283,10.601935527699322,0.6087902037173438,0.4707306210034628,9.360084296791634,-0.189442509941992,-0.050078344666430435,-0.3386651463360654,-0.03891011631903357,0.10456311628535343,-0.3877705539772611,2011-09-26 15:26:10.745098845,8.590333131
49.002290530366736,8.456094320379394,128.0920165782918,0.12422292721877759,-0.009035844570057225,2.8404678115215667,-30.805146042147154,-6.624586680791966,93.93011035221933,-0.048862245477696076,-0.014830848740432655,0.3292818182114849,0.8083435794057993,12.800399890447359,0.6870932335367501,2.0099397467553555,9.070025060675924,-0.3580279805357191,0.08054901326197268,-1.4937679498148462,-0.04355212599886268,-0.007199348095500283,-0.04068730010412433,2011-09-26 15:26:10.845036009,8.690270295
49.0002710765064,8.459867394414761,121.28272760369663,0.20873109663448638,-0.055146641800428324,2.5575706735029224,0.45998279151088045,7.2574316563824395,25.947107250336803,0.030694358964467094,-1.7292403133688916,-0.007950903423468714,0.17054733569377217,9.552546964302815,-0.4174607710876158,-2.6930819001860993,11.865076781222854,-0.05516649102168499,0.011701612482632004,0.0043810073770805796,0.04108589958489041,-0.08092142126859822,0.011829476966723864,2011-09-26 15:26:10.945021774,8.790256060
49.00591175158577,8.470367470753493,105.22262377074233,0.06657066913032664,0.017071838191206678,2.8188511590085508,20.659465162329735,4.612295819900641,9.183838930096243,-0.04250943088287194,-2.145957975495434,-2.7447412802678857,-1.0398829441801907,8.87851881154552,-8.43244438809547,14.254149943994081,10.333405428402218,0.007744269775860387,-0.06638315126887004,0.041102867002071726,-0.0033355584493616275,0.0008891361043664695,0.02102005500277222,2011-09-26 15:26:11.055080373,8.900314659
49.00064191963445,8.433404149568913,118.49593246372461,0.04002652842736418,0.013147897000432507,2.5116326366264614,-2.576560812647393,-41.474022637213686,-11.152416673650686,-0.2019336636555288,2.279394617637112,-1.4209152334541701,2.1696487524926114,9.097877549418461,2.117091462684592,2.007994899731609,10.00050926444935,-0.06145534159123882,-0.09685260367510763,0.03742941759611654,-0.0157148071968951,-0.05957247748032484,-0.006202258903164645,2011-09-26 15:26:11.155295391,9.000529677
49.002442015359804,8.498002916066365,113.96184685453154,0.009273466655766196,0.00951262749676509,1.6329680007194476,-15.627605856887971,-24.93235724297143,-0.7651804785127412,0.1252039358964654,0.2867807666143612,2.1660361277063442,0.9064734256114629,9.745366278881388,0.7048952062844303,3.4007272868590186,10.469652660575957,-0.017450240822427587,0.0028555978681484495,-0.28913181287220185,0.00912643213390625,-0.0182766746411022,0.0055638718949588255,2011-09-26 15:26:11.265091987,9.110326273
48.9979252550302,8.466037077628528,117.6484220257115,0.01847285468352263,0.01632455395069308,3.3030649260820946,6.985517107066043,-23.304065756348816,1.7055190433134433,-0.2612763942953437,-0.3434331253782152,-2.170852883148694,-1.9434492390356488,9.932412391946649,1.1876825974254885,1.2058380858801736,8.231603262063189,0.04651985580355429,-0.003518833216261467,0.06282393696511344,-0.06518230039993038,-0.03995812397231323,0.1024772497548168,2011-09-26 15:26:11.365078081,9.210312367
49.00396984117934,8.474680375598567,94.66558361530946,0.03175755359233946,-0.08775882635970506,3.136082236098072,-16.336202259264404,9.8704797337956,-4.01522596463804,0.1303830794291761,-0.5210624210757676,2.2269417484393097,5.081260447416023,7.7933799260846435,1.5330366052450135,0.23105871428020897,8.637000036472507,-0.044888644931811786,0.012839782890952741,0.16796291286458997,0.033645411871282054,-0.0020704598944658523,-0.7398135721464433,2011-09-26 15:26:11.465120310,9.310354596
48.999011836552,8.460020472272236,121.9419699300547,0.03317849846733419,0.050703818821267566,1.844116757198829,-7.657211420100115,-15.724421204154575,2.315341391041868,-0.05339778015635915,-0.1705134458760613,0.3558754031054518,-1.2817071316595439,8.469980701825238,2.434932368981924,-0.2903514972837695,9.880367889314284,-0.029299811165850308,-0.0012048152064168562,0.05957685195557374,0.019479435770823148,0.25769779458629355,-1.114824866704677,2011-09-26 15:26:11.565121081,9.410355367
48.999432159135516,8.51428293632425,117.20857299145918,0.013047082298310232,0.008874178669994598,2.8697184996082687,11.01819487030493,-27.71662971094018,-9.762404982863037,0.11002106122026298,-2.0294207686164456,0.11066664041900232,0.7467663531789027,8.230826864650957,1.7703588641394914,2.292945011711538,9.625286596265141,-0.5843275167288451,-0.013546685752894293,-0.1330357859896646,0.04499232693964405,-0.016046560216491916,-0.024943259576632768,2011-09-26 15:26:11.675191190,9.520425476
49.004308099173606,8.472496735709695,118.10858631181321,0.0262251748604174,0.054781515084267776,2.4936397793323,1.0876624381643123,-25.0856233037969,47.738396068509864,0.14068446212507826,0.26852223399072367,0.5764077637052458,3.0456728090643574,9.495908920730743,-0.6639012498045201,-11.982934632478873,11.658234610669407,-0.0361633695793285,0.01558920087769943,-0.14734384719654697,0.06445287963440208,0.11231316564124418,-0.09176618028498025,2011-09-26 15:26:11.785115365,9.630349651
49.00548212823281,8.47435615111646,116.6876729732383,-0.011117740693389284,0.06215540661758426,2.7527393857213016,2.9188375907146016,26.266256391141027,7.586124008457266,-0.3386247091626514,0.06220249913392984,0.0024033576064486084,1.689338910035537,9.319767097819255,-3.0619049055423826,-0.08485034442268419,9.446547285717504,0.0323783996559413,0.11163886981243351,0.030642302356338514,-0.22047395374769208,0.12210635586715902,-0.0030919695252354575,2011-09-26 15:26:11.875098413,9.720332699
49.005167643056396,8.46024893006776,88.11699176918748,0.0026915559609970753,0.06995251045292718,2.617537930412114,-2.3092031420907655,1.6241616447206104,-17.03479233813766,-0.1077664882076229,0.34877563327638916,-0.29154572733008227,6.140436825729513,9.202411693164423,-0.21658508291556222,0.3819629079848129,16.53608162369702,-0.02151888075343108,-0.05641819484431877,-0.0719765708918374,0.05229737409035287,0.05625184308549452,0.2556333462116009,2011-09-26 15:26:11.985102387,9.830336673
48.99470161746067,8.487961621562,120.62743860503063,0.045833267402613856,0.01614553528456414,3.4822024161867056,8.105924549360056,2.8159757679494595,60.698079880594925,-0.022470057392553047,-0.1286735049254993,2.2747940157069206,-0.8426343888026837,9.691320935247612,3.136517476284562,0.6073920525641519,10.305704600170051,0.005443512347652524,-0.11141341589340738,0.20102968520152564,-0.017078796880565274,-0.03222744259477971,-0.03892019262506018,2011-09-26 15:26:12.085117617,9.930351903
48.99075017461315,8.463699887008342,123.63026371678622,-0.03511215062998736,0.006909668656253941,3.117925035454536,1.2849877859804888,3.1518601725462343,-31.71043677489981,-0.10851995036902731,0.08831150385420285,1.6603217073781358,-0.617228949979176,13.240419079127697,-0.442564468054397,0.8952660129707892,9.463081826629013,0.022387601021694816,-0.047171948642776934,-0.702434495581877,-0.047509548990587624,-0.03222460400173564,-0.24644354559754852,2011-09-26 15:26:12.185183488,10.030417774
48.99772075583927,8.457624450032233,124.01182536917665,0.04910841392234254,-0.09719238965869376,2.772766175279104,4.855980036609057,-15.942332804227703,3.7417945335976377,-0.007901453049021626,0.06364248527129254,2.2594981082794314,0.9907153132168907,10.722396936848911,1.8024148492194945,-0.48492973720683336,7.663888095371559,0.02790470823839729,0.011487395200186934,0.07109569959992638,-0.15174174215143313,0.014816774005914305,-0.024125081343611104,2011-09-26 15:26:12.295124337,10.140358623
48.97207743569687,8.435066924004385,122.17756817765861,0.04418439997203236,0.07186346925255231,2.4117855386442835,-18.82910271801432,30.857597098183874,-5.5353396664975,0.28574830676781443,-0.3306185714320695,-4.252058469247917,12.216771389804004,10.632857452514493,-0.3526039189035335,-0.4920973410718902,10.281843509046663,-0.047759887860840185,-0.043319707791710356,-0.04709295561189723,-0.03989429676512453,-0.30463549892192654,0.01484507157094648,2011-09-26 15:26:12.395091748,10.240326034
49.002638553204726,8.469374993114526,138.91999407446428,0.2047393598099584,-0.010555631132828404,2.5097900468808847,4.413500967259772,33.05542171087952,9.95986617461553,-0.18443531244517516,-0.15984181470296555,-1.3054407605865093,1.358932546601424,10.156111408883467,5.04451929540451,-2.710850546950711,12.281015360569874,-0.00016998126984558168,-0.02886199498028979,0.031555893459288456,0.0049066180550413774,0.006470163521190068,-0.2790947448315639,2011-09-26 15:26:12.495143909,10.340378195
49.0049737353271,8.459247858462,128.37145342996638,0.02862165622834065,0.07059485991620025,3.161570096218724,0.4901397146346163,13.250729553042124,-8.737415305832,0.02787014321525189,0.08708598164369472,-0.2579738353087655,0.36012714049968264,8.41031583893685,-2.504864271903495,-2.814911993304337,11.495601824815768,0.2833060834025933,0.0638380710193126,0.025539106094588426,-0.02304813056405005,0.03721280975838488,-0.13431924868041217,2011-09-26 15:26:12.605187402,10.450421688
48.994159419237526,8.437943484674033,120.18385759959428,0.016258333453246617,0.048582720614571195,2.6522974013316847,-2.1599775714816154,-10.791297690640413,-13.85060194281421,0.11086039149806523,0.2613364119554745,0.6700340212531777,-0.0031648871348110563,8.367821553323019,2.5743040338543715,-3.0309175804371704,7.937282986670002,0.058188735774983964,0.008675543300753973,-0.12233038603564163,-0.03568893334239152,0.10463390137843033,0.017383822625526797,2011-09-26 15:26:12.705227973,10.550462259
49.00594944743087,8.454788282943525,126.4870291969722,0.03380093361999731,-0.009132049781094432,2.9636130076468445,2.3693033784331674,-4.467412960736912,-6.7859371143905385,-0.13350362860199333,-0.30414309539318185,3.0547503228789,-2.5013987797826993,11.668016391560363,-1.8448973053693272,-0.003805566786964115,9.257806427784189,-0.04760052891817835,-0.32643756897502885,0.06608153336303857,-0.026558171220403833,0.03130670232387381,0.023580864140571228,2011-09-26 15:26:12.815159689,10.660393975
48.99907155238781,8.462264991894859,118.8343267600001,0.04975954565281978,0.007278518126266488,2.5141378621369297,0.736471529639769,-24.08038970935408,3.1423714003768897,0.10398487057385646,-0.053135043780212526,0.4045987392384467,0.19871630371959198,9.768607751575034,-0.8438979901941528,-0.8669265023229202,9.969354109961255,0.07088925180904417,0.02469213004825335,0.09037229247843628,0.4152485153385107,0.016643376944879818,0.5665273102024606,2011-09-26 15:26:12.915144848,10.760379134
49.007096341831385,8.472718479589163,109.95977200580957,0.02425087305973634,0.026660841196116513,2.8623969336894026,0.6904204611440617,-0.5003640081785825,1.2440371362857492,0.038824016593323706,-0.2946256430055537,1.6932550082536677,-0.10927037028721559,9.238515550877429,1.5709421978426263,-0.7412678876451432,9.908152573098162,0.09750670038420953,-0.07606292164064019,0.06878184096475032,-0.037979887296161405,-0.0723503374792239,1.047191855875226,2011-09-26 15:26:13.025167182,10.870401468
49.01903482179006,8.456502477323362,119.28379642410408,0.019547205168579475,0.09253856873524668,2.5317786473912847,3.4934742355604613,-15.596852156849504,12.573946204841752,-0.12912493646017648,-0.416509097700572,-0.9653415783074935,-0.45005481673941816,9.944029465381888,0.4015116960316183,0.6984230153255341,10.949043428008425,-0.05286300532772774,-0.08764603263061714,-0.018685244274500662,-0.18286672865719644,0.08258093230705472,0.31429241855049317,2011-09-26 15:26:13.125197405,10.970431691
48.999151531007826,8.460096154865004,119.80734048465006,0.2728754152414685,0.017109001339497075,2.847540511109383,-0.5530298996010758,-4.076939051508568,-9.898817306956012,0.06659439617865552,-0.08522007232481264,3.492821953944066,2.624322956952075,10.836782328735012,3.6505810339015614,-1.3352215232130473,18.394965122259478,0.015137804311351866,-0.02830709904317838,-0.10314253434493233,0.017694211042438915,0.015019234744116546,-0.8055623564862383,2011-09-26 15:26:13.225176184,11.070410470
49.00584296794642,8.464106171757326,118.25303290765522,0.025770488027875994,-0.0604281032127214,2.5947011783788647,3.3307762509686727,-8.923268769595474,27.53556229819998,0.026485388762322308,0.02446203451809993,-0.798325999407882,-0.4724484669742456,10.331925847770211,4.053495056489058,1.5473695765049102,10.459665048585128,-0.01772137587978486,-0.012851235654390185,-0.10618575722488409,-0.03784123827301054,0.05866230787587971,-0.11832402857131678,2011-09-26 15:26:13.325215694,11.170449980
49.00043546212764,8.449325923746802,114.57336585728945,0.06202028359782659,0.051732923221554414,2.7995756383104795,5.452315260774371,-11.743412580860054,24.45528004666626,0.22801874238118763,0.2653955494126362,1.3677170567820192,-0.3570743626993958,8.768853105105803,-1.0066723891041138,0.4136882163167708,-1.6668395724929823,-0.032001021362313004,0.5825848775718616,0.07995487647725201,-0.026493593375005835,0.030956143622417068,-0.05967964890082053,2011-09-26 15:26:13.435297771,11.280532057
49.006394980101895,8.486310830379262,120.23928201605207,-0.005500488248140416,-0.011629103873869652,3.0336272384037244,-0.5437076589654687,26.977312394621922,5.380133481559273,0.03934712214372603,-0.12283834579248523,0.47604442231763855,-5.057390286886034,9.59842614139458,20.319776372636127,-0.5781530243108964,10.21576934511256,0.0006674358996039409,0.061760591033899755,-0.13506718320084174,0.0038066423349299573,-0.04001332170591382,0.13738108557597958,2011-09-26 15:26:13.535376127,11.380610413
49.00343896787706,8.47241547943806,119.59068824340119,0.04006711760999852,0.04529879900781293,3.078747707127572,-3.8356051527102935,-15.921478189068022,-34.83650266226473,-0.05960095705979661,-0.8962229877384591,0.18036938658708657,0.017593521674428292,8.34547538018443,6.845453637405967,-1.6432959701989183,8.976562566686338,0.012788086820560013,-0.008409182746740552,0.04565847465160976,-0.022085393129157197,-0.0839464964958077,-0.009927407835438376,2011-09-26 15:26:13.645252175,11.490486461
49.00139208494372,8.468085589856178,125.17311505639826,0.02787609826750565,0.030391571633527195,2.216184628269244,3.799221117342376,8.843713459782126,-17.045001813474805,0.1090952807124637,-0.2601802229613558,0.9050811869298477,-2.011631307636637,9.583400929597168,3.931081980574273,0.5460826148726442,10.724413022717572,-0.004737022163635466,0.0022844701783131735,-0.2121078355789133,0.024264724322206468,0.015930737279349103,-0.22737436986727197,2011-09-26 15:26:13.745212305,11.590446591
49.000747699591955,8.437644033538199,126.2000341199749,0.0469057467014865,0.09321832561541547,2.802526957480793,-1.3873982793267234,16.294202041456263,-23.62436374019982,-0.02855998283702972,-0.05763205567816715,-1.242531062256777,4.951296180797702,7.8283584126464065,5.9546225417742615,-0.1226384264476818,11.961034837883354,-0.0266825686400273,-0.0392211041608356,0.12110281097673885,0.004284558338121707,-0.04082752991157705,-0.23910144216450588,2011-09-26 15:26:13.845197051,11.690431337
48.99985349234819,8.479422190104765,124.8630236139849,-0.016261312485092806,0.14580823615248864,2.9918989821725943,-1.5658405252200496,-56.88812432253915,31.200551560838917,0.16321401171896746,-0.3256137777087748,1.0440922946505777,1.8195890710658535,10.518812463468182,1.5738302908888246,3.9730660045443718,9.666195375654052,-0.016939912921169108,0.03949691363147582,-0.03211303142136978,-0.1275567960514718,-0.07734536413684404,0.02817648954055337,2011-09-26 15:26:13.945375579,11.790609865
49.005431179467934,8.467544458426,130.88968983065706,-0.01247661513947726,0.02065068993829311,1.3314083640953165,-2.733641559536527,-5.0309140515794475,16.65792632428713,-0.05159861052867402,0.1645888834363986,3.3421511460184687,2.146201818068393,14.33884374465865,1.9940403543244887,1.8051521516387463,10.555513398604196,0.0015851848017608486,0.09374972108169452,0.22141780117521745,0.009114446631215136,0.03805457307537768,-0.9036090052912481,2011-09-26 15:26:14.055183835,11.900418121
48.994884124996695,8.46607798371382,142.0298936348218,0.0021308385553044304,-0.006826828765070684,2.0740222313914156,1.320049450459423,-2.184860001299578,12.461460855529914,-0.3281219011150833,-0.36462536337009704,-0.038237697729407216,-0.43871147197446553,5.7646464511291855,0.37047638550532813,2.4957677505961224,10.709458228718605,-0.0581631246373793,-0.029440804665533386,-0.0491573930134916,0.06855713693600794,0.04504578786858973,-0.09133846743878513,2011-09-26 15:26:14.155235282,12.000469568
48.99854199607442,8.48193394800933,109.43987679169769,-0.029125091106035977,0.0012516527194650871,2.779696696844101,-1.4368543229553266,-2.7142354210026767,-6.794467559849799,-0.004242862537936473,-0.02605848099390648,-1.904509938096868,0.6277275860825162,9.148309841932573,0.8613777995741437,-0.6726190189177943,9.592733061676242,0.09454729209810245,0.015529216255959948,0.19142938007667204,0.013417321523451627,0.27388199906786737,-0.08180066245319595,2011-09-26 15:26:14.265286444,12.110520730
49.00106630501245,8.460799150122437,121.3074793631618,0.011889008134381249,0.05730475727210796,2.9807561198867494,44.53136411180503,-18.125656625800097,-16.6736778462164,-0.09575750572387827,-0.42656347036367115,5.37785786974576,-0.9180897720389687,8.081801157057171,-0.29863890301898577,-1.0141433861928608,9.007773792111479,0.025201023444053294,0.04475662667181837,0.8726799291084005,-0.048779549144646196,0.04837831404682874,0.04727533759308969,2011-09-26 15:26:14.365186295,12.210420581
48.964745472911254,8.492347119754614,120.08972639022602,0.015729406802729173,0.06716810074488813,2.41710199147146,-2.8308177544844524,0.5925069776670853,20.128073198271906,-0.31367898751671613,0.026699277457091414,3.5722328857561263,1.0867515074311715,11.56730489618808,6.000016893157657,-1.087545358664156,9.867713335386755,-0.04321155335396713,0.04505461330105633,-0.056330885621485714,-0.1451693247499699,-0.14193893299477872,-0.17838065442642895,2011-09-26 15:26:14.465201335,12.310435621
48.97244329824563,8.475084186888797,129.37382682440395,-0.035721327414241,-0.03399066937288588,3.1060544495785662,5.297170093074889,-2.8948511495444404,-2.12453661722373,-0.16650855022003655,0.3522054031357199,3.062667954300384,-1.4052914773064336,11.198192011507569,0.8775748493124111,-3.8954808282256446,7.745622801884606,0.24632087411044976,-0.006195146303358741,0.2177605815268437,-0.046336723586281485,-0.0521584231891511,0.011125087274040345,2011-09-26 15:26:14.565209751,12.410444037
