lat,lon,alt,roll,pitch,yaw,vn,ve,vf,vl,vu,ax,ay,az,af,al,au,wx,wy,wz,wf,wl,wu,timestamp,rel_time
48.947869102723665,8.487995407956275,265.3729919424838,0.46397838031508054,0.02047126374768838,-1.2374543557143391,-47.212711533504425,-5.925034162118461,-1.083476624826711,0.02234987165577623,0.08875216859943061,0.934046460521802,-0.702622626369452,9.645655826471137,1.3080624246146104,-0.5429479274874472,9.860703982476945,0.19646133137826757,0.006943584529799598,0.10132535897624606,-0.032443816155461214,0.03321414847033223,0.1523855671424532,2011-10-03 14:57:27.036448963,0.000000000
48.96075825165998,8.490371146161133,275.0533169005186,-0.07367466781902253,-0.03371005170867923,-0.9394688751323664,-23.343553051646772,8.886634144638672,-15.904978016606256,-0.09829279233818386,-1.9906597818671101,-2.09629003188196,1.5403109165718103,7.139831576470327,1.911021188532352,0.14882235120721693,9.889789848760525,0.01759177345911243,-0.014133555721559094,0.10821129004439925,-0.020684089381438054,-0.02575993546514333,0.28563808226767784,2011-10-03 14:57:27.146615260,0.110166297
48.95801261450752,8.485194504460232,276.3398319470166,-0.022779668636387314,0.02756849973679698,-1.5785100044367897,3.5929010519302857,3.883483999232086,-5.874261281206454,-0.127342792858644,0.10626387388374056,-3.253008844104872,1.8766354660785076,10.257220511234799,1.3452467213908212,-3.8611556429929457,9.699707666944915,-0.018563927871850208,-0.0054337753629859886,-0.16534206054802666,-0.013622783929174705,0.010421520893218371,-0.15995394469058094,2011-10-03 14:57:27.246339073,0.209890110
48.95514419940424,8.51887897098938,267.88470609700823,-0.14310198790619805,-0.06447482839389483,-0.7975663229452712,0.35599780999769637,-9.483921110722736,107.09633144675068,-0.7798577683285279,0.101782119811198,-4.403797326317676,0.4559987666185217,9.796559636160833,2.155145097791355,3.4200548503136883,9.470926539544056,-0.012647659738381289,0.014255401492414511,-0.07808234222704702,-0.008745858778026824,-0.012103798585848128,-0.4172735770238514,2011-10-03 14:57:27.346351297,0.309902334
48.951214277392104,8.485801642926917,278.87302491871594,-0.03737050803476742,-0.031090651540317288,-0.7661315619656106,2.1896862248845452,-4.060866953781401,17.010550691819336,0.028106878347630142,1.0217193351971816,-1.6635076633614931,-0.4664712701572181,9.864857345768302,-2.215822314302605,1.3045042281471355,9.4524278725004,0.011809127794541666,-0.0017846726860016315,-0.09823421461033355,0.011721697259025585,0.005648990416230714,0.012894108098435955,2011-10-03 14:57:27.456352889,0.419903926
48.956616424693074,8.489253005278238,275.89173666169467,-0.04478235846361156,-0.09646643791334981,0.0023456337769105495,-12.291936486868916,5.613435349288471,12.479573349813755,1.1355953704601378,0.1556470424574759,-0.33864758675104434,-0.09763659058962038,10.054837261696898,1.185635989250302,-0.18667705392258674,9.753801126775556,0.029973700811803915,0.008391991303498332,0.18647591257433607,0.045861707485663594,-0.03972678540577888,0.2793686784246342,2011-10-03 14:57:27.556322557,0.519873594
48.92827673906861,8.495474445482747,277.42094067653505,0.0861860539580458,-0.04116016179538772,-1.031780502866094,-7.753417480635458,14.575759362929585,-79.09001952626342,-0.19991315138649488,-0.012675847744367329,0.22863682481324826,-3.725504804550394,9.630063842645457,1.4212051474949534,0.12117313575384253,12.822366240439422,-0.010045484640580634,-0.0016110366054720745,0.07063232572106788,0.04520939020567298,0.0062326834594617925,-0.0826930707126532,2011-10-03 14:57:27.656496898,0.620047935
48.930101165639805,8.488233085228615,279.51294405465103,0.05107147835492026,0.04014472637159665,-1.1004059010966567,4.047029037015863,20.49383699152567,13.065346655046266,-0.0594436623595567,0.07190599742148569,4.490215491802623,-1.1542781301345444,10.113176983080336,2.7183431638470736,-2.351994603818376,9.928256483591067,0.014240269096388248,0.208557089924183,-0.24086366808624743,-0.06289755258507936,0.0045370526316063,0.12984225032433055,2011-10-03 14:57:27.766341685,0.729892722
48.942408346189765,8.482617361031863,258.7796879875558,-0.010709506426328395,-0.004469708273139091,-0.3054297106159809,8.357752692556787,-16.289912608861247,-20.641099962086408,-0.14003307262259052,-0.2799234980644634,-0.6243439449717292,-0.3892631337251756,10.59147764190758,-1.4626348758451198,-0.8533996557032991,9.650343184122912,-0.032569887793853815,0.022687647299778967,-0.0797433509756342,0.010413401920757862,-0.02367515535804257,-0.04813051205845087,2011-10-03 14:57:27.866299934,0.829850971
48.95415112569303,8.495280289620615,279.6903047008955,-0.06340516783644413,-0.11240550082631826,-0.8134536734362494,-9.558607006361912,-6.210968833475822,-8.397261554821242,-0.05755695783471637,-0.217854691743471,-0.7125060855502084,-0.5178042866797621,9.865350313635364,-2.470505412822992,1.4825197118800932,11.74385466157623,0.016423048086653732,-0.02221105894377576,-0.21471230212706416,-0.07899815861035248,0.012283239793104854,0.43705829623553605,2011-10-03 14:57:27.976303969,0.939855006
48.94482717346479,8.487262390868533,271.271674663308,0.05756070531739636,-0.09117933259176833,0.6210016536048713,6.044243792627559,-13.001224988523706,-14.062960619802663,-0.09390458213562322,-0.22376257330441324,1.399250974815951,-11.937280044833592,9.86019751271894,-1.1210374391135327,-0.06508325309169341,6.165633500400097,-0.03616736288533943,-0.012017416207607943,0.050256454245708536,-0.003513599403660166,-0.13823287967556627,-0.06540627219504208,2011-10-03 14:57:28.076362038,1.039913075
48.94459228400024,8.473130046444263,264.29861763498695,0.0071120434098531915,0.016999751129257445,-1.999664613844529,-1.9185683626671617,-0.48771340691730636,-65.75308156104498,-0.005562133284494978,0.62693223811385,0.5413599587739142,-0.5582459020987771,9.409446581730208,-5.240131085753684,1.5188072291142092,10.01388938622441,0.0020025864274923768,0.04119211148611466,-0.1438250069792463,-0.004380698738793827,-0.008571511264930762,-0.20638269915094343,2011-10-03 14:57:28.176384750,1.139935787
48.95297010712964,8.498145190499411,267.7154811642591,-0.07366006479736946,0.025689265824544682,-1.3658591457714198,1.9633214183797252,-1.1713822642729856,-14.178553463290939,-0.024148040609066647,-0.6995878173589883,-1.3556228367640084,0.564003375293246,9.478089447154293,3.5302864642419056,-0.04723886071427623,10.029844779237656,-0.0047497114940539,-0.007318523603166199,0.40970847925420584,0.019343211204080425,0.008266322718999304,-0.9826082670965129,2011-10-03 14:57:28.286350934,1.249901971
48.95393444474901,8.485424355938303,267.22318159670476,-0.09718343193685967,0.023487866346557026,-1.2454341552609602,32.875482990899386,-5.513081301374752,13.248416473040955,-0.08202631664740424,0.4670618567880217,5.5907020736185284,0.5104662035667449,9.684213734785876,2.55426112973015,-10.134606135712264,9.597141935552711,-0.02792914790230902,0.01643141421867541,-0.2116218769376042,0.02401365134879264,0.007761108963972308,0.09804350866509808,2011-10-03 14:57:28.386232939,1.349783976
48.95480181015632,8.491318977717869,278.721269092863,-0.07130996128526224,-0.12857850492511572,-0.4875030660547758,14.457791161912237,-13.149912503216774,-95.94127103085383,0.034023556103488874,1.60120143435668,-0.4010749375856761,2.8647900193408393,10.003803049982569,1.8346198249002508,-0.8253329033131799,9.975545252695643,0.08373584467002085,0.013552320675252647,0.2868388368407248,-0.0069188308383477054,-0.02385512749234905,-0.007304370119903259,2011-10-03 14:57:28.486246830,1.449797867
48.945866216917395,8.489387348342593,242.0181485416639,0.6273066518405147,0.01238713508407165,-1.5205294600322263,-6.5086585279847124,7.089111209249985,12.823771334838897,-0.037991697024386636,0.17557807870530145,4.061250572256042,-1.9514310429361827,9.579103982054434,-5.081432931332921,-1.1934039789309399,10.197257844477068,-0.06807709813664478,0.002501764297032568,0.298445277309084,-0.00762082939714675,0.01660089411954233,0.24817232851645554,2011-10-03 14:57:28.596347200,1.559898237
48.95285148120245,8.489169266114818,269.6736477602597,-0.026843785462140977,-0.07750460907101653,-1.345682115057349,10.52183109641351,62.56275323292175,19.824354380562117,-0.004864329176637486,0.18130633889036335,6.218858942688514,0.9815267630455051,9.691105164745178,-3.443435032968282,-6.727270035768861,9.543494773720504,0.041567447844046285,-0.015618029839137387,-0.005139221533615963,-0.02710193495965506,-0.01895854182763237,0.0946829043667665,2011-10-03 14:57:28.696237865,1.659788902
48.94963317508971,8.487041407520092,267.17708540330113,0.11432005235427098,0.10701943162377961,-0.25441062785548973,-6.647016705905285,-3.7009272235340376,9.76935297983082,0.019860900871221117,-0.032664114171180786,6.461993807817511,-2.0150684199053006,9.745688551139521,-2.147072619567553,-3.5213975562747266,9.66016740837519,-0.029601415472944287,0.03531801058116392,-0.17819188291202706,-0.008679406124053185,-0.007954390852725608,0.11402464328596879,2011-10-03 14:57:28.796259175,1.759810212
48.96319096037637,8.478614217894458,267.092258244472,-0.031909045529199695,0.10154735967966513,-0.35200156269429717,13.948296865446137,9.44019714528494,5.897523378691062,0.08374643382799882,0.5562703847495636,0.6712675325682681,-1.4768925432516862,9.593430693146567,11.998807426411679,-2.8888040062908233,9.364724768236318,0.08325751319353528,0.015035092496110724,0.4580116824746239,0.035567636199783335,-0.008662949891697313,-0.1453402610762666,2011-10-03 14:57:28.906177965,1.869729002
48.951425286438976,8.487762070298686,254.0349815603806,-0.031131322265153076,0.0013682991519591552,-0.7327157319560322,-2.5376059927671326,-7.949404903857355,-96.42130795927218,-0.16669296642319578,0.5219623060975755,5.761851249209375,0.8772192689489905,10.079448460512925,0.599291555969087,-1.8085818603149675,9.898879801218547,-0.004245197479336817,0.02200591039949662,0.008603084252336926,0.01826178842867159,0.023082936208837942,0.022505935432104295,2011-10-03 14:57:29.006221139,1.969772176
48.94615441358573,8.475829840144335,272.5661214087387,-0.04211151187418272,0.016541216584086863,-0.8647671001406705,-8.890543039926042,9.289631667432818,7.583106862799925,0.02156244937171136,0.12452502468683728,2.7353455418381647,-2.54180881405818,10.477793105080751,20.833763438960016,-11.9551079944646,9.538461379538944,-0.048400679466623533,0.007780997949013653,-0.15602266476905832,0.037997552966928166,0.037926127399128914,-0.8927107523890759,2011-10-03 14:57:29.116348648,2.079899685
48.95037871691962,8.466072553344668,279.1592819939,-0.08874306496306902,-0.13768829649352005,-2.7052708989156242,-9.072942622647084,0.5930037850182939,16.368300881594188,0.18084788552247766,0.8746861869458807,-0.3224499853809632,-0.27505190435979865,10.037842902608286,-1.5409951232652994,14.841960438264568,9.895711392314922,0.08069667366689912,0.013301860394458225,0.11219911942200318,-0.02912310601721224,-0.019033985346000783,-0.2660835758726162,2011-10-03 14:57:29.216128213,2.179679250
48.95431053589419,8.491733856902252,276.75295319469944,0.019213794010583082,-0.008005625238000634,0.463996672204651,-4.958237481688958,-12.432615447746208,11.345258381961067,0.024097137754531123,-0.18162712664396252,1.098263620867383,0.538388835274102,10.166991849919583,-3.7136438157418663,-0.7167303207444864,9.70774010171919,0.09185004263774334,0.018666414877013027,-0.013851990941269494,-0.04886320690858895,0.006043720253478904,0.15246017370337014,2011-10-03 14:57:29.316122863,2.279673900
48.95770986944699,8.483656127553441,281.985221324658,0.03143654816382392,-0.005291528048336898,-0.8153881103906316,7.2928790441387985,-8.342188427419378,-10.53667395519588,0.08147220235023518,0.2274547920776106,-12.937381989011188,-9.225433907877704,10.145430723290081,-4.134786196386842,-2.0410954880538874,10.12897364925458,-0.054555684992476774,0.025304710407867,-0.10321041740640971,0.010471500004073448,0.0024771533449503063,0.1425657603091957,2011-10-03 14:57:29.426094863,2.389645900
48.94466333743317,8.493723432005801,224.78088918650997,-0.051183413346465964,0.07784350616092693,-1.5585535424027146,-23.81172480304666,1.2671616213110877,-7.2486713104178975,-0.07767402913167684,0.22148433288841202,33.80430878169547,-0.055615212942298264,9.708526523095136,-0.42306439215738134,0.1484273143311314,9.972154046034186,-0.03355703665701364,-0.01995186645636195,-0.02741660121189663,-0.02910754552896691,-0.0007241403704314102,0.029607112309424245,2011-10-03 14:57:29.526120683,2.489671720
48.95414297650027,8.50425747062031,271.11645471001367,0.061730101884959476,-0.019161245793795433,-1.1377725387956679,9.181207642538531,7.429419351754294,31.02357082193547,0.13847036513691646,0.8832871546043662,-1.9634405075130457,-1.0164927564635833,9.545267398256739,3.1870184700846367,-1.7076130359132478,13.174395294467814,0.01889183537405838,0.010729068096182584,-0.01625651185894172,0.031218424042531244,0.006247731153947838,-0.20993595344530555,2011-10-03 14:57:29.626224698,2.589775735
48.952714873934546,8.575755957078048,272.4626826478421,-0.05029784234619386,-0.059099283074885045,-1.2579648240061587,-3.976574737539666,-57.04787046952857,-7.5347292328724365,0.010763656876419867,-0.14620627870986802,-0.9499001317901974,-0.25955087109269176,9.783745323642531,1.169069376874237,-1.9877527525139744,9.485906577024176,-0.02048104452543863,0.10580708699206749,-0.8443052696644251,-0.04250955951432039,0.009119741614940027,0.14460439641322145,2011-10-03 14:57:29.736078532,2.699629569
48.94720410131508,8.457836556716368,295.6090969832186,-0.08924796680702093,-0.029124535812674456,-0.9689501223529369,44.91370729509448,8.490581554331618,13.371082598375148,0.07125370788384024,0.11176174133040757,-7.837333400228338,0.06313031553275622,9.817266429917412,1.8793689036388364,1.1462676047040457,9.60432066537933,0.023460589767052592,-0.022694373633938066,-0.044785644475715,-0.04706664482523629,0.028078363992613292,0.09739600944146722,2011-10-03 14:57:29.836074942,2.799625979
48.95055276238043,8.492744932619676,273.8531033494474,-0.17326094449042106,-0.10593735888964198,-0.8057974457473869,-3.6180616757588426,-9.847395776798642,10.647268818787524,-0.08914625344485606,-0.012219990387452292,-1.0747937979903057,0.84018882875205,9.981817655425958,-2.512107668457361,0.6717048887843273,9.954842076363517,0.17705711778138125,0.00865300806191447,0.046720226348548645,0.02494077454127342,0.011857059699846628,-0.0890951296560722,2011-10-03 14:57:29.936048518,2.899599555
48.91596967032795,8.490014815733959,270.89331061326,-0.4873385450534858,-0.02215784381165494,-0.5643229665627523,12.513210885842716,-3.6134727717565958,-10.964769643382759,0.021529774352857294,0.09745387026435895,3.74744922982742,-1.583946608520038,10.433757000643316,-3.0404692373747713,1.3863121277186563,8.905495643377112,-0.02074418388467464,-0.25557346468413006,0.0642748861864591,0.010393183787206623,0.0026094623668510906,0.7002109178290394,2011-10-03 14:57:30.046019479,3.009570516
48.94217623332218,8.474990634389117,271.90716698511534,0.036226226116609216,0.0047495906787321405,-0.8841286007872734,-92.50906617775705,0.4819362564920111,10.043066127612827,-0.3480463247744726,-0.2841346610926966,-16.566221677041753,-1.5647055826211151,10.254554292468777,0.0063589729056138244,12.860869507093447,9.482921324694104,-0.006142999944792494,0.01542869661073454,-0.0231879889726587,-0.018854827069382973,-0.02870153216867864,-0.03161735348290172,2011-10-03 14:57:30.146155624,3.109706661
48.95774845233303,8.488026317571626,276.0593049063948,0.04946115270395143,0.037780419310075065,-0.3246524121320262,-12.596529295342265,-0.12164279448369464,6.070847736518182,-0.008532467769468205,-0.5567781019338869,-2.8415126491614693,-3.651563107387495,7.621137295083802,3.1175618286756963,1.3279712033352935,9.93160553642761,0.004869306793918551,0.0744634488802025,-0.1379484499162877,0.022546154082708002,0.021171042362801606,0.05068816056145588,2011-10-03 14:57:30.256039427,3.219590464
48.94312515847146,8.497920271112717,266.0560258050528,0.3120155281100636,0.09895236958996022,-0.3107258684186487,132.73987560455444,7.608643072143136,-38.53724098624085,-0.03606987064911184,-0.11935547364481477,-4.532222997052909,-23.43141015773649,9.662790586073045,-0.9659824390283377,2.7313773969051276,10.074692953865666,-0.25464430369545515,0.01658454039544067,-0.24217989294459472,0.020982608596617523,-0.008290862140061854,0.03522208206358597,2011-10-03 14:57:30.356044323,3.319595360
48.956914899811395,8.48211582518188,272.018776592112,0.059250647378640504,0.010016564250761417,-1.314447658233799,-16.689498627007726,-5.456242262887595,3.434042485635609,-0.024257602733357798,-0.148426930463841,-0.06589920948689994,4.431852981859306,9.998984120820143,-10.148746299734714,-2.8398704956805636,9.71444152479131,-0.0027767796074370625,0.024607136121009676,-0.04686311762161352,0.01703126865976147,0.005000316805729578,-0.14912438357681557,2011-10-03 14:57:30.455994934,3.419545971
48.95339120862853,8.482973324105453,225.54158785581816,-0.14123245717421035,-0.007219338099245248,-1.3100825360107782,10.711275151608078,8.237454433473726,4.689733783386245,-0.01728684512067813,-1.0830896896431197,5.250079377403428,0.21400762861080813,9.767825267122776,2.624815390130968,-0.2002792208345343,10.089810592305701,0.1356869272364721,-0.11285304179151931,-0.10192959541157746,0.0680873089781533,-0.008755966865979447,-0.14822396156916398,2011-10-03 14:57:30.565986444,3.529537481
48.95252076508765,8.481276032317236,269.92577288476446,-0.06233975680442667,0.08381125884190917,-1.6146616685879465,17.520420284523052,0.46210152821827566,5.656734860087303,-0.017374103759823716,-0.0472267983035292,0.9886639035047059,1.1514199578977828,10.831531561695131,-0.8391434920764878,6.1414720252262995,10.255592154510413,-0.01579820706195388,-0.014620563483428644,-0.10160955550540898,0.0028362873030349216,-0.1107507100478632,-0.05512497038047904,2011-10-03 14:57:30.666190178,3.629741215
48.953473551752914,8.481788154765187,266.12435040151416,0.04362401056957388,0.01766018558240763,-1.0646303124482115,16.909509786601447,-4.091767269393307,12.583549266504471,-0.021576050966981283,-0.1663971283783819,1.0501103539239796,-0.08354887174858364,9.507893090998818,9.436364316360015,0.620937142441818,9.706424863534544,-0.029235236558026092,-0.03068586185472857,-1.0736318375607754,0.02363763799584713,-0.008416040220540481,0.02794763177002945,2011-10-03 14:57:30.765959514,3.729510551
48.95423502183103,8.514847454533536,269.03213496458426,-0.14634302895853687,0.29518660947601216,-1.640169284405836,12.61846249669308,26.01977692689232,-9.118493028177314,0.04589660918957343,-0.6284446010961359,-6.608885043791059,0.5103066541857465,9.567784984691684,-2.7413340977418903,1.852067597254263,10.012636707724761,-0.0895425565697429,-0.008514744047521196,1.139844810753082,-0.0054903617437543914,0.03919795355384753,0.09970954629767861,2011-10-03 14:57:30.875941960,3.839492997
48.94847835495898,8.489160304517219,267.14209964215735,-0.12956904517909362,0.2262795403729397,-0.9180395719238447,-11.041253084384934,3.9807076894372804,17.57211026792412,0.12444229388628825,-0.682584566922247,-0.8057678158463897,-4.825299174633644,9.644574118891546,-2.8261830411829236,0.08528544752194579,10.155586859070127,0.020719440500390002,-0.006238001011158204,-0.08583013005524139,0.017398703423195334,0.038285390356066866,-0.3233612532848882,2011-10-03 14:57:30.975934649,3.939485686
48.95592365613852,8.521431978770151,266.2359819907924,0.08445072927308653,0.02143520687380182,-0.5566219501495249,1.0243475256294965,-2.9808991057095557,9.661756566717203,-0.09519845323367335,-0.42204763278460533,3.0898996199277837,2.201452965047091,9.6052556776093,-0.35088298460811707,-0.5815997901061924,10.1013030051844,-0.015739185913962603,0.0044389836311331185,0.1358932994208717,-0.03769393979235027,-0.00023277581732847243,0.0856307363821243,2011-10-03 14:57:31.075949820,4.039500857
48.949707756844504,8.490831869435645,274.9372280167026,0.002470885477227548,-0.1295778831870135,-0.38870519721038455,-3.9414368113195173,14.534158019911564,-46.72200546941918,-0.148741189568888,0.22574711339280823,7.326373876493732,0.34153497694502033,10.002248620487782,-2.013218278871581,13.048142448751928,10.483698091254697,-0.026508025488385913,-0.015039859922658627,-0.17089630773737785,-0.014173749866830754,0.031157270312589816,-0.07663022581341072,2011-10-03 14:57:31.185920654,4.149471691
48.94673417865495,8.484204115306689,275.8622126938965,-0.07001898841655373,-0.00732826066301336,-0.3266368908498345,66.39483256005735,45.6856942637534,14.536374767405135,-0.05949919966384183,1.1737887919418044,0.08065462911548527,4.664586299263902,9.534429594965095,0.4964410625546903,1.9624959613763282,10.630650742576565,0.01213996282764024,-0.031457035718864934,0.07050751731133686,-0.03323447264816963,-0.008732654821703153,-0.10145399858675838,2011-10-03 14:57:31.285886356,4.249437393
48.94615579903515,8.4878939589864,244.1628692822949,0.03749758832197492,0.0012544248379675743,-0.26639814755910884,1.8638154895395438,2.894038442305696,11.877127698096665,-1.1273258099491559,-0.8938125027723516,-2.3383040317686143,0.3484711095211626,9.763826350392378,1.527177517425161,-0.6229678199651464,9.852141183119112,0.00541690512889138,-0.008100167620750325,-0.3734123544207945,-0.13865442137652598,0.022119131001850673,-1.5067998385504766,2011-10-03 14:57:31.395884684,4.359435721
48.93819065518166,8.493543820167146,277.4507818184435,-0.11989684886221162,-0.008947218541045857,-0.34420131149291,-44.40223235529819,0.08422657951093271,53.27481846521634,0.23136326188721518,0.7653145586741442,-2.1308460242043843,1.6313785566857408,10.426995316585408,2.78725882649487,-1.0855690348355191,10.453328885718834,-0.03515558619418767,-0.0029841740614978476,-0.09268929672747761,-0.033188985761912246,-0.0018918471057302638,-0.6739319026348005,2011-10-03 14:57:31.495863128,4.459414165
48.95821081346618,8.47161608590973,262.62289976013966,-0.08881020054910736,-0.20978361012759442,-0.5435510940628969,2.174477558726277,-9.09370139390075,-67.16187705756994,0.11535276049625333,0.4105537973863338,3.310249188931401,-0.4508569268870913,10.239050980274955,-0.19797873895259643,-8.357372923944833,10.314303326450549,0.00550887797257665,-0.021211778687488463,0.011246142125699873,-0.0312300855745584,-0.04902578024890126,0.05150657414470769,2011-10-03 14:57:31.596042703,4.559593740
48.949364891625294,8.493795801103536,290.7769806360958,0.15797470575157213,-0.02527232921540954,-1.5392820342858533,-8.58557198654197,8.747139781358129,17.315551405181818,-0.16420461577855408,-0.2235636411652765,2.4325411829410495,1.3286332836221564,10.042789320603257,2.9421751069573645,0.46830545397130774,9.819667657273083,0.021248894813046586,0.0022957036187321997,-0.15991896053846735,0.021491570821484392,-0.03980813908847765,-0.832995835744258,2011-10-03 14:57:31.705877283,4.669428320
48.95063239215435,8.522717183453825,273.228639162395,-0.1177603303635273,-0.08151309718377633,-1.3521634639569302,2.3568264176850913,1.1493930530741916,26.42194355227036,-0.09597796308547547,0.21095162684711188,3.8266843984697667,-0.4376554188233718,10.246530204621113,-0.45710712471549164,3.0802172861147867,9.58263222156979,-0.007799069271849555,-0.128914835586756,0.046173271647445085,-0.006255211633759923,-0.042345702203693866,-0.16938255412420006,2011-10-03 14:57:31.805826904,4.769377941
48.95971210561071,8.482947747780479,268.0893947700941,0.0021549236328027195,-0.0682377083541692,-0.2371960808481407,15.876522060529766,-3.8257859605161615,16.305352069660742,-0.133453604718538,0.44023582480655465,3.154459441705618,-0.27698275250014365,10.032138159917105,2.96417817165759,1.3917855999212936,9.979256085107993,0.011448079979847937,0.0068681300312414045,-0.004306670754481393,-0.03497803091701353,0.009391182186184214,0.1060059778610088,2011-10-03 14:57:31.905824029,4.869375066
48.95170392707441,8.486896347586807,277.9199061600609,-0.07602186892727182,-0.07394228963345045,-0.8921166235279224,0.8766941250242324,7.936400771221374,22.563184060063296,0.08591511559132486,-0.6924020801163903,3.6926269420569486,0.3385290411047395,9.98247424702395,1.8271028585140314,2.5063751008282114,9.461285146014488,-0.010165753947977125,-0.004060984105602022,-0.07899332174041028,-0.053325597071952606,0.06785202745316489,0.44833120858826647,2011-10-03 14:57:32.015803034,4.979354071
48.94713166438632,8.495052369438792,265.9086920265234,-0.009859089624603037,-0.06301707416195253,-1.1534311872594551,-19.62541750031161,0.0445400126749842,5.675569437715417,0.08683379230391146,0.6900082953652503,2.615385297878806,1.3107005134600558,9.895054775458693,-5.473704634600526,3.8813524479766928,9.008584335632719,0.017289768365997146,-0.0003551628122236009,-0.19648184399299964,-0.23313402067950745,-0.0041179309461989765,2.2403260998330023,2011-10-03 14:57:32.115867411,5.079418448
48.94936077982276,8.481608213170245,268.378644716144,-0.08376672298729501,-0.06384211612991854,-1.262540367717196,-5.611167831450553,13.281955065438723,-1.3607702728823785,-0.1306340439578523,0.059524100902571486,0.4871806981014044,-1.0062056802418338,9.846210514308925,1.1911942158744306,-5.308273752236038,10.380627581411474,-0.013296681744069143,0.025661077927807162,-0.2742974094803654,-0.029003766736133037,0.0018549194630781084,-0.11666961063964719,2011-10-03 14:57:32.215828880,5.179379917
48.92959843529829,8.505769322927337,300.16969505705606,0.009648977177133259,-0.07399551120981081,-1.0606664792280571,3.454218050451924,-60.65175188961203,5.149182684384696,-0.1553439512410111,-0.8343324566628789,4.366316350689974,-3.0864425583479673,9.645260260321432,6.575355837705933,2.9782087580693535,7.963506228240753,-0.03472452666502347,-0.007778424777859591,0.040278723694327515,-0.018769346518563917,0.015883865313343307,0.13787088183254206,2011-10-03 14:57:32.325772887,5.289323924
48.939772087761426,8.480601181134237,276.82283152070414,-0.04252801183966587,-0.022470744890804254,-1.0614453970354445,-20.58883323502114,-1.6351182924921717,-37.28695544188827,0.035880018964740024,-1.2915821756188914,4.515299880561423,1.7228395365883893,9.525845459299472,2.636986629615663,1.3631854097348821,9.810291832246826,0.008714175604235038,-0.06024151826425772,-0.02431304989386738,-0.04555337479895117,0.004819396984518581,0.004692760200811936,2011-10-03 14:57:32.425766039,5.389317076
48.94458883546932,8.490137214222464,260.21828204234197,-0.11747825376716442,-0.0289932612709895,-3.144876042896605,-15.410844410967904,-4.67770064956636,57.64473825595558,0.06262618356059346,-0.35150428399766454,1.2258240228311386,-8.62365501461856,9.673515530316559,-0.39855024186460053,2.343148361647388,10.043620073617815,0.01138570152550556,-0.05794352484349132,0.18440427909584697,-0.03047511748952849,0.0357510807264196,0.17631583550591268,2011-10-03 14:57:32.535748461,5.499299498
48.94890967874528,8.486899313414785,272.5504360083582,0.05549907053669319,0.012204877829612382,-1.0510255722096618,-0.9816524928556363,-12.146520558196475,-6.12230446061538,1.7665536652051914,0.9905337093136846,2.366004397099678,2.8212635395937102,9.551765437072481,3.4685540278157454,-2.920849529980166,11.727318616869828,0.04940406443756991,0.004628278053796017,0.23440326209279,-0.005983584700622281,0.01026031919809725,-0.20354632908288736,2011-10-03 14:57:32.635947438,5.599498475
48.95266793156134,8.49348129790023,268.97216891173485,0.1987631702128045,-0.1448690912685692,-1.8092973931104785,-6.071447155603078,3.506581910540002,1.0098021099228554,0.06434391247663734,0.17175783724444907,2.1703434957152905,0.11180603663565453,8.399336252641184,4.678066581877465,-0.3185350991108787,9.826586147969142,-0.018977462166123532,0.001478679046129884,0.15514843189561803,0.00938029802302873,0.00035988776261442184,0.037302762829997685,2011-10-03 14:57:32.735712829,5.699263866
48.941111142950575,8.492191204694954,269.17716481072495,-0.0512310196053916,0.10332652834052801,-0.9522156588020433,-16.433843968439778,-3.6782521318774584,19.7636335454326,0.06274089341807187,-4.441853743827608,1.8064019887156166,-3.479989108688877,9.960116595479125,1.048193684686289,-0.5682656997813021,12.497628849571296,-0.1925914801216755,-0.004939910206135182,0.024434626519020054,-0.00980867240571614,0.01302938216705989,0.1353094891449399,2011-10-03 14:57:32.845703183,5.809254220
48.94362254841435,8.507058523740463,268.9700966904374,0.036685531662245904,-0.008201431886806405,-1.3224507018890514,-7.083477384271447,5.158379509299915,11.279881728669102,-0.045747184515400934,-0.06697918924535368,2.042070531613722,4.831854328640682,9.811863078832065,1.2814881044976558,-0.6120539599905854,10.11149589421047,-0.012981172312792293,0.010787873803957742,0.04673169515753563,0.0195241604705142,0.028017852793895827,0.26934175769376495,2011-10-03 14:57:32.945747860,5.909298897
48.95267176622735,8.491830463174132,274.3827367507008,-0.07858930613867302,-0.009509231733582892,-1.2116986080440326,-13.610665224247882,13.724028818776496,15.282317831326436,-0.07058800452870931,0.16941970021749403,-1.620648946156864,1.915223122944475,10.394883352566616,-2.625652914112237,0.7797777612794564,10.050965062009237,0.00688991732170171,0.010223899206112788,-0.07653196328648758,0.06827717795640825,-0.024760226871959643,0.3460016090821153,2011-10-03 14:57:33.045683917,6.009234954
48.948445800927196,8.49213007507446,265.98233963845473,-0.13986187946711146,-0.06337077283576285,-0.6562972639225149,-1.4226014948269046,-2.0128441380732216,11.986771452822586,0.10742105757073804,-0.257304593237754,4.692973036862655,-1.4227544953383564,9.72164931574675,3.0208212469099864,-0.29185981707044306,9.889854685109922,0.000755893253340586,0.005582385528633713,0.02887169554838811,0.005717213970030326,0.002793891422159478,-0.032105824974512996,2011-10-03 14:57:33.155719624,6.119270661
48.950900215918,8.481395834235782,275.17249743301574,-0.004743883334094371,-0.05540791148179345,-0.822492425985621,2.991952359387133,51.99053760021497,50.59510092916146,-0.01082731624071524,-0.24834647409453237,8.298311721188135,-2.1158171230007765,9.412772598113868,3.3248568024385303,2.888857607963836,9.9545984933247,0.02314569844649403,0.011627653273397038,0.2516186395378335,-0.17340360871527907,0.012436175854100891,-0.03343121051308265,2011-10-03 14:57:33.255693282,6.219244319
48.95060929236436,8.458342297345832,268.448321404485,-0.3418597580137839,0.01709622493194978,-1.3553314746178515,-6.403275611380286,-14.534970851772345,11.021696299606475,0.0900358323336183,-0.16553893473558076,-1.458552929895275,0.4958560731546453,11.03537853399575,4.580351130062516,2.2868161641378846,10.126424378768181,-0.011686617861338035,0.019709579689879395,0.21137309816855931,0.023692646463543035,-0.0021952230700375682,-0.011657541430696342,2011-10-03 14:57:33.355686136,6.319237173
49.007461316360214,8.486559006865694,266.3867614013664,-0.022898120996187297,0.053384859293223584,-0.6517416784374748,2.702391861022355,3.0987364875553753,-0.7072140016654851,0.04822658906728581,1.5064173691901486,-1.7928495541633902,0.8541042976784655,10.48659696431485,1.6840070434946197,0.2541727412773269,9.700506425840983,-0.036740849715840865,-0.01761315283563887,-0.029907990401590995,0.0038119720269811307,0.023967056028283196,0.10985890649144325,2011-10-03 14:57:33.465641126,6.429192163
48.95283646922503,8.506164780713048,278.2785778235063,-0.015548416709914897,-0.03537458109846308,-1.0415084586857133,-7.63140207890288,-6.014100006350967,-6.8726202393751405,0.06689967640296998,0.4925979977271805,2.963514432928106,0.4167359797674749,9.751642708761814,-1.47363941772733,-5.766241111877363,10.333841415602851,0.05105639536451317,0.05843502031630794,0.06320273835700475,0.010970342496041785,-0.0008950239162851467,-0.2801864499161204,2011-10-03 14:57:33.565646001,6.529197038
48.944760902577165,8.49078824223995,273.69088971695663,-0.051202539816379664,0.11808187506263743,-0.13909687324635833,5.30530663418931,-4.9821235654806575,-14.412516283101013,-0.04484952218061497,0.5855532335639883,0.4099971047527693,-1.7791947494168885,9.63456118468884,-1.2793080777520487,0.22806185770508075,9.424585146921572,-0.0013307500374445278,0.02450939658804629,-0.3277118158963744,0.033626662406260416,0.021153988781498795,0.03433071986850134,2011-10-03 14:57:33.675833977,6.639385014
48.95145132012102,8.498026842839497,268.9827464945396,-0.07528992861777775,-0.24901332126526912,-1.4556145818787294,6.7322968116176485,-1.941482565163311,-36.82295186060692,-0.021997145735037707,1.382627354841259,-3.1936318997916646,1.2524232643314641,9.247717407711116,7.9281765240279665,-0.045671094815204254,10.812980817510132,0.01010549435617323,0.05124411838063808,-0.027652772181012145,-0.023554727674969966,0.031578834113745194,-1.2080490505616812,2011-10-03 14:57:33.775633369,6.739184406
48.947175022753996,8.459411517215058,271.0050717187393,0.04541093883282871,0.04266576297498694,-0.3586526707637415,1.7004634157093683,4.360571366199238,6.440709622211246,-0.05488701563794878,0.25054089514883937,-2.346479260997548,1.5746584701999646,7.999957391754605,0.2376745448996161,-2.43199373504506,9.856654918392907,0.1319231642976186,0.02730489351570716,0.17779138736918185,0.21668341056617962,0.033544017727423034,1.4673310056546662,2011-10-03 14:57:33.875621342,6.839172379
48.94598909846385,8.471282956905318,226.63981993271253,-0.06549067265816474,-0.02074026561755406,-1.0794886552793566,-24.876835589071955,7.48303634556077,5.282614401273559,-0.07671568078038687,0.22379548843554303,2.508519289358254,3.763327751757818,9.641017051623,2.677952610154478,-2.2504050924765817,9.925915097157304,0.012408624825917416,0.012419000512220075,-0.023273962976340417,-0.013533789136792668,-0.014942453117469402,-0.15503814090389995,2011-10-03 14:57:33.985590967,6.949142004
48.9534426953482,8.48942060258699,275.28938391523894,-0.005472206167548531,0.01689207372125014,-0.06994226110525659,3.256929497702693,7.714674383104711,9.909230615557398,-0.03696236015650263,-0.4034875913766105,-0.8309692349724104,-1.4579437646252909,9.966193013871981,2.649687041748597,-2.303403574424332,9.531087736596925,0.009410960304322974,0.007611081509259073,-0.4220348129119279,0.14797788677151646,0.025121509238236646,-0.17559918568198032,2011-10-03 14:57:34.085739267,7.049290304
48.94075178761379,8.493972677906122,283.5833312114635,-0.07817206455351174,0.017780673019713217,-0.6770098775206723,-12.60166455103277,33.47151825352128,21.366332627947475,0.03543015107234046,-0.35493445200294904,-0.4793878163449178,0.48188901383947863,9.457259968597526,4.826873727519732,2.6507625918785975,9.692225882083148,-0.02779897601174502,0.013944912643677684,-0.07289810236062672,-0.019112530445273834,-0.072516828020872,-0.02199643656503601,2011-10-03 14:57:34.185666875,7.149217912
48.94236251410213,8.486463323697452,272.45342844401455,-0.048789549439061775,0.02229860826640491,-0.6076938075295151,-15.994328428743776,7.493018095777892,-52.16003419114319,-0.050370319451063565,0.09005833515171868,-1.8755416561054574,4.847321078177657,9.678544103925844,12.27616039280594,1.529301905406431,11.178811000051526,0.028495485056216484,-0.01858616583717178,0.5943849946382689,0.06937547060817696,0.007941785769851736,-0.07782459431663755,2011-10-03 14:57:34.295565650,7.259116687
48.95062770879286,8.47322913726928,262.9899898275814,0.03805386861290859,0.00902059482982663,-0.835260338300303,74.42176345960628,-1.4394279489194277,6.640197366288852,-0.42298020345477416,0.5007963556248652,0.6432230098144329,-8.98261674522567,9.738013293811065,-0.4621817098283668,1.4122878079038519,9.280877222606456,-0.0037734275838905026,0.01722965712169776,-0.15269349335159932,-0.0893257676320667,-0.0011784773603586926,-0.15899949891244936,2011-10-03 14:57:34.395554772,7.359105809
48.9554975886622,8.486510433964474,250.20029913756167,-0.21660619877541548,0.022463015035976117,-0.2344614540082831,-0.7432590103314021,9.412925060985541,20.790376522713274,-0.1583754378054709,0.3315261354170369,13.584710843429537,12.474420707143343,9.847256843297735,0.22807214234333179,2.4351949085469307,10.652907070742216,-0.005439837908000764,0.024842238311488286,-0.10965914431544861,0.008939618656500326,0.011027255113847759,0.24380830511389295,2011-10-03 14:57:34.495517110,7.459068147
48.95103458328935,8.489457241860878,273.8854328618988,-0.05505147943369093,0.025246222186886748,4.2613810392526,-13.76928871519835,-3.7943291294972386,-12.029428643294597,0.08855730170970576,-3.0085166965152546,-2.124041858997546,0.3936029566479047,9.326983360091242,-3.3315046538757067,-1.5537459987277533,10.40327187006519,0.0034707096951660816,-0.13964066556185123,-0.10616285206489622,-0.01986054785663277,0.00040201634023807843,-0.3341560597539674,2011-10-03 14:57:34.605615669,7.569166706
48.9635218393551,8.495825409943123,293.8881427978158,0.3377528204712655,-0.06701165598679258,-1.632421633967485,-18.235421012957207,-3.804776031379616,56.795937259195654,0.09254802270273774,1.0074832204380946,2.7188938589201666,1.2160160770137913,9.897202441277855,-0.4022887837861999,-0.10445563938898399,9.910659838245023,-0.020401956119365412,0.005054605317025401,-0.08707577337860123,-0.020738751110752685,0.002897515579312117,-0.03204754589377504,2011-10-03 14:57:34.705534279,7.669085316
48.95224890049156,8.485496943860374,261.5637780247099,0.0064763101804587095,-0.00466750707137528,-0.8760773672281141,-9.660252825531291,65.50984458150843,-49.05345053917753,-0.0710118612634623,0.272621006270524,-1.3427067156652275,0.12786663056024528,9.515059065481932,0.7349988631811178,-3.252701809396346,7.613578924360027,0.027295764920735533,0.01008984089895098,0.1346403023471513,0.007033756393335077,0.007952666332208501,0.4950247020384417,2011-10-03 14:57:34.815488506,7.779039543
48.9464288464998,8.433124005611099,245.54316692463405,-0.07888114523467232,-0.01861003431008259,-1.6919969726957147,-12.256573622248181,7.811363553795738,12.895127085842304,0.12368636139023968,2.0031495724971196,0.34592146422133824,-2.8974676772063557,9.685896569997027,-0.609660950182555,-0.45679545846833264,10.170052766155845,0.1416224216847783,-0.008307371576555183,1.1164384859209067,-0.10189098408476797,0.011166240192919705,0.1230389907615337,2011-10-03 14:57:34.915518229,7.879069266
48.956380057868316,8.501473499295193,264.5170302377641,0.03812831729183923,0.022888717732756737,-1.9581076967649766,2.823749026815098,-0.839506055696293,9.048817715247703,0.08733156750498382,0.6301898545895985,-0.10846569836455791,-1.1002882748235412,13.87226921879293,-3.0444894116789922,-1.4912865266683988,9.83658637056498,0.00032216967513723624,-0.0057533561178348645,-0.10069422911796384,-0.013200043171129413,-0.006987202276843837,0.06701568930626149,2011-10-03 14:57:35.015470401,7.979021438
48.958553806726954,8.442971394028286,274.8185648608327,-0.02588352217373663,-0.20676080110535588,-2.249038510037874,-13.941714740656714,20.989155862823814,-1.6692704647503165,-0.044428168083735245,-0.3047054211552902,-14.101364342896614,0.5715889877739903,10.038647607245455,-1.0520834242488715,0.18050411226001514,9.754087256962892,-0.046464401081628,0.017857363081468954,-0.14979841583029174,0.01102128681108893,-0.026548374867923254,-0.32487843831768276,2011-10-03 14:57:35.125589469,8.089140506
48.95420210328356,8.472244439639516,263.0571398380094,-0.027283483764186673,-0.03138188888304895,-1.7563848303668093,7.875580887396681,5.633001363102231,-2.3692228232447707,-0.05278599607514801,0.4392576787213516,-1.6276921915737197,-0.9784911657075261,9.71148567087723,-0.7360906893116708,1.0471123573282988,9.626281353484094,0.010167303861001698,-0.0029821381165426922,-0.0415751894663021,0.011537807522932226,-0.016675248875098674,0.17045265895065928,2011-10-03 14:57:35.225449958,8.189000995
48.94819791024112,8.475466943857484,273.2841991299722,-0.14331223791064454,0.049667013154164386,-0.009530553045063339,-15.130425125046258,-7.835818743054417,-1.776129083194519,0.04255781941674616,-0.275584972661632,-1.1512562486693494,-1.4321708920421448,8.335692275143042,-1.9072127310567089,1.4088188631366922,10.632454003181307,-0.03159144938909924,0.020264728334535204,-0.028369414621227235,0.015565057580233582,-0.028468857168610525,-0.15910005394506077,2011-10-03 14:57:35.325448409,8.288999446
48.94856599876679,8.480932270229742,273.01814485332517,0.0156063626932583,-0.011847230665355583,-1.2459911105962767,1.7140943322144615,32.445739936029014,-15.801897355272736,0.04165816298118307,0.024700885580581665,1.6268949927859226,0.191692358670825,9.655507822100208,-0.3697404292167564,-7.77509292791283,9.449588097146878,0.01343768812063351,-0.018542419832712712,-0.007721088586504133,-0.027913412927602105,-0.03476089391582808,-0.45997990795914545,2011-10-03 14:57:35.435465692,8.399016729
48.97690001640008,8.486709558603645,266.9421785088936,-0.09425069852840581,-0.04113077751214826,-1.5178113712558425,-4.568541044959129,42.524459351088574,-35.31838304641894,-0.11993494433585856,0.0576113316033929,1.848646168963892,-4.6603310432436285,9.828226709234647,-2.5283193725273563,0.2831167743120602,10.480364814114013,-0.0008913441913187515,-0.01641366330282793,0.00703779929959337,-0.015572980012095675,-0.06422824321857305,0.07093557524785943,2011-10-03 14:57:35.535414786,8.498965823
48.94984544241822,8.496001922844423,278.62815781008436,0.04198134688027361,-0.026763892044594485,-0.8300893625820371,28.247791357257103,-17.54488870671124,10.457002597940157,0.04299464763204621,0.03046323654983195,-0.28184032219860683,1.3551265295988444,9.941524496294084,-0.7660386270097896,1.1579336346716191,9.353438994358985,-0.008783788966529297,-0.003923362193278874,-0.019517639669048754,-0.015850088941931444,0.00725500824592825,0.13575264426381994,2011-10-03 14:57:35.645607535,8.609158572
48.98180134191401,8.491548488808851,268.43727037139837,-0.004151606886982854,-0.2033050188489147,-0.8861273397655123,-6.160672850787655,-3.4342501897040525,34.2555863284865,0.04893240013028947,-0.4531682396012379,17.96685669782848,17.278335479572583,9.92640934803671,6.224163244285884,2.5454624627330773,9.711939638441374,-0.16754071047147326,0.023173678182353857,0.047256339624399735,0.02367808369132681,-0.03307027092231099,0.9780344845965601,2011-10-03 14:57:35.745384371,8.708935408
48.94914980199082,8.487992842257688,276.5443216768952,0.11051617769632718,0.07817703208990326,-1.2989529283597632,5.706192609983518,12.51006640512993,-10.743440397371465,-0.07217168596042806,0.1627680001261374,-0.4667614474207795,0.6789735383076251,10.017456042593755,-1.2791969283163258,-0.8704595925846927,9.939397808900232,0.03437005505274865,-0.025511288479307722,0.07197998648988002,-0.0010890067935114165,0.03653088493559911,0.11712569065810186,2011-10-03 14:57:35.845392726,8.808943763
48.9563588052581,8.482733711393964,264.22344246291834,-0.06167845358433907,-0.000861136273263239,-1.3162914780883446,-1.5741557788612508,2.4946698366606204,24.605115528265557,-0.05576330957845812,1.446532533666166,-1.4754535202233048,-0.4674074759069995,9.462805220876248,4.6215998550059485,-2.6769206575748634,9.769782005773719,0.0022735460995590173,0.027484461113983127,0.16526525089010943,0.04205378588001773,-0.020328563889177368,-0.4120591377411717,2011-10-03 14:57:35.955409797,8.918960834
48.94787131233577,8.493245097681712,279.55194367164336,-0.07576539829502824,0.0747588608293926,-0.7111715256821476,2.0625096110318664,-1.1605561740366728,20.300611124983373,0.20780600875412142,-0.47441294521032756,-0.046272327936234654,-0.3107925216632937,9.795664615571242,-3.1572312445912405,2.0929744232992884,10.545244909149178,0.006190564356838846,0.006968826648771154,-0.04433337756074453,0.01576179260604279,-0.020386305677190436,-0.022136128881449616,2011-10-03 14:57:36.055338126,9.018889163
48.95473368852517,8.488952800290397,264.06407750275673,0.09373475504718919,0.554351656444821,-0.8785622533026215,-9.567309995149204,1.9029009259158018,19.591379325753476,-0.0346696840273606,-0.10203384138565783,-2.4630383289084947,0.47647881649069274,9.626476624024397,-0.16160024284155597,13.49327110616443,10.03338657080339,0.014182785038147398,0.016775607776782633,0.07002076604144344,0.030202869204594904,0.03761657665896188,-0.11710140785605234,2011-10-03 14:57:36.155377733,9.118928770
48.93116883670369,8.491687508117625,269.2766214361209,-0.06979260862335683,0.015490197921058253,-1.2477015474467898,-6.477857946978274,12.33786821154873,11.93182025261287,-0.10149390399549961,-0.34841527364669744,6.170498995475456,1.6083986726570259,10.27843104310526,-0.5652065842203473,10.535078323164809,10.359462265884254,-0.04114825830737658,-0.017769134907031803,0.0768367941595241,0.0007803880902488407,-0.051784057800003724,-0.1641965997730268,2011-10-03 14:57:36.265330791,9.228881828
48.94354234363889,8.49099294866774,269.1319141060556,-0.09023604409250296,-0.038575420530087196,3.7144251288594274,0.4976000168569543,7.835956404793553,60.63612757802313,-0.22056506717800664,-0.012538211618313075,0.342958427691472,-0.13285434446925942,9.664596001938332,7.009952105215157,-1.195389970907438,9.808279365874458,-0.02505974020269868,0.03047583393876453,-0.8041250069098017,0.020231579062289222,-0.18951010667132587,-0.02343491175218339,2011-10-03 14:57:36.365332137,9.328883174
48.97561035079765,8.48279596166725,262.03591172647674,-0.04112154430658753,0.005306544882017893,-1.474766035309932,-32.212164280997015,8.214629098919861,-1.0344171670632623,0.12057506734197006,0.5170032977538578,0.7776193773952847,-1.9243703460605297,9.790564695932416,15.18755231180374,-9.407890854922389,10.286377081851978,0.006832752175834378,-0.12646148297614365,0.011938423122106093,0.02250810799225142,0.004569821215524452,0.008236957460060213,2011-10-03 14:57:36.465298574,9.428849611
48.950468580918184,8.491458505571986,276.6216905591053,-0.16339941105525788,0.17994381398344145,-0.3811323630432848,7.302690053205,-10.988157136443565,15.688052058370621,0.16706071781968293,-0.24397764253129742,3.2488910437874465,1.7289784778922979,10.041887444327589,3.7554825819090274,-0.0773661281361376,9.64478005269227,-0.04002893660442667,-0.04617486513656175,-0.05771173028269121,0.005511328637431869,0.02219791952749247,-0.15388193756066285,2011-10-03 14:57:36.575297342,9.538848379
48.9569577546195,8.490445923093073,274.2474828092222,-0.03477681962583091,-0.016604228808531962,-1.939596956086835,-2.9762021243023726,2.643680998861865,5.071260576882386,-0.08286634119157267,0.03334828583332148,-0.7984346752840707,-12.381913154242756,9.56225552279581,-0.14445486806661748,-0.33385608130506295,8.500434801637764,-0.004822349379855629,-0.025222459426220162,0.001712560472095687,0.0050215471365504735,0.04948452336356778,-0.15349262460420962,2011-10-03 14:57:36.675477957,9.639028994
48.954213695751676,8.492967036788109,264.65770465825165,-0.020696040753940062,0.0016709486116071423,-0.6837101860474353,90.64449150172135,3.616473387134198,27.596101182195408,-0.010424205947120785,2.705630428335978,1.927771582989439,1.644354593258122,8.923734178948038,1.1353100278050412,3.56590054560582,9.641867275479408,-0.004724320610521121,0.008248130209976515,-0.20200782680155935,0.007992807761285343,-0.013704923693377441,-0.14183522134079177,2011-10-03 14:57:36.785296570,9.748847607
48.95810913176085,8.492811904733486,265.34825732116343,-0.25393169623458484,-0.010772892641874157,-0.9435512154655298,1.6875946274641853,-11.528630585610529,-39.713580711184946,0.048760281071721964,0.6274310144041485,-3.002756424690445,5.147407828555456,9.410428274269485,3.8090201757681386,0.11173715562550378,9.78625106803677,-0.04609052048708646,-0.0014916749676957526,-0.2661617439845066,0.007589863638273344,0.01652480298687756,0.008565695574133472,2011-10-03 14:57:36.885379787,9.848930824
48.95770382608682,8.491460110051053,249.71570767024252,-0.07979520357703081,0.03703171976903859,-0.9398678061201593,5.482072890040954,7.770098106826881,16.18867175127887,-0.5728461532384771,-0.4456547629699138,-0.9285755629564282,-6.559073755572658,10.056695022871116,0.932449935714494,0.08930286411228369,9.825764531179063,0.014909444313730764,0.034917638398707374,-0.20180551048589193,-0.02078276785002207,-0.028771860399926377,0.2498980287786911,2011-10-03 14:57:36.985282880,9.948833917
48.944779823567295,8.490633920106182,274.2394028196926,-0.09798265510784418,0.04422556586022748,-1.3737267454508375,27.695691829618056,8.588719372678627,21.884844691537747,-0.07932694964378025,0.3893768510175593,-3.4972241891274347,-2.046530564644999,9.975715893890742,-0.646115731669739,-15.654545726194312,9.871504469508995,-0.017831079757428755,0.17904332367187856,-0.11654775091574295,-0.16600221170701243,0.02689212139262635,-0.030347606692132597,2011-10-03 14:57:37.095385255,10.058936292
48.92486002561453,8.480884757219945,267.214723235605,0.013224881282946452,0.011046506374227863,-0.9003478227765676,2.7497406677077025,9.32330550504205,70.35388522998768,0.045842025203510835,0.9179892372918916,-0.9769163434378465,0.10250601750775742,9.54129047428256,3.3567139600228844,-0.8935613689125863,10.600007196728637,-0.015827994440234895,0.008214290124807384,0.216218413639159,0.06120453783377109,0.030317933444358625,-0.17989395314165021,2011-10-03 14:57:37.195301763,10.158852800
48.948570343441915,8.491216117562821,263.3005836874384,0.023135648663217975,-0.029626018124572658,-2.7760531799453863,19.87029202125759,6.751107976307277,-46.40055061730643,-0.0397069995883745,-0.1234549486359273,2.422093469074604,-7.063138418354255,9.509694836361392,1.8353893529012262,3.2347165718851563,10.33270812173165,0.04766241845690524,0.0018216641414284895,0.146434334200711,0.21257122992702449,0.005927865341243045,0.043676787853992434,2011-10-03 14:57:37.295236048,10.258787085
48.952393226298334,8.495932503623411,272.8180980068258,-0.12325705995779555,-0.0011337511855680563,-0.6290627456813387,-17.923354022520638,6.13744685622947,9.882084855292177,-0.06469589929946228,-0.6151051836666513,-1.8390120933487117,-3.178036130803467,9.669800474793526,0.9124378291659472,1.9864344345263205,9.561464606544744,0.009997363909508646,-0.02089763503534207,0.06807607650659235,-0.18990188382926554,0.013334376443345862,-0.5563935310615693,2011-10-03 14:57:37.405183290,10.368734327
48.95176338995705,8.49020925033758,274.6702234533702,-0.05379844008729741,-0.28161847455001676,-1.0395883413704192,-0.10529220238321901,0.551507734608101,11.253497268977952,-0.03653018300500788,-6.256795575265638,0.957710503462984,0.07521401344922218,8.45069127748473,-18.088017340233385,-5.066965755974575,9.916103883966032,-0.027130744985088905,0.0022518242660802467,-0.08723172753025268,0.017484008461837265,0.007719975193155135,0.15432350808435566,2011-10-03 14:57:37.505188965,10.468740002
48.95523331695971,8.497727173097232,269.56360827952045,-0.03540707766596597,0.014504912241432974,-1.3966919911385969,5.232267867831879,3.314151349846443,17.191291098282054,-0.32224281432451346,-0.041190181909524545,0.723368560049806,0.6543637795694188,9.55851351415435,5.646582839861283,0.29754872500016183,9.175617090913097,-0.023920910746859033,-0.01980507062465336,-0.02231983528877219,0.03829691011574349,-0.028513463992484833,-0.35692174413056177,2011-10-03 14:57:37.615295989,10.578847026
48.96846908282075,8.538194564102037,268.5769003617808,0.04891960994447979,-0.03002083176313255,-0.27774459316260436,5.554702530309772,39.68521135203066,-18.054355130482367,0.12969011268159492,2.1102189510003364,-6.087159099894335,0.7804922276456369,9.92139449731527,-2.0994516652994055,2.051344974909563,9.499817559570563,0.001112119655344968,0.07402862883301764,-0.19169718221789883,-0.003626149535179135,-0.022436951205519418,-0.09097757433797751,2011-10-03 14:57:37.715195944,10.678746981
48.936934500412896,8.490001087703964,279.2402962555124,-0.07315249040482016,-0.039628613609675505,-2.0540114787660193,-16.643452290111014,-6.388787087461893,18.986077231124302,-0.7350050883852416,-0.45639457196768035,-7.692248354050648,0.4997602195437426,9.647155255672713,1.065703554688634,-2.229524248815287,10.441681255695027,0.003975775956548382,0.04475830373738278,0.19788141566214293,-0.015616599678502867,0.004712891162683697,0.09535614147666953,2011-10-03 14:57:37.815159104,10.778710141
48.92773127433798,8.48176267635988,281.48622843045837,-0.5663289811649552,-0.005872174095382241,-0.8169206318540682,19.543529211149288,-5.126281825239378,-0.6490059909617294,0.01921939329244649,0.21983514236056712,-1.6193700853110897,-1.601294975273372,10.335118685567164,-5.323209348570941,0.2625023864915462,9.829788930173377,0.012585944570290691,-0.1359157078600718,-0.04239600392267596,0.03554907378465396,0.004682913572914143,0.12222638729752822,2011-10-03 14:57:37.925145295,10.888696332
48.953902408509606,8.483600065208105,265.6456704291014,-0.0497029830714173,0.016386092220890318,0.7968346780568385,8.125421493840616,0.6441365051785111,-0.32816846049127246,0.5570370489436866,2.694692871377397,-5.724655677933879,0.030926540393372393,10.071213223220422,2.1492959626484405,-0.5970138326706159,8.904093905701554,0.00777113096957451,-0.00764622417422634,0.0947184486391644,-0.00303568113202278,0.04178814801306122,0.1732950230194846,2011-10-03 14:57:38.025132475,10.988683512
48.9475920158434,8.490225593014813,238.24864330174503,-0.016909719372242192,-0.024002345127108284,-0.8818972012576218,-70.27043599178504,-2.39495227769014,13.983306828131536,0.5025629413861403,0.6636471811986319,-1.3922340233333717,2.2049118372553735,10.361595381444225,26.223404692481846,-4.072057083061089,10.108759720593255,-0.009921407545492231,0.017243348587532913,0.11759563254538288,0.006011236806408304,0.02146286673831332,-0.13511622395550038,2011-10-03 14:57:38.125327391,11.088878428
48.9510667859484,8.48959728884936,266.2516441822005,-0.019452826752363796,0.014453178494734856,-1.0152746843166631,2.196075726306481,-1.1594611424397434,-6.7280802925662355,0.004571299245752021,0.1324505555630536,-5.779863304263938,-0.2763227538370923,10.143436002088682,-0.5027138058752659,-15.896512138154883,9.953671526909655,-0.0030887564306318074,0.2445685688556783,0.21740589477086417,-0.04346418031300204,0.03359244575901971,0.2902969562354441,2011-10-03 14:57:38.235129161,11.198680198
48.94878965014032,8.48678505434433,314.794574902906,-0.06142044672544231,-0.09681931887566464,-0.953130836556886,-12.462331825676252,3.620055475715232,-43.18559588443511,0.03926778453862912,-0.050189442194304094,-0.3376342597592794,-12.12540639771184,9.029434591365309,3.0700097738555994,-14.011103422802698,9.297590662384719,0.010810739416890038,-0.04118897386215804,-0.23770973919004285,0.018727985442242846,0.13559450605430529,-0.02206612479945492,2011-10-03 14:57:38.335088433,11.298639470
48.95136130813163,8.478767158798552,273.1246321719307,-0.05984054335114736,-0.06686694175664303,-0.17243088390341654,7.2103278536195266,4.06329316293955,-0.4353583716288236,-0.05659128999590421,0.16998467213689644,-5.8487765187148,1.278826597241334,10.097990081880523,1.618319726054444,-1.1929133007995505,9.879666665460697,-0.06219860838686786,-0.014219700167154698,0.19354517635853463,-0.026842813459658766,-0.0008097998854495222,0.13994945918411272,2011-10-03 14:57:38.435084743,11.398635780
48.95473498767968,8.487495484761824,274.0737461569512,-0.15885947375779585,-0.008447679919859374,-2.2711865388213557,-20.62953794505259,35.91840279605935,62.42288624383702,0.20656924945201843,-0.36939967693476805,-2.6379867625729876,1.4608342452310095,9.56683626850662,-5.739165273161705,12.037608816808987,9.453965933637587,0.18127816032891356,0.04877391158162289,0.0602590725604975,0.011981467353288179,0.035820634015906815,-0.07826781384819781,2011-10-03 14:57:38.545073069,11.508624106
48.94685967573519,8.478390733351146,274.34079950341606,-0.10470803936233095,-0.02628289771703276,-0.31360123547655583,6.607890279977498,2.651909994452268,-0.33516201474211815,0.1571438321497014,-0.6658440933383891,2.257370778122218,0.7106476854901669,9.756364912218586,-4.715976333104586,0.38112209986285017,9.738058806114179,0.007279401774695484,-0.019146100342591725,0.4730471894810766,-0.0027950548115883316,0.030007925147476244,-0.35344305348058097,2011-10-03 14:57:38.645339929,11.608890966
48.94125445440325,8.482339761641148,289.3458355465952,-0.13288404015338273,0.08991909200879908,-1.034921150229395,-1.841341970432622,22.327785696150574,15.463933355958812,-0.032221605557608876,1.3129546474115859,-3.0867675137053525,-3.3922533597722637,10.206936827033214,-3.340740000213772,-0.288423626895101,9.499424087054637,0.029293387161293566,0.06309749491568009,-0.7106291871678212,0.028306476578368687,-0.002134250219893627,0.014447572552108112,2011-10-03 14:57:38.755068348,11.718619385
48.95118803732657,8.487426792026529,263.73903513139487,0.10592930961247884,0.0936692169415477,-0.5093477629191194,-15.665320776327658,1.2163074042451085,-11.525950745652867,-0.09866295012513761,-0.4244991889054977,3.15718285182647,-1.989281254186382,10.308931818369777,-3.2349221289770727,-0.7660429898456602,9.641695309495873,-0.0016619772781673319,-0.001092510544871117,-0.01658066164603507,-0.005209661151023337,-0.0008140392280213738,0.12105658489026168,2011-10-03 14:57:38.855077162,11.818628199
48.94927817266621,8.482220221091886,276.1361808007469,-0.3282046340068023,0.03322479041168927,-0.4346872374952247,-11.77712459251654,12.469914588910374,7.077126817073184,0.08186249173099225,-0.2618647327370197,-1.202434822953728,0.1289389783584041,9.31404044397708,0.1976330644407427,-0.6784587249727636,7.496026245195974,-0.10104610615905989,0.024339120987699785,0.47024369363588503,-0.023970819985754475,-0.020420835425094156,0.08271222519637395,2011-10-03 14:57:38.955053938,11.918604975
48.94969427626536,8.487289987735938,264.0766896943678,-0.026383440606683076,0.043344597090922886,-0.7153225975363678,-12.618207921733877,-5.569761742861225,-3.3018398883763416,0.03742648970403296,1.8184404082038492,-3.0062868148856783,0.9302326503221068,9.765632138415304,-2.4080168876003327,1.8292177223739126,9.264711543225193,-0.013119077488483557,0.0034717404700330716,0.00024099532279671203,0.025562255093347076,0.003983798458768028,-0.08251017029233844,2011-10-03 14:57:39.065009010,12.028560047
48.9535613509779,8.497625474020998,286.89415849008793,0.487470068625946,-0.024467952634578096,-1.809024510657752,-10.547045027922433,7.707376948624866,9.06023574455692,-0.43297876218081643,1.0884657543880545,-1.6652002199289286,-1.3345976138290259,9.949821079415717,3.1122122866597124,3.830975648673298,10.111863693793902,-0.05311132305062543,0.019605202823426024,-0.1478104378243038,-0.17229107357136608,0.013526616612762592,0.6569452499371785,2011-10-03 14:57:39.165037967,12.128589004
48.94263573683544,8.498254896844296,274.6280131187444,0.05738227157978433,0.01651994469654771,-1.436439276397198,60.44647537682647,22.315911135632756,-9.533347826377394,0.04796288605281177,0.008492957783994518,-26.56612026932331,0.2537288216510971,9.844140913787482,-3.610937257744065,-1.074931288681041,9.491729718447074,-0.0034103217030247504,-0.04462131508088291,0.0023363080350737907,0.014351647238146912,0.12793463305841712,-0.22927314998975123,2011-10-03 14:57:39.265014596,12.228565633
48.95261904476688,8.487356479601013,263.5641222272548,0.0232147544517671,0.08767485535030453,-0.44641442495172723,0.27869411638906927,5.49373517180552,5.621565075003892,0.0974074857106603,0.4690477877820415,-1.2727698614257736,0.13166512911798503,9.596159770748145,-2.639458044280281,1.0736513649586903,9.398909720787634,0.042695047074046984,-0.010892375859844913,0.12975656828462875,-0.027564204880492677,0.003986294015209635,0.15830079308584574,2011-10-03 14:57:39.375003540,12.338554577
48.98470581975642,8.483022028326484,269.7407820322528,-0.10637306920697948,-0.0037661920673489444,-0.4066473081415001,-5.401196015011316,-13.68489305705456,-4.12764688614895,0.05047265410007894,-0.10383102648555825,1.1866545448241963,1.0218936556811489,10.24020695867683,-1.9447590296413328,0.7954255233137205,10.275505612311246,0.003771219913972196,-0.008748624768245608,0.0012813676724877706,0.11962124192521617,-0.02038650055657752,-0.22212681496255346,2011-10-03 14:57:39.474996043,12.438547080
