lat,lon,alt,roll,pitch,yaw,vn,ve,vf,vl,vu,ax,ay,az,af,al,au,wx,wy,wz,wf,wl,wu,timestamp,rel_time
48.94507227258538,8.479827796102922,282.57097245924166,-0.018979655242377817,-0.00411735840096085,-1.2917854310753134,-1.1424043533812365,4.446278833178749,-69.00125996818586,0.0750394593477045,-1.6867248583413792,-38.547663740347225,0.21456286692558138,9.987125961488497,23.81298718292953,-3.817108204778787,9.522560969544386,0.010474880022779394,0.007597131916458,0.33585708690576105,-0.11922739344968636,0.0027371774066760153,0.08412494445970038,2011-10-03 14:57:27.036448963,0.000000000
48.945040956961485,8.487727146392372,266.7230515890606,-0.08884973064805828,-0.04779763015005383,-1.2666773906615942,3.7589256593857185,5.974506301679542,-16.81904507909604,0.07050689792470054,0.06200259406690551,-5.717767682310719,0.24244448207072938,9.10525862659171,3.8139211847858423,-0.6713799270208027,9.93555181924784,-0.017229880177532776,0.12167351667091518,0.15768442676581176,-0.013130264559546322,0.008652600797984935,-0.057441407594400556,2011-10-03 14:57:27.146615260,0.110166297
48.97784872662514,8.47198137113001,277.8803144575956,-0.43352899423188035,0.03381211389320073,0.42140669170676925,-2.752435085801123,-2.012210462090381,9.549994901911871,0.03177464045541113,0.6342887861469354,-20.984131039383946,0.6458330172722957,9.684401135701465,-0.08897943327194519,1.9331652132623687,9.622266230654056,-0.03104961632058986,-0.028541688352129294,-0.08299822145249718,-0.03293794883066701,-0.01869721958187642,-0.045938501682608074,2011-10-03 14:57:27.246339073,0.209890110
48.965089573497984,8.484505181070503,277.15023410955666,0.03795760698055341,0.030985272316589457,0.7807490462715599,-1.3728640354708914,-34.93139005884917,27.72703321187073,0.06470275208173626,0.06040682720547815,1.3484324312979745,-0.7392478147292916,9.920920788111248,0.6571205507835152,-0.16961446858862536,9.382444515528066,-0.0037072385487018746,-0.010180172180407168,-0.269498651734207,-0.014164820960748371,0.019674264583244575,0.05944621334430572,2011-10-03 14:57:27.346351297,0.309902334
48.94614736922888,8.491103430709233,268.07558118219856,-0.008968829779656988,0.009677251439862975,0.30558688879571605,-13.847435556387639,8.614419153153111,5.6511616225958505,0.16192509990171725,-1.1908422465474557,-9.721000310474809,-0.8086173938618206,9.953688335550126,-3.84847346449402,-0.988262235938453,8.276902609322947,0.024431746480225308,0.03261024965129441,0.17358505635588242,0.022272997219872626,-0.13387493318495727,-0.07303901178079741,2011-10-03 14:57:27.456352889,0.419903926
48.954553719985654,8.488731375010039,265.9590838142075,-0.10480412850689858,-0.03383957312370976,-1.0219823269169175,-10.424747945707924,-2.0654621862101363,-8.47343876564355,-0.1248315908871261,-0.6712244255441545,-2.965525610818264,-6.321030364315731,9.301264142933169,-0.5176087100491112,-1.268430335975037,9.525345292775997,-0.03367573281746207,0.03196698338150382,-0.21271811400381122,0.029590869607276107,-0.010529986518402538,-0.33248819875818425,2011-10-03 14:57:27.556322557,0.519873594
48.951938468131516,8.491519706828731,287.2037770202969,-0.09200217421385584,0.020823007269109146,4.339841666526254,-0.9847043006138807,0.35066245228216064,4.693294528810999,-0.007467542742104634,0.12404593540140912,1.3325837477255371,0.9926443477439462,10.077676897661476,-0.5705672972456253,1.917796819291351,9.79983819874677,0.00799465891455589,-0.0017739810795301214,0.15885644575029842,0.025577447381202306,0.034180723201945803,-0.04905918044155403,2011-10-03 14:57:27.656496898,0.620047935
48.93256425295758,8.491278831457715,281.8353440464776,-0.005830898163188613,-0.1111008979536259,-0.49873569340269563,-46.46658485308266,-2.6800136904850143,34.938573377220656,-0.06478684208658114,1.3263522075367844,0.3730259813332184,2.0677097823824893,10.806525454525744,0.9943671735056508,-6.506370225597834,9.59948823729575,0.022507818791031885,-0.014307986839818657,0.042459633343295965,-0.02376357143654063,-0.016702881481464423,0.08576438072858653,2011-10-03 14:57:27.766341685,0.729892722
48.95349481468774,8.500649948193864,265.8821491555475,0.04780661813859715,-0.15102159482173258,-1.0865991885992445,8.236480186126382,34.67642683401138,11.50881487010043,0.029476636911322802,0.8852562618656664,-0.2889220632742466,1.5328085041868682,9.772224890234208,2.6603443900999575,-3.061236585907763,9.559090566649218,0.19036401761047503,0.009835359794521572,0.2948055017848496,0.0032149873081059313,-0.0043393128680866535,0.055402143060210796,2011-10-03 14:57:27.866299934,0.829850971
48.95492121535347,8.495192319483756,263.6566778637839,0.023560619026291137,-0.019527250248947397,-0.7770888277976209,10.235090135493614,1.0136619916741183,113.18578680507687,0.44980904272972033,-0.40379902235930276,-0.2509552633230686,-1.5568329921851438,9.556778031874645,0.9124112522090395,1.1501162167446772,10.224164792748702,0.0826006499031321,-0.0337994846019992,0.39133212298884673,-0.03429510926766535,0.017111932475764428,-0.21375543898055435,2011-10-03 14:57:27.976303969,0.939855006
48.954182707956285,8.484545383305747,272.02693793239433,-0.10547195298768404,0.10672311370818792,-0.742516513351455,23.283595351740473,12.37926653821976,3.687481521423005,-0.02706789139455341,0.6080563917301374,-1.7554752674488538,1.931583188262468,12.087925708488498,6.046763285063145,-2.4651732656190455,12.771181157958436,-0.0014367086783837557,-0.011134408923703527,-0.014147190580298181,-0.013252075034999245,-0.01420760599281909,0.9256114655355877,2011-10-03 14:57:28.076362038,1.039913075
48.938546798219676,8.49126924205899,268.1527144150942,0.14072169500446,-0.019537555328894604,-0.7702585648774767,-9.9532193413044,-5.696330189131813,42.660113075150605,-0.022723069819501233,-0.6383149020149699,-5.222917116189858,-0.2431924364265048,9.605012476829229,-0.765531786532017,-1.3450089982524283,10.468771897420288,-0.00043300031321239765,-0.011691913057972698,0.16492615528311852,0.010981198856735137,0.03246770642849465,-0.05555249831701972,2011-10-03 14:57:28.176384750,1.139935787
48.95057816201687,8.516282585965381,292.0163783527931,-0.04079791198182932,-0.014899819947945127,-1.7521760613130128,-16.552591324726883,4.888161975910047,9.634519740154914,0.051453661280518585,2.915030047444167,9.983631289772546,-0.8117121366687345,9.633353360908101,-15.886575200567663,0.014951260378637019,9.897919837397046,0.0113552298380217,-0.022644425241577296,-0.04310723925867933,-0.018623991618710936,-0.0054033131519629525,0.022056586756720436,2011-10-03 14:57:28.286350934,1.249901971
48.9467394187461,8.48706121723004,205.89570003669562,-0.018951879640406018,0.002292740361035367,-0.5629802390959351,-21.036074662316892,-4.980822534362568,-11.26087386730326,0.015642343214693048,-0.011095489966472145,-2.3053234568147802,-9.379865393330235,9.98116123618785,-4.595199121932884,-2.0323497996503326,9.58893228789154,0.010382382223413724,0.0017568732337341418,0.055263150314000226,0.013013882623029417,-0.004632984727964363,-0.014939265001439711,2011-10-03 14:57:28.386232939,1.349783976
48.95204490537404,8.479907973804748,266.5526622886334,-0.02540043225040814,-0.3243735138799914,-1.7734934089707297,-18.33159687797584,6.951990478403935,-5.247849400260285,0.1028547512623717,0.004424955137791731,0.9109654273411731,-1.2941847782176605,9.845973884884542,3.1693026438195315,-12.548595775251481,10.218423036547458,-0.02161243318868165,0.011242531160666017,0.24041947484283993,-0.01629786041320376,0.012041823502177057,0.3094946998243123,2011-10-03 14:57:28.486246830,1.449797867
48.948408700531246,8.48663362150617,272.52750259709524,0.01962692836573654,0.049783816552590815,-1.668053293248088,74.88539594445221,-5.182753601250813,9.420233819916522,0.16768262081593419,-0.6836893548598368,-0.96352271737662,1.4398830298910759,9.68664607569828,2.5484035078682195,12.72290159391156,9.344881861123316,0.07112980932920603,0.013716220860842355,-0.006697785333359972,-0.012945646543432953,0.02148043654543468,-0.0033942796622684597,2011-10-03 14:57:28.596347200,1.559898237
48.94624268941348,8.485793358119368,262.9235369511448,0.001529203298131769,-0.006749251926231098,-1.499742257104931,11.506564477741518,11.851120682500643,-63.27763522282046,-0.05011544034543723,0.6074789103169542,-8.30406964880991,0.007176310709847977,9.923390890881409,-1.5701512242635727,9.481516296469572,9.209555379189501,-0.01453294121522687,-0.019935425571555476,-0.011660145387490595,0.04528943032144975,0.014469264313048132,-0.49749244503617124,2011-10-03 14:57:28.696237865,1.659788902
48.94740329746677,8.486100230779066,266.8067186154783,-0.09012042659007236,0.026720123063550743,-0.4287225736672502,-21.66049715931716,6.863007466448759,25.305247296323152,-0.022975798320392732,0.6555724607767055,-5.178730712517186,0.7678994922095006,9.292511603221776,-0.8193435473905509,2.491615187245531,9.679843013840129,-0.030743551647225302,0.012886798039983893,0.10770185808202501,0.0057361683630318076,-0.0448905338729596,-0.2612476984517347,2011-10-03 14:57:28.796259175,1.759810212
48.95342500052745,8.492437649337951,267.8376400143636,-0.13757493236247179,-0.014724691194866284,-1.0432174918644916,-19.217532440358024,-1.5901336796476953,-10.89464836881881,0.0064200425278286176,-0.0630717237507594,1.706687036656341,-0.16424633650838122,9.890313754853738,0.5349414427391219,-26.021511256270443,10.394064621394477,0.014105557342843654,0.0053117118634569095,-0.27356988413315825,-0.010918478090433574,-0.21722079493010477,-0.4386880241447112,2011-10-03 14:57:28.906177965,1.869729002
48.95625801438158,8.474639679121838,268.9789004179393,0.00780127550431815,0.16438267673406193,-1.8809933059319752,-28.606625261346696,-7.732302720772509,-10.657116346269333,0.1002609169662718,-0.35530532654488844,-0.6844355417218917,-1.2610795149261609,10.119738782280283,-1.5289233140853158,-3.245558848041599,8.832663304384194,-0.025681026942703165,-0.048001523402367206,0.22433630378578967,0.06013286066573524,-0.00013351402006878707,-0.19425297314680914,2011-10-03 14:57:29.006221139,1.969772176
48.975399785505914,8.48189032402328,275.3743122783642,-0.1175417913803579,0.1099582722310549,-0.7987708726772155,4.220109592779828,0.2695691401555489,21.16209078914341,0.0073760809115033885,1.1827456841439898,6.390027611621963,1.239741285172779,10.472212765247033,4.136314446791711,1.6919603350670096,9.546182146343575,0.020268929064770503,-0.011751854565204941,-0.2190495889218085,0.021055080594509234,0.20165206322637322,0.1798953597530982,2011-10-03 14:57:29.116348648,2.079899685
48.94218453909362,8.486401387104712,263.59779725179715,-0.663166346558344,0.0946638518596786,-1.5032659184977,11.469796441920511,-6.492301828736448,-3.6383431494088962,-0.18551765713645632,0.3260825178680841,2.6006069585630573,0.11035043892870636,9.524467485155787,8.585169889621213,15.727344320169033,10.904416804182375,0.018966469354571944,0.012089914400496334,0.22214035198663443,0.01341257454225735,0.05222466355039879,-0.064760360652734,2011-10-03 14:57:29.216128213,2.179679250
48.94192950226563,8.495474372110863,267.0878680116908,0.018517408248625175,0.07164493292610744,-2.7131213223815807,-43.18594137498693,7.95491791105676,-13.926065083938832,0.033352576942759934,0.0873097732094506,-0.6211236892376302,0.1323342119507783,10.921855129443037,-1.316146637528007,1.1141741357675092,10.25596980236358,0.1399887662381869,-0.00023467327131859261,-0.000758414194674911,0.011137452833775487,0.10330827406680539,-0.40741777170439597,2011-10-03 14:57:29.316122863,2.279673900
48.94562598813624,8.485376894663954,268.80870297455664,-0.031584521303759994,0.02625072358243553,-1.2463048873349831,-18.73373277582303,21.814042969103614,-4.3946773236265315,0.07233856201029651,-0.027444553727893686,-6.031495384416843,2.882347787844326,11.56970159043706,-3.4761495437427943,-2.964548124359697,10.422471589417528,0.0009863250705907294,0.012452422570551873,-0.021461330190323064,-0.004174529447732558,-0.008539966828339197,0.039253919170143,2011-10-03 14:57:29.426094863,2.389645900
48.95001070356039,8.488443741486504,274.6828608228135,0.11502677424386606,-0.02191441294659494,-0.868677278049247,8.84269759906023,-54.8724733111535,-7.135673227579499,-0.09657097601757217,0.0565221352582966,-0.08566167967985458,0.25546090858905757,11.694162626298434,1.5667695986353585,11.327111215404468,9.930165693017807,0.004582911185540716,-0.001637071979155258,0.12745636378604464,-0.18806340345103537,-0.03013954478316546,-0.1450832894950413,2011-10-03 14:57:29.526120683,2.489671720
48.94490329451377,8.489847224946999,282.61087841266084,0.030620857402334976,0.060722096305476085,-1.178021201031662,9.265333483250274,-0.8599558015633644,3.775242567059469,-0.04939305054270205,0.4001026300548957,-0.7159445202393905,-1.8737752546405855,9.990353088653546,-0.6431008521537592,-2.7046645773413,10.16910019487489,-0.028834768204736766,0.032106196318066556,0.02782362128655889,-0.025299111721050503,0.011257491814790578,-0.9710666562982145,2011-10-03 14:57:29.626224698,2.589775735
48.94702210032175,8.49005940201127,268.65501288056555,-0.48973097294486223,0.04897957694382224,-0.47940745344162816,-16.614475999606245,16.248762835877244,9.23888882486611,0.31908909811296204,-0.33548512372749967,1.1912636570888284,0.8571677771280168,9.488865162045244,0.10897155352525967,0.5030996442407398,9.669467301344293,0.0023552263910376885,-0.01684415985937402,0.13092519961583063,0.023893633766083146,-0.022361293267912693,0.061909455633351006,2011-10-03 14:57:29.736078532,2.699629569
48.934752679246074,8.504467168848747,269.0012115730536,-0.01252409987574711,0.022359425585286506,-0.45523803042907285,-12.711584492805265,13.95962017492585,1.9028494730146615,0.3708074253867288,-0.10309147292462957,-2.504204541855253,-0.33875971844528874,9.833183088809758,2.774794155951921,4.289451557855495,10.677986460467482,0.008431562192425563,0.017738715774618975,-0.00983660909265331,-0.010473586956599385,0.012770483923183943,0.2072001183371858,2011-10-03 14:57:29.836074942,2.799625979
48.94184918692591,8.494874822675015,271.38799109822315,0.005267945542377771,-0.11898325904301237,-0.9048262465916257,-94.92406812979914,-2.704916334544775,-5.575075813343309,-0.09516167141895494,0.7069361579384288,1.6051908337829155,-0.3021829709256792,10.022581550130088,1.2055053185545344,1.8742821498575046,9.360094388388788,-0.05325578387337764,0.03488082168251874,0.2747910432021291,0.008299992160038544,-0.10561371491570638,0.1810587802059375,2011-10-03 14:57:29.936048518,2.899599555
48.94252175637823,8.49329751446625,268.2377289233319,0.052393244497333444,-0.04220381319617442,-0.8516924484844353,24.632117956705127,-3.7586567287224644,8.383381646152557,0.019803720355982858,0.1836437512732219,0.7337280520268166,-0.2505678476419587,9.930845315531283,-5.291318351891892,-0.5467414026043953,9.60853441258688,-0.002754679455964096,0.0067415193395281865,0.07749125385162349,-0.024434535589165075,-0.026293678505658048,0.010932742764668988,2011-10-03 14:57:30.046019479,3.009570516
48.95038079158624,8.497431816211646,285.82741317397415,-0.10212912610585209,0.0593950117119276,-1.2818550217248446,-2.6745942887390064,4.361103752761099,15.383475234996077,-0.1142579341047548,0.09137138624884839,2.660763711097138,1.9186132583523603,10.11625452307545,-1.5449692965538153,11.179115595931693,9.9743299510295,-0.010347128733634543,0.005887344329471855,0.17095087936053677,0.04014116323319225,0.02665888446427838,0.6015368073247858,2011-10-03 14:57:30.146155624,3.109706661
48.95259007415707,8.480180090699097,289.5662919763736,0.015109735053569606,0.2055946373281821,-1.1937931647356803,-2.966302881082722,-4.249992311885657,-12.815140147882868,0.29765753246967835,-0.4516553419510477,-0.3216426528478589,0.3862143723281709,10.005804211629888,2.3432275799807205,0.6442824944939529,9.737965197564755,-0.2794528301881135,0.0045581166650720244,0.09479478605401195,-0.10366340197538178,-0.018560936897708935,0.06768020899491017,2011-10-03 14:57:30.256039427,3.219590464
48.94710710763478,8.48499731727414,273.84108576565393,-0.03266386071565155,-0.03964727349726065,-3.1363894424641106,30.143812003863935,-5.163116176686126,-3.5381601218483087,0.0756438467838506,3.6277036874099173,-0.9927783770281853,-5.373065641934702,9.773655793972392,10.725530822012688,1.4587384725575778,9.404148041193467,0.0013464093184583662,-0.02086321252826655,-0.3622225533620264,-0.02617353602191774,0.013333164414251714,0.1584229440678801,2011-10-03 14:57:30.356044323,3.319595360
48.96893778941044,8.480252392766388,265.6807144652662,0.040216634898213637,0.0021420988251265706,-2.8051094279688904,-0.6658087873138228,-0.8475963450831652,11.135080764012848,-0.024526381366241905,-0.2715787241508664,18.15849971370231,1.5546854739242681,9.590949779263237,-2.2627307762642297,2.9202722622567934,9.946799061632394,0.011476365416571214,0.11222838746911984,-0.01844947590053682,-0.05334880882740136,0.01259340129106534,0.015176033424541555,2011-10-03 14:57:30.455994934,3.419545971
48.94472594621464,8.482573432471053,272.9340237473648,-0.0688021447444756,-0.03553321840196724,-0.7839204360425647,-15.58862853621022,-22.832059479042446,13.80165944952665,0.05585710776674515,0.11545233382570941,-3.338354569467028,1.0298408422584768,9.802970649403312,-0.3606881839412322,2.1354880749100693,9.734725887298477,-0.0038251566090378563,-0.013141541766863777,0.15476251758648304,-0.015621346386918866,0.03074517004634478,0.3642286133848438,2011-10-03 14:57:30.565986444,3.529537481
48.953420420086175,8.482962726985438,272.23240195267056,0.05499466594358878,-0.06519639296125393,-0.6402961451092147,10.410354491257115,-47.702555516910586,-52.37290832400772,-0.07284448533867181,-0.7785411308552856,11.066873786406667,0.41675567780205053,10.138223053834993,5.168683442367329,15.50328292335938,9.89590851568313,-0.0045432101055660435,0.0013042452832014804,0.4797340968841079,0.00696350507811847,-0.018559994443797675,-0.14817032381611636,2011-10-03 14:57:30.666190178,3.629741215
48.94987161045423,8.500469949076752,266.20037969503613,0.020380887805864358,-0.004647771754626492,-1.5869765960833193,-7.052774047194468,7.6272606884002805,151.13363018650824,-0.08686710452067321,0.15448504054204393,15.032461926199115,4.09051861682255,11.862060869390863,-1.2648891851688715,-0.45510119897440665,9.669170233550629,-0.019878256067186142,-0.007761757340207529,0.04821633503144296,0.06483332869936298,0.01774767244285719,0.049631127488202094,2011-10-03 14:57:30.765959514,3.729510551
48.95677820018806,8.475912852933794,322.379169623027,-0.04869231647986895,-0.042225925139805186,1.0674905106907608,6.597094076866278,-4.847730901145555,18.08964719157157,0.16663142936970252,-0.33087213151524597,2.5340720197454214,2.5269314063260597,9.917747041495593,-1.6297273264283993,-11.714880835923832,9.392784623913753,0.10686819666944053,0.0016433079620907236,0.11736330309947265,-0.009742089758169252,0.2562679467523893,-0.17826382369556804,2011-10-03 14:57:30.875941960,3.839492997
48.94938179723699,8.495379611560939,277.2978271699898,0.07264187734792066,-0.10219629020182565,-0.7412018812935689,15.200149595975574,-21.483665849148718,-19.329766120646447,-0.08475132505019478,0.09367069350610621,-3.000504935370863,-1.9385502790869917,11.617070106778627,1.5015203955312804,2.044770695108145,7.533990771623299,0.019030376846821077,-0.17538002648217893,0.008113284187249692,-0.01842104063992898,-0.024377187755667957,-0.14174892757539403,2011-10-03 14:57:30.975934649,3.939485686
48.950606997469954,8.477518571676123,259.72815335164705,-0.03644610287423146,-0.024293419984879768,-3.3864675538943474,107.51676061239687,-6.688795179725423,10.007395966040033,0.013509389812209852,0.42444033226724026,-1.3576157939404525,-0.6201908887552119,9.55542197781812,-4.691034755758529,-0.4587978733293825,9.711122978577281,0.012131421167394888,0.13471240031261966,-0.01048895677551601,-0.028714872236459348,0.018309816290740882,-0.20910190706378767,2011-10-03 14:57:31.075949820,4.039500857
48.95263599262938,8.48106954763507,261.06071665796514,-0.02325028656650812,-0.024118427148246413,-1.9117313014011144,-28.947523523666057,-4.738709555459164,-9.162441535044389,0.04937173098345894,0.13239397478289835,3.66822948466226,-0.9376276717715151,10.098860415442154,-0.9046706597011949,1.8364570532405864,9.359751071218984,0.0001135606782565801,0.011503227584395722,-0.26469917016501043,0.00876156540203198,0.029032420671439678,0.00520839163201251,2011-10-03 14:57:31.185920654,4.149471691
48.96164735401927,8.487953843986007,268.4999563105204,-0.1622312703554564,-0.10783230147606876,-0.8564531441899379,-23.758373911137724,4.318928426193569,55.25842232821795,0.17958686511870142,-0.5466454560769005,-4.097641444983287,-2.236213371955788,9.892219346422452,14.654663805664677,-1.7638002272893591,9.854974147604185,0.014538426444972007,-0.02058824255834125,0.8539516548306106,0.007544024883863905,0.04720440488697046,-0.11029400668696454,2011-10-03 14:57:31.285886356,4.249437393
48.95912769029009,8.493658615535022,264.379932930766,0.03630216152943869,0.02914571980628155,-1.6634942986173356,0.3713725425154428,3.0229860962977284,19.59232959349795,-0.06514116899898328,0.005412293456256767,0.3495003879226961,-1.2939921234577616,9.776135625060734,5.874476145544563,2.2383767678095148,10.019033288324833,0.027163672518140693,-0.019454268925370506,0.3016580802200379,0.11084565513252406,0.07957480506677642,-0.060976605678666716,2011-10-03 14:57:31.395884684,4.359435721
48.957298151734655,8.487556170855074,278.23029730592674,-0.00993045903996597,0.018711122304390395,-1.7081406155281313,9.59084062409741,-6.189316255069176,15.438306473671068,-0.10995063116278542,-0.8091743376963351,2.8440799617112322,1.0577113986266098,9.885172128910893,0.8500543358994641,2.2310058171890765,10.261455575707714,-0.012648598374037867,-0.013600598976737686,0.260169132220276,0.015958388213684487,-0.009679070913745114,-1.6034336328896948,2011-10-03 14:57:31.495863128,4.459414165
48.947740132703025,8.496249595786647,265.75275508281356,-0.026135551484618862,0.122676380152868,-1.2611428013994488,0.5900423897888736,6.700283424489394,-10.094657545241624,0.014706499776657325,0.400161303598602,1.6267139447180143,-0.9370512054437623,9.569403073337977,1.9642590853453796,2.155647341306794,9.653717510379165,-0.02297445004242466,-0.032251133809474385,0.18645610090038897,-0.041728217353257345,0.01149782139429376,0.01927053987442589,2011-10-03 14:57:31.596042703,4.559593740
48.94514207275622,8.488634634141473,270.0037106063175,0.03494543426584472,0.05149225903939689,-0.3639030113468297,-7.839324333311184,17.986666948605933,-5.661596051506972,-0.048460874383233224,-0.03965900223190147,-0.05504282950459549,-1.6155104776450635,9.426681122093296,1.056114955478517,0.16643524455090813,9.980753189731084,0.01706236728300644,0.04589490059877534,0.05443282484640043,-0.018802631332795326,0.020345508891096032,-0.1758676275724839,2011-10-03 14:57:31.705877283,4.669428320
48.948231632645616,8.490497691010995,266.2174034939294,-0.07204948034712544,-0.027763370815423835,-3.516128833617989,-20.9420740648492,6.233667301309858,20.07081039103561,-0.030437590365674283,0.19331938171789187,6.003443556632442,0.3884403805843481,9.411696454800552,-1.0602852983658682,3.020054512053504,9.616661473491137,-0.015542964057768041,-0.027239893279514725,0.08325419754319753,-0.044769449785970236,-0.06106721980095311,0.051602026848492896,2011-10-03 14:57:31.805826904,4.769377941
48.92623832201796,8.495776754816813,265.201586834956,-0.4286218944998275,0.049303461393369295,-1.3622063663101485,-6.535326306721066,-37.25117945916178,47.95788628189021,0.07261983794179541,-0.11160474123181574,0.14994813777813398,2.186366265181112,9.773376950645703,4.141820521178634,-0.1124288421566766,9.720073545362974,-0.036503304233139834,-0.0155162857061439,0.026481952214663138,-0.01057938772645331,-0.012323837154607102,-0.04680171754590319,2011-10-03 14:57:31.905824029,4.869375066
48.950201920248915,8.48669298837279,271.35085923970456,0.027602368797474557,-0.04518293732757113,-4.699384842246492,-4.668107208569866,-4.775402223775092,-13.286353508753415,-0.4037222604217897,0.012894017084303232,14.011118127709805,0.04420286262686085,9.675230022315878,0.7938017087224564,7.794592786328041,9.642023739571698,0.044087629142905746,0.04244797118290458,-0.09333784460825281,0.043286543497212907,-0.0038511757410814346,0.08382887013879384,2011-10-03 14:57:32.015803034,4.979354071
48.954142687105175,8.491440881794535,271.7797882484358,0.12882899934642406,-0.06637999008171393,-2.527733884895938,9.860705591394167,2.4489689873021576,-12.920766413051231,0.33792236069807696,0.1525686539601142,0.2929194003773459,1.7602589809383953,10.09043218784056,4.482437583982927,0.6718477926404473,10.171367738053563,0.005791024406051384,-0.00700285021084633,-1.3137767942075667,-0.008350329869303254,-0.009207177972108216,-0.1780450966866713,2011-10-03 14:57:32.115867411,5.079418448
48.9353886314156,8.517468305422371,297.8249785452334,-0.036236541442112795,-0.16548279836189606,-0.88329046485872,-68.57591956883547,-5.485132119545948,-8.08810826424919,-0.05047434978612208,0.7234329892820189,-0.09230703397525608,-16.62921285558344,10.985760114738891,35.294492942424114,3.0072564938032467,9.660438184396606,0.007805244207207822,0.02813892729922829,0.6097019101003358,-0.02234822470626946,-0.0015470960694854681,-0.06464378350607869,2011-10-03 14:57:32.215828880,5.179379917
48.934404424528935,8.492564052006104,266.24431380535697,-0.10143864407763073,-0.0037130766127023507,-1.4309122663202598,-12.076939297045712,0.7269878983418281,-7.991559331778719,-0.18636375964663968,0.36765707608240555,0.5738026903345759,-3.8152512781484034,10.177655076629318,0.23357404260869652,0.8314214175472293,9.677551623259566,0.15705860218393486,-0.0015907941337044182,0.0796545255676675,0.11516481791672135,0.0029095312017158185,0.19334683940875724,2011-10-03 14:57:32.325772887,5.289323924
48.93114148925818,8.482500994155311,242.41619707749408,0.010462762470917195,-0.0635887218980008,-0.6455890085210223,-11.53888986426413,4.90271383580866,13.149383411143738,-0.03203192796139012,0.28804587108716173,0.08599529830948671,-2.9931352515489555,9.872149418632567,4.859007479725645,-2.9783352610256424,9.81176633218012,-0.15144658747322737,0.009581630490112738,-0.4034614999086508,-0.014008365565385355,-0.009211486433010296,-0.12145009935869007,2011-10-03 14:57:32.425766039,5.389317076
48.953152409704174,8.47666330938307,308.33119117109993,-0.09768660841139704,0.01764440888477329,-1.0887343068256201,-6.605136043090626,-8.405818622998376,-1.3524868363016438,-0.06133461296816281,-0.2585457276281364,3.815832798476726,1.060624185348213,10.097667439883388,3.0409543678417847,-0.13090926725231336,10.390923646014562,0.044528526135830596,-0.04060460391212721,0.01937538345418823,-0.03469364128590932,0.003314132719834249,-0.03121298176728441,2011-10-03 14:57:32.535748461,5.499299498
48.95419440248199,8.478862381527723,274.3598678644637,0.09544631983628596,0.027723769419760947,-1.2897485666387691,-3.306333192745795,13.208649641325227,18.361642752340323,-0.6637573266760181,0.44842548082297806,0.13104789619893342,0.8112416712648832,10.191137837034967,3.759110827773417,-1.985006673627947,9.99515375857582,0.06281582240067683,0.013954968706425878,-0.006218454233790123,-0.014850273553232974,-0.008248915644566094,0.05557480058228968,2011-10-03 14:57:32.635947438,5.599498475
48.95265963059499,8.488733093955533,269.7921838415622,0.208566515553207,0.04507863905852213,-0.9497299616120368,0.16313845801932603,-8.544496313706842,17.351153582530245,0.09805299693683207,0.00016889139759260208,-2.127926796283418,0.16654078729428984,9.487995942230771,20.974563780936258,1.4578842881201721,12.872124615640253,-0.016403931675630087,0.00010897906063886702,-0.0017819261166189101,-0.006274901388024725,0.034760542453489286,-0.04424957674352647,2011-10-03 14:57:32.735712829,5.699263866
48.953754571298276,8.493093976525493,300.35820366004697,-0.12000299518370766,0.026140031652634083,-1.38169452404361,-10.730731030191338,7.354258545286482,-30.21166009064055,-0.12185966609712083,0.19060028354111208,3.185673145556093,-5.749317996058799,11.594968320635207,14.478729911382104,2.0276541996869692,9.918265957760546,0.03144455284467879,-0.04457853698838672,0.08314782417852662,-0.03801551677040511,-0.020569174889080374,1.5963137502092868,2011-10-03 14:57:32.845703183,5.809254220
48.945426595322125,8.492622085183074,243.6957101978992,0.010644003419435208,0.008614984689678008,-1.2162591128439848,-19.159805817981635,1.5976153741002566,9.669349410179214,-0.11737856538738908,-0.29819766944371795,1.0223682881743157,-0.9599699716252468,10.467585352284885,0.0950204503154033,-2.547107914463986,9.945994801524545,0.0006644374272628166,0.011926167461931775,0.20377267970394428,-0.04264969524459065,-0.031096204281726568,-0.09970156243957014,2011-10-03 14:57:32.945747860,5.909298897
48.91729072579095,8.481869855488709,265.6598661842217,0.05780098024258078,0.01574280943517711,-0.6291507270346808,-6.271944652278391,21.31667458839284,10.606421545879748,0.016091859692355735,0.17674491874205067,6.7887800427628004,-0.59822198051569,9.92467398524413,10.100212483808265,-1.1718443227157118,9.887356877947699,0.02007582502398298,0.03429447941809795,-1.354188953429202,-0.15373411980228163,0.029187580421696606,0.8121925462872313,2011-10-03 14:57:33.045683917,6.009234954
48.94518848415368,8.49997855103647,265.85878606610106,0.2967585226903726,0.005639756963916956,-1.2055047903308038,-2.2643751446053146,11.625090378057092,3.146557223253851,-0.04468730288165583,-0.05267875474528681,2.590747153597317,1.5187410206098293,10.314732485137629,-29.943219037957714,-0.28286921766022477,10.553295277475234,0.1724493927401071,0.014657508998757559,0.19545068043524544,0.011547879171691852,-0.018019417042188346,0.12618203844970247,2011-10-03 14:57:33.155719624,6.119270661
48.94980406522667,8.489355903367155,268.88098715355534,0.04707415090712261,-0.0622062463929487,3.4358605377585203,-11.152461391850814,-102.61976430727404,81.37918603882885,0.2416759430918401,0.4231988425125519,-20.465836861368224,1.5100635359911094,9.955626495376737,4.1632689139276735,0.07074073708857023,9.96021107451474,0.0044391415351987306,0.026507076107498598,-0.3497767619883388,0.02194979874965495,-0.0034318154635249115,-0.01979862686548669,2011-10-03 14:57:33.255693282,6.219244319
48.95295578389085,8.504249860560103,267.80755611890334,-0.02889318474747339,0.037791457161979174,-0.5039307757273327,-20.533779979439068,-5.553288236484979,11.150055675200367,0.543325655181815,-0.023577729966246172,1.0277111108958152,-2.835325760693639,10.277441126564684,-1.5817857990463375,0.9451356034915994,9.795353130548435,-0.011498839013004403,-0.029564773365795424,0.12112424556333098,0.001638010416009958,0.010910408272533296,0.16618770038891006,2011-10-03 14:57:33.355686136,6.319237173
48.94780060901265,8.48528749207794,269.99293521603585,0.12454007782161731,0.15651667806979686,3.6563885758921293,26.699755917420248,8.457380203087697,-11.65793574551283,0.021248578510900243,0.010687025513718668,-12.096562291024327,-1.5049237531271666,9.740236964462547,5.106998762685549,0.6253076258510649,7.775720114540111,0.006649138893104484,-0.0017137618126175135,-0.026890105969790256,0.012886480326999293,0.01311594802600018,0.20933080293879416,2011-10-03 14:57:33.465641126,6.429192163
48.95473041638836,8.4696757018662,272.9138065319582,-0.15251260146228104,-0.008511424344247122,-1.700056102221361,-2.37110385191388,51.68821248276767,19.82163326414129,-0.09194160469659593,0.8152415124123924,-3.4885773335542645,-1.8190890596740852,9.962285166890117,-14.2922825176093,0.5457170154630353,10.10819769415029,0.006649807921193312,0.01969167974509747,-0.06565953015283067,-0.023898284687223884,0.002033155266569159,-0.029418432039463167,2011-10-03 14:57:33.565646001,6.529197038
48.948232651099445,8.492328842589332,267.3117353999277,-0.044577227667303376,0.07463535717652442,-4.234412496372091,-2.973748305483985,35.05977835072154,23.460685965838117,-0.11507953426031542,0.010127918026088895,0.8552478861630831,8.167367389060685,9.735848075728367,-0.1548689943434296,4.8444189807655516,9.342889169984046,0.011696714155136035,0.012680605804943328,2.0165790530856476,0.008356767331940608,0.0006869507455490795,-0.1260965884439288,2011-10-03 14:57:33.675833977,6.639385014
48.95052911649244,8.476579864815626,271.1010720617729,0.0859000251875416,0.06594562405000053,0.4655783261272852,-4.29824837793519,-0.17051271103421417,4.6856812215877905,-0.38559944445404054,-0.07527816138480135,-0.41968602910365105,0.057406394483078216,9.949013993395024,-0.8323127937178941,2.2003336792840855,9.463560286203666,0.02913595373975594,0.03334336600432077,-0.1916687686414078,0.025273435054252676,0.029740375631844097,0.9683619823833536,2011-10-03 14:57:33.775633369,6.739184406
48.95357923673598,8.485767881163245,271.5311985972185,-0.04616689225963254,0.03594800401375027,-1.2848485223091453,41.80826966100811,-5.687791630609717,3.1353789857188543,0.03199636366113548,0.004193248646588474,-15.221814359573408,2.4548853976054157,9.749813002272763,3.27304182528523,0.9014943971072612,10.226511128724757,0.03701470948668903,-0.02263410675374043,-0.12777682831167644,0.02116693655483026,0.006555515399533196,-0.16229975761041646,2011-10-03 14:57:33.875621342,6.839172379
48.947671178073286,8.485780785043888,272.82302464159136,0.09693512491818987,0.06406701186968508,-1.0614200796971143,-6.77450499263041,-2.5626514967213154,26.76478802600071,-0.0022500049913906865,0.42716523933514705,-6.114595699835515,1.9275056744769317,11.03637325954792,1.134956959265552,0.11418150898589356,9.431830141250797,-0.02790148863994056,0.01563865024588968,-0.37026418371499326,0.14121555367361677,0.004268426128353464,0.09933974625621111,2011-10-03 14:57:33.985590967,6.949142004
48.953328702638196,8.491992613065829,271.8695737086215,-0.03931024921791702,0.024435109406588638,-1.0415913126032197,-17.839325157646478,-15.85869005440634,8.921746385733414,-0.01951823957686174,3.4469566810180106,7.455777740180347,6.215219186705666,9.615620581696339,0.1731603534754679,1.6808912175514297,9.885950706508298,0.03356855049719299,0.038308263616961984,-0.020862682825682967,-0.02952352742508081,-0.01489339981668412,-0.11812896031468882,2011-10-03 14:57:34.085739267,7.049290304
48.94909993194976,8.52029156156638,267.65184876611744,0.4183042806992324,-0.023786956321263514,-0.029662248434978444,1.6347771761632508,12.950444837232858,-9.195653553304574,-0.2786533934731879,0.3844702616100035,-1.0818967133723616,-0.6954560449769189,10.001534937063148,-2.8183934793010597,5.118764352776592,10.02437990453171,0.07075501481076386,-0.021598283432985185,0.06987174300645714,-0.009300881585741095,0.13184213506417514,0.09112442307025075,2011-10-03 14:57:34.185666875,7.149217912
48.94405887092733,8.478082516635263,265.2801452036638,-0.07482423494690787,0.010406795178556793,-5.186494294776128,1.2081976375877481,11.664151654884437,15.225526369166204,0.03628843732536438,0.1713333825221073,-3.6360124772286317,-0.9874408091959048,9.958767121589911,0.6291516708873703,1.438998784077332,9.574429248152642,0.00957409697636857,-0.3015003888614307,-1.3508534433242363,0.020076639691060178,-0.1329032293749048,-0.8680284853110605,2011-10-03 14:57:34.295565650,7.259116687
48.95593300482563,8.494615603243933,318.8839039787764,-0.16777033466484387,0.005270451811398971,-0.6426276340471624,5.2806402115863085,31.562095069348167,10.045156998014079,0.18399894066270317,0.6063439359032884,2.6943031130507604,0.08875766043026875,9.848410740575915,-1.2394924604071693,-3.286305020951194,10.242616932142875,0.03902906908568096,0.012506341007783235,-0.0041781077794296635,-0.1785267421218328,-0.006988968912012644,0.029942502941494357,2011-10-03 14:57:34.395554772,7.359105809
48.95408340565063,8.468593379634285,270.36148591378094,-0.035624903403254485,-0.24576968494013107,-0.18988191191830195,-3.510115514613765,-4.416140561040592,-12.321202411613305,0.17330584469829557,0.2545625561259337,-2.933812013390788,-1.2753415367227565,9.155567207310424,3.1245570465120203,-1.1183140729761925,9.969486297721739,-0.0467569269094406,-0.00022459311820343568,-0.038496650459901124,0.012054804994965407,-0.029327979285375554,0.41303282270609365,2011-10-03 14:57:34.495517110,7.459068147
48.92555789809279,8.494280683748492,265.0331393216947,-0.1358886710009754,0.022201610281836155,-0.832636296779152,-10.046827742648903,-120.42249171535921,9.967884554286073,-0.07766114058782828,0.3059175856541042,4.616784412947501,-2.258499703416773,9.782687166575343,-2.425774489150564,1.547349112440154,9.38067388502301,0.014514231755171863,0.039456243421294675,-0.26918856883439846,-0.02267625280506293,-0.026162732092632642,0.21570388090223364,2011-10-03 14:57:34.605615669,7.569166706
48.940322509262245,8.479477832591112,270.9441198538856,0.02789113926889617,-0.013828792412270174,-0.4885564392202724,18.28230056774462,-3.4999048969128084,20.384725849003427,0.1218488440445548,0.25376929776062107,-4.95068710907352,0.02129721771173404,9.837645821329879,-1.5712922299339418,-0.8487550861498203,9.537625919960707,0.0005967760805260769,0.03157420869508849,-0.1098110531702898,0.011589055961973727,-0.007079536151751655,-0.11095140217849807,2011-10-03 14:57:34.705534279,7.669085316
48.944216130335185,8.48552564000688,275.7366876961686,-0.36327415829878495,-0.03997443895292972,-1.6628907029138893,-3.719062681732494,5.284980579501797,-4.35396694298876,0.1840966052070905,-0.13496183584559962,-0.3327355065094933,-0.6958813175868053,9.794023151962532,-3.7717130321610046,1.878682303161078,9.882843545354278,0.00920023805061273,-0.015223031879509913,-0.25873621033458183,-0.01842163971296333,-0.008808286939674077,-0.9842742352685756,2011-10-03 14:57:34.815488506,7.779039543
48.95656298738303,8.484536030611695,270.982080295413,-0.27062368288650485,0.07600064264518536,-1.2283722125908336,-2.126261562676629,5.85921069522468,-24.158345020273316,-0.1146353113348469,-0.38161356004893,8.214587989849377,-3.4103064743706746,8.819661314762445,-4.007339269834009,1.6056127403585732,9.563109023919829,-0.007437548722035156,0.004894455339158984,0.06723316221398111,0.010014032446766028,-0.10114332708461003,-0.011784048609041354,2011-10-03 14:57:34.915518229,7.879069266
48.94860048438034,8.490547648928427,273.0014742119362,-0.07691077243981871,0.13574570525510735,-1.90704828994417,-4.248157837903664,8.614053497283074,6.643153712739852,0.04245539423537623,-0.3641488332017195,-7.241688408133697,-3.0944741625052195,10.249515904809746,2.724872887683476,-3.1525819034605274,9.626048445300315,0.04051743142456596,-0.01195949335151124,-0.22116259953700382,-0.03689531885440116,-0.03437019083338462,-0.0584513579493859,2011-10-03 14:57:35.015470401,7.979021438
48.95349098512952,8.486449325407953,274.79041200404737,-0.00455779119817001,-0.04020757589432099,-0.5431367132946381,14.708693495591499,8.170535090518538,22.770684748322786,0.06736273071280728,-0.016523508732983583,-5.952346080379354,-0.6309187750532023,9.563519312824384,0.1721378124408151,-0.47671987267331795,9.944073768363667,-0.00028952468292712326,-0.0018144019150268542,0.21570936527035572,-0.020802786166994616,-0.008815971422666937,-0.2529743095119647,2011-10-03 14:57:35.125589469,8.089140506
48.950688057050584,8.494001235901868,264.41926282671966,0.6358562766889377,0.03176106915628733,-0.8342850804068098,-0.7045754846362158,-3.314453129450793,21.88166726824481,0.2354165558893284,-0.7780502691513312,4.765824932477645,-2.7222872968851215,9.752405888150196,1.7222945796229574,0.6805503142348799,12.319766030306319,-0.010771516561168657,0.006333357848425073,0.2901533379050869,-0.030316370523031454,-0.0006620073803969301,0.030412715376580655,2011-10-03 14:57:35.225449958,8.189000995
48.94956828566542,8.477678336191838,267.65254533993874,-0.08062645099022037,-0.04162411715094935,-0.6161038807801791,0.9856061615405469,0.5754873524378463,-1.0655261746615592,0.1658273894638128,0.1862378757536381,2.004332209217945,-0.05660947185537388,9.321142199691389,-1.1765898039347265,-0.5780795540708076,9.595341555609075,0.2042181284369852,-0.0556503913939032,0.29319850509704165,-0.03667623485632168,-0.02480741855721316,-0.05428240185633831,2011-10-03 14:57:35.325448409,8.288999446
48.95922478763149,8.487620576055997,273.4607466741873,-0.0798131010930508,-0.057743001665236875,-1.7297891968880603,0.2787821797737031,14.47789258006603,11.3961806552898,-0.1687422080013213,-0.6849903684646789,19.91450211417005,-0.1502917807031354,9.240252705861632,1.379764052858018,-0.36589377773435006,9.836623203957629,0.032117397818597314,-0.0015451305071508886,0.06371276116359949,0.024987275356831692,0.06880675237114023,-0.02694309749634724,2011-10-03 14:57:35.435465692,8.399016729
48.95346771361075,8.480219273831686,272.9273404815594,-0.0837306930567317,0.032100201061711936,-1.5513946411646504,-0.4757368219489626,19.496897393441593,-11.475830200445852,0.1204907075781291,2.091660092930386,0.13739927874671107,-1.443747830554492,10.457408201238424,0.2626081873501198,0.5502007352765241,9.897833596643695,0.04648827699034832,0.06747886415444422,0.4631308257762681,-0.023235723412131298,-0.031231996648203586,0.10875591606957406,2011-10-03 14:57:35.535414786,8.498965823
48.955057231289956,8.480546160981485,266.345069159489,-0.015752400124752677,0.007647612006195693,-0.6737405289619606,-12.341036197943586,-11.691923480421297,38.03925676690831,-0.07793804406113712,-0.21825262748217267,-1.3832629921144668,-1.7599562683299996,10.18157024966213,-4.155474738333315,-0.36129716330001566,9.571307085799628,-0.013602749074456785,0.2623304273313386,-0.32961713975097284,0.029374852187465685,-0.00693659800391048,-0.25435745773288504,2011-10-03 14:57:35.645607535,8.609158572
48.95074021594395,8.542989666391373,275.2232000379031,-0.035281919773488955,-0.0553071287455773,-1.425886332291519,5.068114157130595,-9.481303005163229,10.68452257550602,0.05387364780702809,-0.035678766590361705,0.4272128380950917,8.195236039373054,9.982476284698407,-1.9039690029368204,-0.1326382651630654,10.23360832392042,0.014877809187283519,0.004425526224233084,0.18870951263360475,0.03520207155449709,-0.046729417970659895,-0.08910135804645386,2011-10-03 14:57:35.745384371,8.708935408
48.957468460830235,8.497022737447546,268.29461524696393,0.021087439582613457,0.07995873467970603,-0.9404901445848083,-3.3373453435017186,28.039747021372637,-10.947463850223969,0.01470106762215304,0.3634751443272458,2.8437303117058588,7.674940141635115,9.784643398473795,10.8971260730191,-2.4656536842056616,9.666183125854484,-0.006914759700663789,0.03906178058711878,-0.19934068977358077,0.01264022518579669,0.01766831954567604,0.09236222913553628,2011-10-03 14:57:35.845392726,8.808943763
48.9811093752746,8.481628131716873,275.60841738961176,-0.02550845763107465,-0.03136207925943028,-0.8847769426524881,1.067986757107139,-2.9436539283345513,-3.444466305147783,0.050369518121844745,-0.07007077033019825,1.4523808301804386,-0.4203001887361918,9.840872636722967,1.7214767413756185,3.105140580030693,9.504756237435751,-0.018058689594735743,0.01927399711462292,-0.045275603172360325,0.004971272120401851,0.036651713187925636,0.148211491173903,2011-10-03 14:57:35.955409797,8.918960834
48.95362279974498,8.47200001689077,303.67582687351546,-0.03603180097036214,-0.012491750314042885,-0.34779479063582885,7.672032354985538,-37.30519575392303,-7.926290557653383,-0.9420010050993346,0.23365279869592298,3.5444375374552974,1.2345264929058333,10.018339989673859,-3.9829104832309987,2.272601508962937,10.245751908910222,-0.013044301902406429,-0.020213806860070228,1.0184049658041274,0.010968535845093363,-0.0335492032362338,-0.028960659709167735,2011-10-03 14:57:36.055338126,9.018889163
48.939911277895405,8.488498619609498,267.4349649915259,-0.14676228569850513,-0.01790430505871222,-1.9085073869592408,-8.758641205156422,-2.026043172580541,-44.22551821332881,0.020637043892662087,-0.03498724423467614,3.4343987837931285,-1.5602973799703643,10.224912462527113,2.7840426766866937,-11.778801868501095,9.940828875814583,0.03828207326872732,-0.01081652603052027,-0.15766808223746057,0.01339856811678815,-0.0014728169535505467,0.12451686554473845,2011-10-03 14:57:36.155377733,9.118928770
48.9376529464619,8.489963258225886,264.1730537761321,0.031657655915307274,0.15877972466821288,-1.284486976337349,-6.408082303858346,-2.117067602232854,12.345050538086939,0.06789369389728979,0.2851396576719872,-1.1725726724801382,-2.9548245817266565,9.506905116302601,-0.8533810362408365,6.705490939696266,9.351947563748354,0.012833160658622628,0.01560551095692186,0.5794338377239753,0.001045390886949982,-0.029397626298652016,0.07395309804248969,2011-10-03 14:57:36.265330791,9.228881828
48.95780171078933,8.483078705783948,285.5933352037856,0.342423446816685,0.0031199634150534004,-0.5163651964386153,-5.917271581743,-35.528019234999825,11.228197314472974,-0.017811669122807048,0.5450385632307989,-5.055354736927691,-1.253328252490977,10.159813946250525,3.115962969355426,-0.8465375868610884,9.68026069773346,-0.1028790274938799,-0.015901063594221745,0.16804428039737718,-0.0005656151214410113,0.013470713282480902,-0.8524916120289959,2011-10-03 14:57:36.365332137,9.328883174
48.93842204954678,8.507486769447477,265.44425943298467,-0.09544810406338183,0.008814293585736132,-0.8693839954672751,-2.0954564446293924,4.728813988626177,28.229500591292453,-0.03070220545860568,0.2644556173713808,-2.3871637713928164,-15.610230724755635,9.786190189292546,6.11827981702331,-0.3231561674258254,12.046192743775586,0.02256369239800497,-0.03292602420348506,-0.24755139273020543,-0.011145104754295573,0.02308154514988658,0.12607332410651934,2011-10-03 14:57:36.465298574,9.428849611
48.95794654985984,8.487765891005726,259.33216122704135,0.10273622233337444,0.07038324997623889,-1.14899800040987,-3.8731481720415624,-0.9907338257410983,24.745664048574866,0.16091426194783803,0.4094727470096613,-22.31840398546225,0.6523436119227293,10.10152970715665,3.5704834449736778,-0.7853231675304958,9.66963726329505,0.02303879978698794,0.013736006628360652,-0.21332953537150642,-0.08681810409134973,-0.011504465486448998,0.823895459107616,2011-10-03 14:57:36.575297342,9.538848379
48.94877015300833,8.489381986908638,220.44451710936497,-0.009168825203754435,-0.02752249432452875,-1.208784037099886,21.086505806244304,-11.414587105720592,1.791925661379202,0.004210029413282378,0.6847667087819195,15.282890405058662,-0.7527563730621991,9.350066727003243,2.638252684153837,3.248653316764872,10.338815364714986,-0.014460365359625435,-0.005809880199474074,0.14418150115887007,-0.027257697201296702,0.010699978953843316,0.02169196121209998,2011-10-03 14:57:36.675477957,9.639028994
48.94723850813794,8.48643479236623,267.79937155609645,0.6594409485841817,0.07885446345602157,0.020808170108836288,5.613670110775884,-24.725683200378665,11.993992394800056,-0.19924326830310918,-0.22702545983446853,1.008395628551727,1.4472552345402248,9.193880182789885,-2.4487244839199724,2.1212072845740555,11.333009287659463,-0.008157038243579532,0.019750123829197535,-0.1723268992982784,0.028995762447599552,-0.027119648762469792,-0.1113941047282672,2011-10-03 14:57:36.785296570,9.748847607
48.94515493967588,8.507798906603773,261.296287364009,-0.08444743255879306,0.02141286689843143,-1.1936211899321838,-19.21158184302003,0.5258508157540271,-0.7423912681345959,-0.18056627106330086,-0.15281991007000656,-5.49089456143933,-1.250323592985386,10.202326641039129,1.031441258952188,2.2860381102671767,13.532913991830627,-0.013598696174998764,-0.0020866877714919756,-0.03215317227758514,-0.01835983953017829,-0.15182739754318092,-0.03981814716467458,2011-10-03 14:57:36.885379787,9.848930824
48.956203928546266,8.485389942888094,278.5787149923442,-0.10845676913622765,-0.057667281485918945,-1.4777368892969789,-0.058073865629696186,11.06914928224694,9.486113447884623,-0.032316943238456956,-0.2724021332565566,-17.65412603774304,-2.2548263051210395,9.94441971481562,0.3144352139258148,-19.388092980448288,9.406260131508034,-0.3192222849244033,0.011185247825930429,0.30788082587064713,-0.009320388329221772,-0.02650164965867635,0.13627505311177948,2011-10-03 14:57:36.985282880,9.948833917
48.94958604570897,8.499571836050896,268.89897609802705,-0.046029609721516804,-0.25526824419378824,-1.0467041924085736,-24.05352790955564,-19.842232528182322,9.488654974166394,-0.150698563141676,-0.0022122918277912434,-18.559869901234922,-2.1310946193409266,9.722336146403057,1.6227795618225576,2.259784092376574,9.332543512638194,-0.035606346574940884,-0.06425625560970462,0.013199520816037926,0.0002229551153659793,0.02240697917799594,-0.30518915184609086,2011-10-03 14:57:37.095385255,10.058936292
48.947628383628775,8.482571307468097,278.52091433011475,0.016682878888843164,0.023645299580698793,-0.37565788530380784,-26.69113136171431,-29.933450991475627,8.33235214043053,-0.08041374677366452,0.7397971498605505,0.4683400686260123,0.2738545021436515,9.550406177806382,-0.9540108541532818,-0.06816571582912961,9.650287054924684,-0.00931692460780703,0.03413096127982467,0.017209336391662333,0.027340651432319552,-0.032736078891182435,0.1771965677431862,2011-10-03 14:57:37.195301763,10.158852800
48.95163714341018,8.48309653706744,278.83789244480505,-0.04026461195598339,-0.014299876495144317,-0.9157451691160146,4.632500942102448,-7.225460732832831,-14.765348367322648,-0.08656327006990655,0.6201113193970402,-3.6121599256966355,4.3022880362576155,9.672381967666135,-4.019100582406275,-0.9740522177472245,9.595259664800095,0.0008496571590526043,0.017790399871673274,-0.2780048908743858,0.16844916877929328,-0.042250018393821746,-0.5286453390093228,2011-10-03 14:57:37.295236048,10.258787085
48.94616923837266,8.457899411688725,269.27799066416594,-0.057870571141386294,-0.07289916175225189,-0.7780300069713956,-15.217946066718394,13.229095575893083,2.183739291343584,-0.04424096647683047,0.18537208821232493,0.1931688427608156,0.7242615032238189,10.289135452953106,0.9066902045947254,-1.0344836619099607,9.794993953867083,0.022302185759799135,0.00037737250169299135,0.077273736296557,0.062120683865870906,0.005171274469688316,-1.0691794394966079,2011-10-03 14:57:37.405183290,10.368734327
48.950308129370384,8.495203530926776,274.1435325017224,-0.03906166895807496,0.1008183691618019,-0.901591679457347,7.45606623729209,18.65058720725583,13.908447460896038,-0.03061692712835679,0.8815741890263328,3.733878456123588,-2.418988360931942,9.693848732742811,-0.6746552697946688,-2.167378745421729,12.73255455647813,0.007157633241780728,0.012614131192759127,-0.04772068886326824,-0.017571533942572222,-0.13536558810780075,0.8562676182749012,2011-10-03 14:57:37.505188965,10.468740002
48.94908195869031,8.48586010242049,273.71741910747716,0.14116005264965747,-0.023751357809007126,-0.7206731151444848,-11.249459340498696,10.946595824545124,2.2128174316042073,0.12906274584151373,0.6752854537894784,-2.281803320993183,-1.5643880632686291,6.997426944311048,2.199544300270238,1.3325582391002293,9.640048776659313,-0.00019910657551888353,-0.029219486242470925,0.1677507879866219,0.005383221302154265,-0.006924740461900427,0.04783595665212741,2011-10-03 14:57:37.615295989,10.578847026
48.94422559441959,8.487026593637339,245.41595185520063,0.0009768788085835062,0.019028034317400504,-0.6274976001423475,-8.78223295845006,6.039567318342591,58.88822053948102,-0.0657259546544503,0.7268887811059703,0.047194604673725216,0.005643327711713442,9.514915698748098,3.353964824419866,-0.39191675448629293,9.736680367035044,-0.040402260146432764,-0.0936960732917983,0.011279783511294907,0.1628753781650224,-0.010692814616276775,0.14558504861217078,2011-10-03 14:57:37.715195944,10.678746981
48.937146480883264,8.490995830820252,267.34514102352045,-0.07616356670347674,0.04999058840958629,-1.9673563423246998,0.841810435850014,8.708696593837267,5.69208882569542,-0.07400098454252313,0.15593462115893844,-2.158076173970152,-1.9001346838554376,9.462129307166611,-2.3801450838007763,0.4650091876588122,10.002168548073591,-0.0330004393123854,-0.05079465538307806,0.003883798934995282,-0.02291354890271805,-0.021869457751872184,0.1791261121074089,2011-10-03 14:57:37.815159104,10.778710141
48.95195131835547,8.486442395477841,259.713022391641,-0.010112360348425987,-0.029910848466623063,-1.0528933843993808,6.357025483670425,17.93393348286718,-1.8048994925111543,-0.6447361304759028,0.21386475018330084,1.7247900845159612,0.3823031259437407,9.971144214446191,-19.562502968640857,1.7133423047122507,9.9794095472539,-0.044059190811027465,0.007064181595747138,-0.317677044092356,-0.012520912335704019,-0.00042098016939583877,0.10815539923614985,2011-10-03 14:57:37.925145295,10.888696332
48.95421287402255,8.482581124897951,266.2312424064999,-0.1413771630929396,0.12892254994452812,-0.7769195694759291,-7.509493692712017,15.803413252846397,-5.255127792658615,0.15389832389070232,-0.33427874481233644,0.5350863615422419,-2.9406762015109464,9.587569923859458,7.532194776485096,-0.01565379462392607,9.757085169945467,0.014691627006107903,0.21063158239693278,0.041008601929418576,0.028043375489756744,-0.02727367791006816,0.10676567565326303,2011-10-03 14:57:38.025132475,10.988683512
48.95287800530852,8.485420121421626,282.5561037027897,0.0025847109017402455,-0.07677314654160682,-0.4124127264996962,-3.0533622419378963,-3.589327492795782,3.4536738824241002,0.11030856320166431,0.2749588986537531,-0.08495491831425417,-2.562552689025177,9.536932224491423,-1.9416037781834632,8.850851856723018,9.42999048665247,0.05389056271790498,-0.0036932070350505367,-0.17184421724512478,0.01835062433637923,0.001086206931565463,-0.12409779441240028,2011-10-03 14:57:38.125327391,11.088878428
48.94364184780474,8.481445549802965,229.00429976145733,-0.0007443069663620634,-0.0017055158146134521,-0.1020154106070087,-13.801441516455089,14.429451491085546,14.936522222187438,-0.012125147276492004,0.39981347797612293,-4.682485445507688,-2.9686951236685952,6.472423891518384,-0.9355528109967509,-2.948418427609661,9.7642863753277,0.005936566636006972,0.035397056622259504,0.02266139647585546,-0.0224214826721613,-0.001795328473254738,0.08807392140374552,2011-10-03 14:57:38.235129161,11.198680198
48.95674333056084,8.489238145135229,276.929136292175,-0.03674476549366843,0.048724068635075585,-0.18850067748789845,-19.62982086536844,0.49745049824195764,13.0186354659832,-0.16735224276776375,0.13344933579220306,1.8279558234714186,3.6490216687024724,5.476057185339657,-1.980309410192771,0.12366350420496286,10.06017263786456,-0.009853780549084288,0.023998315142583326,-0.1850134491259015,0.16882690706974643,0.1272242561230096,-0.1599997028337492,2011-10-03 14:57:38.335088433,11.298639470
48.95074509661613,8.479022689089955,261.6452022186377,-0.06001781745106129,-0.07504535278498022,-1.313512058681185,-10.163120765535398,72.65652573964705,-2.2888211194372348,-0.2198533108886028,0.2807478043882613,-3.9301004046875567,-0.43807536256191454,10.154651856001843,-2.2283956493520303,1.6935945921980078,9.453597612206561,-0.03581043369483864,-0.08801301737929672,0.017043145038243473,0.006850644167452505,-0.0014393596527401615,-0.011439955929060025,2011-10-03 14:57:38.435084743,11.398635780
48.95057795615611,8.498183595481189,262.9518438031789,-0.028041326321733246,-0.05742985764474081,-2.31386451689983,-13.291703946509806,2.167054048642199,11.900534907643255,-0.016030855352053532,-0.7117754422292414,-0.34699076522519073,-9.587990743910266,9.607142308807823,-4.110463182545832,-3.9825780415489715,13.315116486563877,0.01674790671808049,0.05656282804072584,-0.265237815995037,0.03263852619844415,0.016592043105080764,-0.13361244605167708,2011-10-03 14:57:38.545073069,11.508624106
48.95393546403055,8.492397574565375,273.00980963671464,0.029134742141539362,-0.03000894891713942,0.48333171301298794,-13.381109441853296,9.843743534801883,-2.7272514115397426,0.1083208814821892,-0.23788566079968212,3.022589022476218,0.4491910613613153,8.93526497147123,1.6315534871442117,3.025513729968294,9.345032693408914,0.18906805691594364,-0.018258635377128612,0.04448023784059532,-0.004930268304452621,0.03204062946643311,0.020549034334324603,2011-10-03 14:57:38.645339929,11.608890966
48.944478097268025,8.483775438305514,278.0946722566242,-0.6537647261094163,0.06831858936711518,-0.9066612800257803,-23.786604568686265,5.459674115591374,10.598775852966064,1.0484214300292076,-2.237108144283874,8.68007573439464,19.639187179643194,9.88956585573831,-3.9877235406003257,1.7668684552761504,10.24984932429412,0.0482275260883164,-0.01666943867595788,0.09448747094664468,0.022271285786709175,-0.04334805055185694,0.29649145140865407,2011-10-03 14:57:38.755068348,11.718619385
48.943435766475766,8.487363728505823,275.01785528959925,0.06260288728427367,-0.03651369867066806,-1.4367776628400302,17.128723356333012,-1.7997996120272095,7.55885708396004,-0.1123886739451854,0.462261039847552,-0.9110575530323888,2.033534683404085,10.039928874299981,-2.2900117647365144,0.8644820528449838,9.785210916585292,-0.005406989546855013,0.015213236468965196,-0.05873241728940455,-0.017710560928561724,0.0009322614299944599,-0.11672242576919864,2011-10-03 14:57:38.855077162,11.818628199
48.958293961584495,8.46590568956992,278.13268560388747,-0.09764612912416783,-0.02825734434067654,-0.7729070171155452,36.663676789829736,5.997219172967635,12.420508268254842,0.15131676312694925,0.11661925646654302,2.063409565934017,-0.7963058984227258,9.866554684886419,0.1521829136635559,-1.5128019719798178,10.057990403366718,0.03590271148159016,-0.006519108855995722,-0.4317380719995719,-0.012523347027955972,-0.03061117037624306,0.09959750263734844,2011-10-03 14:57:38.955053938,11.918604975
48.94531898419973,8.492634328776777,275.63959375387714,-0.002983582328188454,-0.02146033382302529,-1.220498531872991,-7.57207465579417,11.695307402991563,2.220411894728993,-0.033295189324045404,0.9703678259695515,-9.651335209016358,1.3127286667184617,10.240694620233795,2.1197538109362384,0.8368484616792408,10.20148071293118,-0.10169760076663906,-0.0008676937672466743,-0.033009507793447766,-0.013423025387736055,0.02110606466603429,0.36971857782703643,2011-10-03 14:57:39.065009010,12.028560047
48.95844653638358,8.491390064838477,268.67431432239863,-0.048345123505048784,-0.02987705874628605,-1.3737863948045352,136.23669254105124,-0.4549201210302076,11.499680769922984,-0.18273492350952436,0.9619207596724206,-0.4133134558591957,6.237578546396197,9.494935337264664,-22.506139264557056,0.9788920202085645,9.898636295693965,0.014708420908119229,-0.00243624205852365,0.12299281145922177,0.04421960973931519,0.0044649581792186996,-0.19510655202819108,2011-10-03 14:57:39.165037967,12.128589004
48.98050260330639,8.503799034027619,279.00746462411615,-0.3833685383423103,0.023578744655242286,-1.0589248433960783,49.275485056273666,1.9190474919875737,-13.04065394862656,0.32941808740344836,-0.41839490505514176,-0.7741130648882708,0.9154779054788871,10.05442428039045,1.5401417231651617,-1.6026818804020386,9.295526132722003,-0.14908535526680422,-0.003857368596906993,-0.1625811187547371,0.035212497083079095,0.019598951114355112,0.23541033188016044,2011-10-03 14:57:39.265014596,12.228565633
48.95441553167084,8.524150516444625,270.54598730061105,-0.08607694317723746,0.24616637894340337,0.022835453448488363,-7.208731626459867,-0.42510552746797714,-6.870961341622914,0.0840328885641389,0.3780261972944621,-0.38820102258339695,3.237785341004937,10.189669775863099,0.5554702912468455,0.08150609850829918,9.857922638763082,0.026011809387206042,0.01043937521943672,-0.12335734157382605,-0.02350942930875003,0.009442864996154897,0.06754488639546673,2011-10-03 14:57:39.375003540,12.338554577
48.95315274059545,8.479141752859693,268.01786447653967,3.2728982777219945e-05,0.02064138644140205,-0.8980720846052661,33.639190705704976,13.274953906845676,13.648980875820879,0.11095857167984433,-0.40844755746201605,-10.383551925837992,-0.6580753734409356,9.886601659408113,-0.10602824974132036,-0.10841692189078551,9.20707487983422,-0.050068664226645396,-0.020391665610106264,0.029414445315096103,0.013458576113276926,0.01740409296852916,-0.00641043334478141,2011-10-03 14:57:39.474996043,12.438547080
