lat,lon,alt,roll,pitch,yaw,vn,ve,vf,vl,vu,ax,ay,az,af,al,au,wx,wy,wz,wf,wl,wu,timestamp,rel_time
49.00973120361344,8.395912571253666,116.42820392789342,0.04341835115600498,0.027602898192777826,2.5559577306579913,0.42631607732659266,2.098673423364394,16.62485470835051,0.10055300358891837,-0.012465922844886342,-1.1129357479243795,1.1994537550157836,9.641401923428912,-3.103422436115157,0.03408132039865219,9.61816813708071,-0.00011870117781483027,0.04580020617339366,0.08810915593080476,-0.0345586909867826,0.06359146481259834,-0.12326425983265248,2011-09-29 13:54:59.995847336,0.000000000
49.007090857300305,8.397748056696843,111.71100103600786,0.021160520962912214,-0.025438735235502687,2.731530317629668,-1.2164923769455431,2.9406719033733753,-7.407138669159894,-0.2648973197977421,0.08005177856987863,-0.15354388539626193,0.5472133852659999,13.004450998306716,0.4075753981595424,-0.2863348439534684,13.050642846706957,0.12936000850763357,-0.029069487719395264,0.06733223504972054,0.027152413758285088,-0.016374669872326986,0.1256609064445349,2011-09-29 13:55:00.105811344,0.109964008
49.009158661097366,8.397786025962587,114.79273080485643,-0.005097775938646805,-0.0061600677755380764,2.505585835685935,-3.6539389568384957,3.121921956328801,-2.9991619592984105,-0.9812841526044352,0.09144103423743248,-0.8185501860871905,-0.4163431678558073,9.823131154071147,7.1950807404215045,0.12137258548666438,10.6790476604276,-0.05928955241883187,0.043601355262683404,-0.059743834724837575,0.05108889915955201,0.011748553649239905,-0.5890680309965216,2011-09-29 13:55:00.205830857,0.209983521
49.00818432712113,8.384635329349958,111.74812861778959,0.04133993697219199,-0.061827362458180934,2.654256774892421,18.810078137472065,-4.482162951624772,0.8395523855751195,-0.3996518618773156,-0.0004918375758297864,-5.758633684931215,4.05396183200228,9.966698705051025,-4.410748173250576,0.42471976064924155,9.78367363818007,-0.04854371208609076,0.02877641471023521,0.021573479698009945,0.133257867845873,-0.020401243227334522,0.23120012711587076,2011-09-29 13:55:00.306034581,0.310187245
49.00809029278732,8.399452710623658,104.44073476121457,0.009758486769835852,0.057947400223898285,2.7440002549361533,2.543054361556021,-6.485758887847604,-5.2623739002675265,0.8523660437353859,-0.001138527502557633,10.208865585140895,0.324147875751528,9.398024587419691,-2.615761163236219,0.38283769454757954,10.033299456800478,0.06864320638158844,-0.024138915621010875,0.518866577993398,-0.05544575576586843,-0.024371744768971998,0.3654562673833836,2011-09-29 13:55:00.415813621,0.419966285
49.008071568522716,8.403704885172177,119.3904512103087,0.0020709963913565395,0.02239478807703163,1.0242312966294072,4.795818934099411,-3.324825368260739,-0.9167506370872867,0.6768183430957061,0.21266515146974702,2.972965997308184,0.06083808505049604,9.000576365295366,-3.4174094220337947,0.1797263213744287,9.614869284626934,-0.20371024717808098,-0.019682689580701452,0.04596145076383868,-0.014067459972716615,0.11521273100034003,0.0005620949267020441,2011-09-29 13:55:00.515769138,0.519921802
49.00888917112722,8.400420846432953,128.1402259395969,-0.008300642810738862,0.0441207727526379,2.4927646290763503,2.867199058455335,0.39309108972066575,7.603722572039137,-1.1590751099109042,-0.5538783187199111,1.154830630803073,-1.3627255113409085,10.246466279094241,1.973752807556178,0.20668693334428168,9.452222019419157,0.19994539794669816,0.006467863376724836,0.15589907145558893,0.08263134009737029,-0.007262636933255715,0.0715685052213985,2011-09-29 13:55:00.615725458,0.619878122
49.00976965792028,8.40196133604502,111.27203897381729,-0.044781430945618206,0.048499444042225545,1.8525795150116815,-0.12790933172461538,4.219035336042543,-2.4981624236602507,0.3626643933403004,0.0180149920552622,20.1846096874937,0.7854114070192423,9.024139483148762,1.4155019059612148,-0.7326875053519963,10.067191192565609,0.030807801674406693,-0.015220210479025904,0.0044438476383523,-0.3698565579108091,0.056884889826154236,-0.5727088287428598,2011-09-29 13:55:00.725727428,0.729880092
49.011775494058796,8.404341844685812,94.1606936848834,0.2976422433563612,0.05228784493876615,2.457254534691283,0.5918139996837173,-5.921350942348785,-3.714122115496172,0.08819524471868649,-0.012338772088677005,-5.808235186297138,1.4700421176217833,10.235816780778082,-0.7207575074464703,0.15708115375364165,12.350307189619665,0.045452647270541255,0.036377505508731485,0.06758296155107385,0.05215450192142215,0.05236246925048913,0.05574086675952643,2011-09-29 13:55:00.825902798,0.830055462
49.00942832419816,8.40203612782063,119.67646075218889,0.026902676488912577,0.015860641763044005,2.764040171931423,-0.669516684311025,-0.12756981894946912,0.6979897342142788,-0.09091320479187615,-0.08430345657859378,-10.42307397297089,-0.7150203646285263,9.644535324801392,1.94842409338788,-0.15056257550801624,9.024057031449082,0.0013601813863398562,-0.032731986490485074,-0.03433448456381302,0.11129952941958834,-0.09231210096442957,0.0835883372371212,2011-09-29 13:55:00.935691380,0.939844044
49.00975665730354,8.418942141339526,113.91327425225053,-0.013388970535581461,0.06800159095349032,2.6882361591737207,1.2326243212286832,1.1686042759628208,-1.9729544322229153,0.16062285380893299,-0.0037067396407550815,0.4678798153385,1.174310707639384,10.532223605564281,-1.8586915575534002,-1.4774711653803931,10.069776317558883,0.18934735632290223,0.02613347185654722,-0.06687797086742187,0.028269162826760803,0.01428784232763207,0.040554872961370385,2011-09-29 13:55:01.035679783,1.039832447
49.008763406522995,8.39731268056157,118.29906156032291,-0.0026749734942881145,0.033052742443392,2.6478567330945575,-8.00291951022375,2.205831392671964,-0.6923519319887017,0.3058846389011648,0.09569966197939436,-1.9769298896311218,0.9948896917173107,8.884194356612369,-3.310377799679674,0.09068190288157851,10.795830172058318,-0.2273372907326921,0.07318289044294357,0.12992310977382698,0.012674611459498383,0.035359323663475176,-0.048877590320428946,2011-09-29 13:55:01.135684518,1.139837182
49.00768179721534,8.394057101130384,114.9009974790884,-0.06218473912388041,0.03125735746935841,2.7790917167793627,-0.7376533886951888,-29.353018282769053,0.666131818525278,0.2848661075289341,0.2387718972935022,0.7370483671093873,-0.46010107257510663,9.672673818698202,0.21793408849007645,-2.198748712701328,10.931325010872275,-0.06677266414494659,0.04761611702554311,0.07650746184303367,-0.03447166562328851,0.30567737063429484,-0.08151114320864523,2011-09-29 13:55:01.245653433,1.249806097
49.004450477342985,8.399548406571705,113.2849021832285,0.03561478299997917,0.031195552617413507,2.6110829655779644,2.3788527372205808,2.066604186227499,3.243147103632353,0.25700534196416647,-0.006063426609093526,-2.6683057430054253,-0.1696956009640594,9.532310962542931,-1.3264816692558665,-0.3730799669897024,9.196703672375012,-0.058124416022860746,-0.003811655143543067,0.017002028744166876,0.014240316024701518,-0.07169684131667833,-0.1097812319063467,2011-09-29 13:55:01.345864966,1.350017630
49.0079541351536,8.39880796048644,109.45778989771625,0.03471375894894511,0.09699412348230205,2.580627488883584,-1.9293269145059333,1.5541995118552328,16.995362836929733,0.6399512308980695,0.07997334204166326,-0.2559316148229284,0.9508937642649633,9.620835025649008,-1.1357389641586588,-0.0006164797435652958,6.557557763875325,0.06005940830463308,0.020543218086128825,-0.07401498262055053,0.07503948065617663,0.04566694442196164,0.07057594140139196,2011-09-29 13:55:01.455611505,1.459764169
49.00848138244149,8.399646106494913,113.33770451339217,0.0360331815124366,0.03286776435101712,2.777418642883569,-0.14129243430354393,-5.518056319748164,2.9708743543366256,0.3179504059961341,-0.06701468574457733,-0.7724762931799973,0.9580382317288052,9.241050108455081,2.2724433157197397,-0.18530883710728968,9.084505543686591,0.007131593536576356,0.008543458250611233,-0.05405758048362697,-0.01061439761378141,0.005891984012747476,0.12958680241796738,2011-09-29 13:55:01.555624065,1.559776729
49.0069879871272,8.39642580688997,118.43311285981714,0.0161714436534797,0.02348297017205471,2.612592138888212,-0.19677510352307068,-18.553575902956748,-5.186162761049847,0.24662111187486982,0.07528600284311929,0.2332833785000916,-2.580518195841674,8.51127005858029,-0.837489398123292,0.47382913644410724,9.825645354342976,0.05976246252202058,-0.021667019793542113,0.0485240932261712,0.07536331557808815,0.04241647207087543,0.020271312991414193,2011-09-29 13:55:01.655611506,1.659764170
49.009046908293755,8.39861384649826,45.08202632236657,-0.004268547620709051,0.049225943698874605,2.2511267125146333,-2.6411749517029754,3.5914943306654097,0.9628509117442695,-0.13745206553586842,0.018785790800843503,-1.0707409519025195,0.6958493277312366,9.971010881700822,6.929239163051831,0.5501218407930466,10.471970801566176,0.022708275529199427,-0.002876577389272154,-0.07797413575008416,0.00986498503099523,0.0950714908052577,-0.24927613813324673,2011-09-29 13:55:01.765596822,1.769749486
49.0089834099704,8.398715842833214,116.29860665254631,0.07813998171744349,0.03873945585050047,2.7000145212239492,-1.4096626080248131,-5.432811188948833,-1.8557581012336426,-0.7029345392107067,-0.1141240535619588,-0.006919977769459296,0.6491471663770129,9.870482314077135,0.9069507961133321,-0.1780945848454374,9.176170150250986,0.0048466368288276876,-0.03393595338269346,-0.06173763877472122,0.023918386877543663,-0.042022276145440095,0.08196872051754575,2011-09-29 13:55:01.865671942,1.869824606
49.00821419431975,8.402800120219782,113.65162142573318,0.03330488319436003,0.00695748174060086,2.8444629710587783,-20.52466661817108,1.606097098173604,0.5231992259378483,0.17929004361214207,-0.06444911238955936,3.9984994327825065,0.30335259209497895,10.239110716070556,1.4145973670501042,-0.7409855013284437,10.009594069796645,-0.036036434440090845,-0.03999507047593815,0.06417329171255384,-0.08333707861237762,-0.021589903855546343,0.009848315732311548,2011-09-29 13:55:01.965532639,1.969685303
49.00920731912094,8.401244253436934,116.39448597777127,0.03179995169317428,0.03379179587948334,1.749415438750399,2.5003656360187065,-3.1196315978148554,17.786734057686278,-1.514064722182605,0.008155402149133881,-7.753512193985562,0.9470265335803945,9.250036260071358,1.3920328305759415,-0.004006811033418527,10.20181384334576,-0.01615748594152356,0.00559700269304479,0.12177002438231524,-0.005689916170524779,0.04144016564815878,0.032576733357385285,2011-09-29 13:55:02.075563847,2.079716511
49.00704260897812,8.393942748901203,114.03657644513007,0.04956213475033587,0.016213476410621378,2.6325650953149,-1.3204888182998804,12.73066024538382,-3.617613384645887,0.19436372795129492,-1.18883643341829,1.6967893433049759,-2.079421874245205,9.439317790410897,-1.1066409557682622,0.1334534839457437,10.116624828731547,-0.1285785009321455,0.01569488616688749,0.18420572773664734,0.01534626108582651,0.07193863752835944,0.06126856823296272,2011-09-29 13:55:02.175522659,2.179675323
49.01005608900348,8.396661700287913,104.95520066534736,0.04695106255045188,-0.09548590029634081,2.604570017683514,-3.5824594086642003,-4.424602379037425,3.591430950106452,-0.05950847335191274,0.06672454177609358,2.5185617644633975,0.36476225367089665,9.059676963917143,-6.063795830597286,0.28637774390854587,9.253505897466106,0.00730889519286641,0.04415832528352603,0.03760523904236311,-0.18702498424060943,-0.3826158658892772,0.049443306683854,2011-09-29 13:55:02.285523626,2.289676290
49.00799154271062,8.397485798171484,113.60027203924614,-0.025315971548790683,0.024944463117389633,2.7469662322740707,-2.258495111941874,-16.586010108479552,-1.3905568178538414,-0.4188018722967762,0.06895683576559217,1.074468690725922,-1.0976683319227145,9.49450893940044,0.002348624847020697,0.09751525592417906,7.50562158379493,0.045193842277740814,-0.027530109268740575,0.09684756191700969,-0.044629519366106055,-0.20311555929165062,-0.24407219089244123,2011-09-29 13:55:02.385536958,2.389689622
49.009866338074154,8.399548590981658,106.60593121350294,-0.00463609006505028,-0.021955711103108934,2.6484583166900117,-2.40243206083494,-9.769949279151607,6.080234010679005,0.17264314572979125,-0.19278158149182567,-0.4353710791688126,8.07274378373789,9.788151318355133,-3.230890828435907,0.0664641812251549,9.862583069893024,-0.0193911231146253,0.0017618753846768438,0.08891169957204967,-0.08609698891935068,-0.02469628859851994,0.1830872833278992,2011-09-29 13:55:02.485503452,2.489656116
49.01161315989465,8.391631623689918,116.26736967513946,-0.016313765359360355,0.049201985205897726,2.8713148918521774,7.473441340245405,0.16892828172784935,2.6346909833108354,0.1639659879189836,-0.1596196887097775,1.9767037330935089,0.3765866098760383,10.154537025037069,-0.8827880186610825,0.2321069953410762,9.911391130986246,0.029227096596865672,0.022093792681542872,0.09971622735998906,-0.06967445111952782,-0.04522707529558164,-0.059585623877491965,2011-09-29 13:55:02.595512122,2.599664786
49.00783205476899,8.39713743867707,111.77254819156396,0.033371216578845134,0.05550840833505537,2.2689646777806343,3.7255434627420794,10.414882264363992,-5.897270864385785,0.5229151959374404,-0.06439456410926929,2.039512812241571,0.0872203734156127,11.39467198701724,-3.1998117698754385,0.059408446428344044,9.91100823814558,-0.030844855377395706,-0.02680760591513738,0.046808961138046105,-0.18384449344274018,0.06966517562019571,0.05898431073024104,2011-09-29 13:55:02.695466242,2.699618906
49.00890069696125,8.394620823811882,109.47278736097576,-0.01694343176318004,0.06524634837148655,1.608053756833525,0.7011412496937568,4.578519413110789,5.13534513795737,0.0773529515376501,-0.04191164797668629,3.7392829577618345,0.487152558781464,10.045163014019403,0.8016464576743583,0.0517387412571616,10.490518470578643,-0.008449571616494025,-0.034371114474653665,0.11277417232277644,0.46837593391978033,-0.03394975731294351,-0.13951670818691542,2011-09-29 13:55:02.795588299,2.799740963
49.00864417713635,8.396983845710446,113.82965278191654,0.006604467455155399,-0.016239863894545098,2.8912073898068114,-0.6461253196381327,-6.960394997444209,5.817320964233962,-0.45345275677991576,-0.1383551635205583,3.314376360757826,0.18576832499553597,3.9717495291120093,0.3632423710374899,0.13360666940076354,13.075522149664192,0.19306645907119696,-0.027385512898553812,0.04794703867609601,-0.02605030255291707,-0.025310474636503037,0.056630261235831265,2011-09-29 13:55:02.905518729,2.909671393
49.00903211547792,8.39520454759891,106.73414218592832,-0.18775238200844405,0.046602619932261946,2.6968060978896733,0.4114401969761307,-4.501216591777464,2.3686274722939835,-0.18354389260466836,-0.01525765661566969,-0.7153796552602566,1.063610121618682,10.139842355434212,-0.8910698680891682,0.27718090525290573,9.902784209582784,-0.06255025522052449,0.03536711537915747,-0.023962326049347275,-0.02197553352631649,0.06322955826842164,0.039539683366003456,2011-09-29 13:55:03.005443506,3.009596170
49.00860061205753,8.40077499228937,108.74218083568391,0.031430293772428564,0.14603959304284458,2.789823246557558,3.098189683750724,6.1372462108512496,-22.6975551784356,-0.7068725086148022,0.062136160725757617,1.5152414266045275,0.23722877299288933,9.085218010956531,-0.5581469283435352,-0.1361963398437871,9.35346802403651,0.02645058506387446,0.005613697862415533,-0.06129039845274423,0.052616452665885716,0.09007617162170711,0.11656008303256124,2011-09-29 13:55:03.115443912,3.119596576
49.00894758400289,8.393942456097305,119.69879101445947,0.014751490772955242,0.04192276059253867,2.848177661714921,0.6819519398413103,0.30931313282033757,6.430142205245594,0.10720641234484378,-0.08033657754361255,3.9407339137918127,1.5158861375585693,9.83686829373884,1.035497146248434,0.2666396345249855,10.054118060361002,-0.00080043813844222,-0.12725250331908372,0.006436738394546657,-0.2454312867972866,-0.01802341874917993,-0.08735652515157867,2011-09-29 13:55:03.215402882,3.219555546
49.00826896966539,8.397838935457408,118.01646425845465,0.03902013636357497,0.025584084855025335,2.78985829930384,1.7097437714109422,-35.702058898802434,-1.110836952084268,0.4426358036498732,-0.03850881886299452,2.3058430677730577,-0.395626310688053,9.075204115399169,1.7816161479082773,-0.21774266412290527,10.024492235914792,0.004628695156853777,0.1219877105414219,-0.1932285000905122,-0.01748423075699614,0.21896154708421298,0.045368550069739215,2011-09-29 13:55:03.315569258,3.319721922
49.009651640758,8.396674199865494,102.85887382488458,0.05743673409663075,0.003741434483598767,2.892094831059701,-1.155820759892793,0.12805624605700938,-3.6298669975528224,1.7202883583179265,0.06809423297787671,1.39785259706763,0.88460391535639,9.500425472813623,-0.5217447138742484,-0.29209840768051526,9.623397469245628,0.014672479973270132,-0.005117623971294902,-0.160566764637094,0.020756487028790262,-0.0036904420742407684,-0.08878901984032017,2011-09-29 13:55:03.425414723,3.429567387
49.009398558091824,8.429525352019025,111.6032374204475,0.06595439762605053,0.061150197765069456,2.721952200452142,-2.8101083245221785,-2.380195915866463,-1.306656411692999,0.4785297063028261,-0.07394041995579079,-0.3539580014863044,0.33122659568143614,9.347993491945328,1.793346457074044,0.6361656793915422,10.031937723215952,-0.013791233257056792,-0.039016567099096136,-0.5726885308637488,-0.06501433934260666,-0.22983199271112317,0.04362731484098472,2011-09-29 13:55:03.525325238,3.529477902
49.007351955328595,8.396954055808012,110.6139919048276,0.03804100981191594,0.1902632441987989,2.6441307133363443,1.5223865214859198,-2.7811088604517273,-1.4699884667048013,0.5306314898536345,-0.23308885978108673,0.40875889048311026,1.7741116896740476,7.002694276735698,1.2633422200496813,-0.4372138670996345,9.750971327847482,-0.05889023816426464,-0.09415526151313405,-0.0925273036215094,0.05191730364160149,0.036635681873379636,-0.02522210486419122,2011-09-29 13:55:03.635350561,3.639503225
49.00961890767602,8.401181983806826,101.62292954614001,-0.018337440493666653,0.05815525311821995,2.8747209223276142,-7.57574247970942,0.8581175396474188,-31.616126405919132,-0.022656378776631098,-1.5817818145669313,-1.5412721248645203,0.6282377202803173,8.939240236910496,0.12639539619636053,0.15256757223929215,9.670570443541624,0.03542745080779092,-0.03488772559663823,0.06964892671605549,0.018347455695241544,-0.06115273584194839,-0.0057720327070856225,2011-09-29 13:55:03.735305746,3.739458410
49.00832556354928,8.397019318060163,111.75603401657189,0.06681354523912805,0.01689598973877683,2.632286291626011,3.044382214124971,-0.5009821819013216,7.066645304427017,-0.0353957502745392,-0.15644238129691562,1.8906720241084338,0.4635154902081662,9.566432534507069,-20.18607476331629,0.5055613343791563,9.262388598473533,0.06996605851938165,-0.06410648041880834,-0.0496117668826976,0.04144463649350455,0.015508425822341385,0.029879420884822275,2011-09-29 13:55:03.835447119,3.839599783
49.003312306460785,8.400017982452784,116.25734449186108,0.02795169358744938,0.04514895749536405,2.9943804220123886,0.9946093877404906,1.3574997613118032,2.9979194797477353,0.27738681151558736,-1.7623072802772137,8.593246989263257,0.7884180024386579,7.947438692665791,0.9868307900839898,0.4780141142319498,9.883734089404875,-0.06083986742117608,-0.08486827730909138,-0.41208125128862744,0.2808559390252579,0.03508642964049794,0.10651504518215092,2011-09-29 13:55:03.945287260,3.949439924
49.00836003791219,8.399897303500747,114.24496080742028,-0.017414233015882533,0.04085538236732873,2.861338905807741,0.7928554579153063,-10.126087341749319,5.817183676074531,-0.2112874315808012,-0.13588949442949008,0.6095413289448024,0.6501792108352876,11.17896854454269,3.0321380569095515,-0.24967447179776203,12.328485869339158,-0.010118499687183775,-0.011193919605401193,0.059090790675525195,-0.03297197763624648,0.04815426162691834,0.09060090477423277,2011-09-29 13:55:04.045282871,4.049435535
49.00783291342316,8.389470444967818,113.30087127138478,0.047156215386817274,0.03943239256320463,2.856068658977234,14.506782266352513,-2.7866885105342143,11.287273454815526,0.06521238399011361,-0.04556642846578558,-0.05720860661489624,0.6117491014540962,12.692588188023397,10.096576333994646,-0.373745457816815,10.02916302259807,0.03839990458839409,0.06431910758582399,0.1203035099887731,0.006174216851310029,0.12468002645562169,0.14414381972958223,2011-09-29 13:55:04.155264902,4.159417566
49.01034124636019,8.397650374500241,112.98615729206118,0.070830822916447,0.11161680113601301,2.3780515308813177,-0.7646537381044998,-12.964244444324924,0.9638346860461098,0.6261806465794032,-0.0429104668783559,1.1839254999236613,0.28185039644349974,9.588353476310525,2.915489406028572,-0.7879463718235205,8.975169683995817,-0.036956235251452266,0.011903917114324824,-0.06702167766097271,0.03720782783970167,-0.01746837180728851,0.21681596822854074,2011-09-29 13:55:04.255273614,4.259426278
49.00469303803651,8.394271903167747,109.6431949163904,0.05209852533790438,0.015896382270185805,2.3935696479774693,-4.273749448546612,1.1220561982581234,5.138685023947634,0.18048966516909595,-0.07113749480288256,6.932298034782732,-3.645804016858957,9.302816710103722,-0.37660407575925703,0.5087234081702148,8.975322882967829,0.052949800540069064,0.059301171470523266,0.13161475843098563,-0.3494553024610748,0.0007929053817331191,0.1511979095149929,2011-09-29 13:55:04.355369684,4.359522348
49.00868954031082,8.39643316283857,109.10961782712872,0.09009111060744862,0.044096989098354064,2.480980509182796,-2.115778914101015,4.200443323315826,21.253310826456516,0.23599665069572168,-0.06602143327353141,2.0813085499918142,-1.0377265250212564,9.963424819213976,2.562438067123775,0.7451202574854259,10.051136305691864,-0.0059947786232025305,0.07251737240473938,-0.013859222686840526,0.06759985001696542,-0.02021700256451791,-0.07980351853191675,2011-09-29 13:55:04.465228821,4.469381485
49.00758949935981,8.40255632521631,140.39632601240115,0.022567202227010134,0.17317905363761027,2.8595410230018645,0.17351869582263457,-45.33415343794189,-3.143522702527718,-0.10263246648138262,0.4184372985254469,-0.6193914147454208,0.8118882441967723,9.497682694417758,0.9677935594250434,0.100762619664407,9.566703094047176,0.38207756298660406,0.006633940227165824,0.9521709491326439,-0.07554849014521205,0.01109307265710817,-0.07659481475374497,2011-09-29 13:55:04.565286283,4.569438947
49.00940017800218,8.39757500735568,108.42222946287573,0.025216607839347205,0.029679131987118596,2.8341176684219676,3.5616306107081845,-1.0912527581411786,3.245034993798658,0.5141076573678771,-0.23136243087954,0.9395052215757935,1.3936543174621336,9.908357545961623,-1.502283804183244,0.560591256279994,13.863618325439873,0.006237362214883737,-0.01588468580910659,-0.8252213007617767,0.21934053104980292,-0.022993098157123797,0.079442613029086,2011-09-29 13:55:04.665211314,4.669363978
49.00813902244385,8.404314199525503,111.68486824445813,0.025815142849410576,0.027926745248626567,2.8489359207702387,-22.06305148250235,1.053278277585791,-2.5176544071961335,0.2227321885731167,0.3477649757825057,0.12187803485465211,-1.4025972931561832,13.276491298467977,1.071151463003982,-0.026658557009308748,8.921620625089647,-0.011793795392727839,0.0641842829222526,0.17384114750798257,0.20514422235784488,0.20860794738379798,0.018756637831123663,2011-09-29 13:55:04.775241175,4.779393839
49.00946961556693,8.396577764667633,111.99380373526347,0.26554510475110665,0.009083426286274666,2.686899040451391,-0.6889717952551984,-18.62679825989812,-0.2880694286434755,-0.9626741799974172,-0.20604042626454103,0.9033408255726345,-0.026265720330617137,9.622132966821304,1.1929300824937714,-0.06076450676711491,9.312395727745455,0.00021554866084858015,0.20432083168896076,-0.008327919882634852,-0.04374037254845718,0.0578991283636774,0.041112874382980294,2011-09-29 13:55:04.875228552,4.879381216
49.009514685941156,8.416872056749154,115.12761533990638,-0.14062296665930824,-0.09604814057585136,2.481446771998142,-1.7969009597505212,-1.990129472836835,6.280693421955895,-0.08320428269989175,0.03627363131745445,1.4865329959232796,-2.3633327050075112,9.625224529249255,2.4727679533280775,-0.6966346482432321,8.600378852490252,0.03819598206299753,0.058164101097090345,0.05185346694415152,-0.03440003246575207,0.13015781592933676,-0.0028113946176870942,2011-09-29 13:55:04.985230209,4.989382873
49.0088536285294,8.399512996386743,110.86276566552722,-0.16338820843018148,0.016192350745356326,2.5247003491685556,1.0368847238605479,-3.8172804826589752,4.633494538333885,0.4607705388310543,-0.018499930782104435,0.9203328061541006,1.3941103402958892,10.594533345489985,-0.4171877338114608,-0.3944275041356554,10.218218379049395,-0.06129720812431935,-0.010884773266400392,0.1316944208667171,-0.010236175505761416,0.07151028900492792,0.0030705753762803392,2011-09-29 13:55:05.085149691,5.089302355
49.0086085130166,8.400667642859245,109.37854059944839,0.12244631393490131,0.1596353601239917,2.8022918803784354,0.0977127835303957,-0.20463258502534432,3.1949673139996433,-0.18194217382195452,-0.0877239225956493,3.924429973170208,-0.24398221276816096,9.322642354413153,-0.048506944876000824,-0.08458393026585184,10.505173183931186,-0.05135422391520459,0.019140525170194128,0.037500918273184206,-0.049591423249834087,0.051991767198500724,0.03894814339830333,2011-09-29 13:55:05.185149475,5.189302139
49.019378605367955,8.402599342007568,107.83571630520295,-0.11947413217824325,-0.020977443031181733,3.014164083921399,2.511152327129442,-2.831115395888484,9.468860217782861,-0.4791128222039935,-0.1665979998073896,3.7763135805279107,-0.08005526108878407,10.01547761589761,-0.750353859447973,-0.6637518077622871,7.9059062272894405,-0.003343247357656792,-0.0023732908857718137,-0.007711510414361238,-0.14330998941856368,-0.024728077846857356,0.3898468036348079,2011-09-29 13:55:05.295327121,5.299479785
49.00943276127887,8.399422247058057,109.4472270087106,0.10037939761916889,0.008606321122755087,2.810182016846993,1.5727624210231186,1.5120365653101864,0.4514290288635041,-0.0692745009622341,-0.386753449876711,-0.8596005852554525,0.09929141734382352,11.327267202623108,1.3318395836700472,0.5145853338185924,10.111639275838433,-0.015878129780117232,-0.005940486561768056,-0.018372161705375048,0.03568508271216547,0.010433425390545144,-0.05056324075839974,2011-09-29 13:55:05.395156937,5.399309601
49.010169360812235,8.402320744279438,107.37681862195957,0.07607208998747189,0.06601870802794496,1.8602495449118428,1.4522512891176191,0.7174867564354233,-4.76535386926985,0.1410527059917928,-0.07643183735449777,0.5900793362477735,-0.7159484147617936,9.21618031636368,-1.385931804736073,0.35708226561344647,9.784522249020444,-4.2423008191842804e-05,-0.01117288146093933,-0.10419964894734512,-0.022920717674810846,-0.05782266302218275,-0.09207426218251352,2011-09-29 13:55:05.505103240,5.509255904
49.0083882213836,8.394254611996201,121.3618365069261,0.08288506202255133,0.031076521349428034,2.81632701245066,0.16737436471789335,2.936988898398535,-38.226815851235386,0.05506113785932149,0.01903723155726547,-0.25984658814777617,1.2959710075381408,9.569432480724272,2.1272786763355302,-0.8883371259256653,9.7454380826217,0.041156704467484366,-0.06517948078600777,0.018884422430851852,-0.05055544195516121,0.018707263272154773,-0.06739122336346792,2011-09-29 13:55:05.605109881,5.609262545
49.008937521195975,8.398562920405125,131.62907238366304,0.06766790954218675,0.046463773022151655,2.9460186224768754,0.20586871558835496,-6.116589732138962,18.002047882875978,-0.1334399084373483,-0.13010805993840782,0.5050903011874601,1.6610807687470541,9.518193685697243,0.3597749332166665,0.775486150048691,7.069585028542664,0.1521336470342764,-0.023831516313687646,-0.06008442911072878,0.086581575801411,-0.2301701003727514,-0.07755394607231356,2011-09-29 13:55:05.705133809,5.709286473
49.008360098286744,8.39439775522234,110.28373086295497,0.030895158130109002,-0.06555105432308089,2.680477447700213,-0.8327115918293464,21.03535631932376,0.7893043356569454,0.015528213760981034,-0.20621032885643267,1.5316421778268128,-4.281399753205675,11.30915518089086,-2.0040956978415236,0.09876005621787684,9.812427018724408,-0.2184293896051932,0.0145928852317842,-0.04074421397690996,-0.06303551426379679,0.0039821406768548945,-0.2874817890981305,2011-09-29 13:55:05.815280928,5.819433592
49.008927968238616,8.403186508519509,110.41766210271139,0.027705791570694315,-0.026823005702521385,2.845561853902915,10.39144317113571,-4.053523044388145,5.766817808964545,0.07982862393684328,0.16203654805398712,-0.7918199480294925,-0.6245368762855142,9.798551902896016,-1.8058138590704915,-0.49608019094485983,10.598895701398867,0.006573316505360978,0.044518510955232474,-0.03360130526859759,-0.07280844668526275,0.04309164354225372,-0.1382838112402225,2011-09-29 13:55:05.915101083,5.919253747
49.00969642709587,8.396737977103543,112.40346950277751,-0.05231435638060907,0.00371882952264423,2.6213922056859906,2.2488639377044737,-1.0167519261975562,7.917812796247286,0.0411360358783739,-0.882222807431935,-2.760797075941304,1.1442202245208686,10.445294246971747,3.8014612943039077,-1.4466235992575585,11.35411264993308,0.05630521949213618,-0.04182243929466261,0.07049259332969511,-0.05531664089121565,-0.007689899239068817,-0.1486807888930884,2011-09-29 13:55:06.025034583,6.029187247
49.00931888293247,8.395014974497728,111.53112439945401,0.018263482010208904,0.01021398056636936,2.6273758099794806,1.3973093847741964,-7.614364872055885,5.805803245433365,0.16773399571300945,0.07244315546737572,-16.399870805263866,-0.23121884745555085,9.940441184728456,0.23766713594685673,4.187702199165048,10.200032653149888,0.26148785853927287,-0.04571903852476437,0.07460709089483503,-0.04184499524593811,0.0074675402278945755,0.023303433233409505,2011-09-29 13:55:06.125039879,6.129192543
49.00918991166414,8.39886042850304,126.18878056682695,0.02276573357392583,0.004670908646590574,2.8663555943562375,15.203355999383252,-4.78924075160378,-3.1746816715057236,3.151178570056912,0.18674320782284135,-2.4608999891277588,0.7567082803835049,9.36093793798219,7.410096769773919,-0.5032795122444365,9.819160317880938,0.14617860598557383,-0.02022525226646239,0.27963838659346774,-0.07150763854833225,0.3919276631965486,-0.006471167088886995,2011-09-29 13:55:06.225000605,6.229153269
49.009125555175224,8.39877468147809,112.19180273613556,0.04026636394956317,0.03908118913263528,2.577732538119687,0.7456267716318875,-2.3382733268897034,-4.555756221540717,0.29914754264111815,-0.026147027044578296,3.6254256380701584,-0.7425355955227151,9.77762155440887,3.7878526174500693,-0.700968939984206,9.710738396044222,0.02417290397127674,0.009951089983983826,-0.018248249840353437,0.068536345103434,0.006574944664818826,-0.38113416894234725,2011-09-29 13:55:06.335111452,6.339264116
49.00954024984856,8.396776286270937,136.4140882993419,0.05048724382119787,0.016145404689299682,2.6312848517294416,-0.20438172514330244,-17.222750272461894,1.3196508037971735,0.6913522234845981,-0.21483774440755982,-8.283553226730891,-0.8628908873811895,9.219442798615864,1.088594759315717,-1.04650947085238,9.557952086133334,-0.03934026787765841,0.1343454172544767,-0.07649537029291209,0.05662699297700703,-0.0794287370476607,-0.06362319860459154,2011-09-29 13:55:06.434987151,6.439139815
49.01032635631704,8.399701551435152,108.32818253074302,-0.24506197686645867,0.011810758128835594,2.7620455271265416,15.719465387391613,-3.492343145711192,3.6936135444682434,0.24295536672969573,0.04906481878871012,-3.633020056310555,4.333713642692569,10.875358134224745,2.6058346910487566,0.6233741709245327,10.048621187202496,-0.052714364614935824,-0.06954027416218783,-0.020795288525782767,-0.009850894233014131,0.02500766478026359,0.08171644057708233,2011-09-29 13:55:06.545021848,6.549174512
49.009517054002394,8.400277682479368,113.63929873109655,-0.06753983400313424,0.03015712887003899,2.5437801123373736,7.500713415397928,-3.9032594702457795,-10.318367240190813,0.19887873630456168,-0.10606776301854916,-7.678307418556319,0.8372762063979915,10.815894130987758,15.647858844766656,0.21892360621224066,9.122574566031847,-0.0006271939909912445,-0.1318799074762462,-0.11924998656775167,-0.039399338792457425,0.039399945032250056,-0.11056730971498964,2011-09-29 13:55:06.644940773,6.649093437
49.0101727427738,8.398854403129397,112.58993322314936,0.061914444853267664,0.014883249437151188,2.5973541494264323,0.09074233314762248,-7.119870613642179,4.045341244287539,0.7042634781632412,-0.07164186850209733,-2.1907460845599003,-3.689030948156249,9.227528674576739,-0.38458736537809846,-2.9893057281322055,9.458797427730193,0.02413212437768379,-0.057456000719338346,0.12354286047183416,0.07181461353903644,-0.04034399600542379,-0.13430739221986923,2011-09-29 13:55:06.744955443,6.749108107
49.007651123738974,8.397807185859602,110.99915503179984,0.0718042617990088,0.01277207014561283,2.6857917121748596,1.971538901815244,37.564605731294925,7.006863951530174,-0.35542233760048786,0.04100735450461551,-3.293639916903688,-0.7688040714767783,10.290637020791257,0.711041075898394,-2.835071373974997,9.119029169433073,-0.057319137721442155,0.04669214137807612,-0.010278772289520413,-0.03980078684760787,-0.01569362573594343,-0.03186739547842257,2011-09-29 13:55:06.854977778,6.859130442
49.00942940750808,8.396495584273843,112.44441566374955,0.01854789695770463,0.029943674146043816,2.726060260014605,3.2475776034601243,-2.224633812582628,2.6030302514936423,4.581413811500521,0.10668934086105256,-1.3735010076764,-1.2679931489671175,9.327541775295211,2.7872688968174497,0.034776996996189136,10.411719783379395,-0.006655290179410284,-0.01620179250414195,0.18330447951524345,0.026184735657866727,-0.13170238597635076,0.08016425103370067,2011-09-29 13:55:06.954940574,6.959093238
49.00733044608731,8.393770903384576,113.56418674658595,0.016051110749483063,0.00627426061494738,2.5912252142074825,0.6245343558776838,3.2412583127805243,5.407187645681194,0.3374146858254949,-0.04423002991233076,-0.930857571853394,0.45229634083942705,9.60175812128966,-0.005115948864211184,-0.6467509402573393,9.211747945034118,0.08617497855581636,-0.0054398440124749595,0.04228881264311905,-0.03495582691116624,0.09132480871124427,0.12629991356508435,2011-09-29 13:55:07.054909385,7.059062049
49.00624412783357,8.399675156533123,110.6293166657901,0.061707126374033416,0.049068652158706344,2.6991965688824453,5.422364787099165,0.7842212815598399,1.8292146099983129,0.18404302723394425,-0.11167363911482689,-0.431766221959595,1.2192418612746765,9.889025790692804,-0.055843914355158564,-0.5432790355924091,9.745418314029832,0.00630510456140187,0.04998568287740792,-0.10756193547765937,-0.04394244500641424,0.01782570642636303,-0.3800534990715992,2011-09-29 13:55:07.164942368,7.169095032
49.0078013862044,8.396462419994881,105.149697277016,0.11170424470358742,0.020023022680175032,2.6871972365085535,1.3350487318058517,-2.950920112990478,8.376718664638181,-3.7524014934547565,-0.32023082365234934,-2.420687797194624,-0.49164256420088154,8.873588864502931,-4.370902169174014,0.18736386309846953,9.9188580202155,0.006335690056449683,-0.05091460773046848,-0.02612821613949398,0.3124646618652995,-0.029892582839013453,-0.06353238095568389,2011-09-29 13:55:07.264975390,7.269128054
49.00738262820714,8.398411656582958,106.93006185234754,0.023706198801666085,-0.014742175160859416,2.8187505263274453,2.5495946550745066,-9.386519119249867,4.077676760140415,-0.40796853372040404,0.006175576990775686,-0.27946605257090407,0.3759237018634315,9.563164333392407,-3.612798475578309,0.68888339849236,9.689686952401416,0.043171530221841795,-0.019706068665768232,-0.006830871566273315,0.4916127950922921,0.03183501244725928,0.0027662956175197456,2011-09-29 13:55:07.374897830,7.379050494
49.009518721680024,8.398958460931846,113.21592733196569,0.34189773342661056,-0.10289502507696488,2.6814911894774704,0.6554852059331848,-7.402243266256168,1.8411234574055517,-0.36090345108728533,-0.23910176531440105,-0.32801277720468525,0.8419324721986347,9.291956204172953,8.883060665979832,-1.3475004855790735,9.960072810631656,-0.07758560722372686,0.025199313282647753,-0.7996892190589253,0.05539894103297319,-0.01963658505629104,0.11550715087974281,2011-09-29 13:55:07.474856012,7.479008676
49.00940750830972,8.406637155089474,114.8731951133089,0.017554036698555937,0.025197453733082808,2.6942414470053073,0.6470535884760062,-6.920569625206071,10.919789197411086,-0.09492299956046273,-0.5880664755583365,-0.5017250843113408,-0.22243393172952264,10.026617598115577,-2.7065890109019817,-1.7110152938918255,8.854479292627673,-0.287656098981852,0.10045034258406689,0.04294077778424162,0.013069727479107531,0.0585161149314201,-0.03914714217581062,2011-09-29 13:55:07.574842490,7.578995154
49.00709731025058,8.400567678146576,113.5361518088962,-0.07765087267929136,0.027849518095382282,4.251931744909849,0.5412932251656897,1.4927494722135861,-2.0246806311091827,0.19834862900232697,0.7684804319402765,-2.0613063999001233,-0.5354634922910081,9.073263545097163,-2.1135974254045586,-1.6309723337564086,7.58541298115801,0.047699526081772844,-0.00865817758752916,0.15067070565611598,0.05210410661509372,0.011252701854200542,-0.05465827083683952,2011-09-29 13:55:07.684857104,7.689009768
49.00822267922707,8.410674921386155,113.6938024907226,-0.021520032604238473,0.04022961783213992,2.7857120806282984,-0.2702738157330363,3.3356114214071173,-4.778738129169985,0.23143296918260498,-0.24142020707825695,-0.07308761332450553,0.5469392531116475,10.142065015004254,-1.216250119309366,-5.4190916145660974,9.436452280016512,0.004540588612090418,-0.05326947878304025,0.04360820072700018,-0.03890480342670341,-0.11752624339272168,0.1278053994203539,2011-09-29 13:55:07.784812817,7.788965481
49.007909663168505,8.395545574565064,112.05725256603841,0.008512957011835319,-0.003124287111827769,2.885425158664111,-1.6078818435121498,0.2946744052838326,5.602598375533039,-0.8811298477464872,-0.24525945734768823,1.1496813117966425,-0.09211548931190527,10.19031526732961,0.3667730076787987,-0.25732770476314937,9.85267175390808,0.05743406564830649,0.009441785613273548,-0.052419535711135966,0.2627499522339928,-0.0015907546517936483,-0.11603078617234756,2011-09-29 13:55:07.884860529,7.889013193
49.01300889849065,8.398114282989543,116.31822791433763,0.02727864354011882,0.01200905300266487,2.4037866962621695,1.157924898997334,-3.6115242669505725,-3.6103920115115713,0.7993238671623902,-0.032270819253645916,1.4630876663234043,1.7405709316146334,9.064326067541096,-3.3817587884502815,-0.07847655879108066,10.222424553554221,0.09935186660555999,0.008663112733069633,0.10159737565081277,-0.07316514454848408,0.035263627452318196,-0.11543449621983215,2011-09-29 13:55:07.994846599,7.998999263
49.00955281403135,8.39570383498028,112.98375708523315,0.061162224256628796,0.030317225387002607,2.442996396259415,3.902739647404262,7.266270888141356,10.209862754726274,-0.599998190294998,0.028736427151099756,-14.705764711907433,0.07710392024943963,9.70061129218881,-1.1350695246392624,0.14925199043926704,9.05873217231438,-0.02519849580465703,0.024604296137795193,0.08205015988451843,-0.0692737555890055,-0.08463813041232195,-0.1694616058223467,2011-09-29 13:55:08.094927034,8.099079698
49.00901244724328,8.39724575334837,108.74584752385728,0.07973398123556263,0.022828592026286957,2.4571767277964236,0.8536201121279695,8.056419922446928,12.609532828669188,0.0793549313835015,-0.751885115321446,0.07537702826353032,0.34481505914440314,8.802397488700931,-0.45691683016499196,0.018459121580749846,10.494426894536968,0.011082963446709079,-0.009723381812678166,-0.01835812307256998,-0.051748529840527795,-0.03908867071077772,-0.03793235864339356,2011-09-29 13:55:08.204766615,8.208919279
49.00812557625277,8.402053636682744,114.18101277750274,-0.006709412937345345,0.11046729516729188,2.496153401361425,-3.67120953420129,2.9428348744168713,-5.665250704715365,0.06058607562595894,0.18517421312641155,-0.9854777688483498,-5.208235951241276,9.395856301226406,9.059523810405889,-0.7837559017776592,9.63056177974298,-0.021583422177030777,0.008862019648658868,0.613834063958912,0.2488511408421646,-0.08722949629972185,0.10623366828393163,2011-09-29 13:55:08.304927272,8.309079936
49.00753627765974,8.402962455637232,113.89703373871293,0.021893192573380578,-0.0019149226027579602,2.6730716143877564,1.0607465333447623,-1.6902341856399048,8.176712449962634,0.32543272723828315,-0.19686650599562208,-2.546445095655291,1.1427527141318568,7.776333886832004,1.6899947244740559,-0.27733682838216767,10.04138287179184,-0.023664211987157544,0.004391543172024042,0.08190298252716487,0.00996868329589555,-0.07110384429285171,0.07227579855736913,2011-09-29 13:55:08.404750358,8.408903022
49.00808463384809,8.401341851916118,118.90366318565799,0.09322658556030676,0.05992088503452618,2.519302551382221,1.121299320077426,-1.5506986149739128,-0.7512455379356469,-0.38114274658983566,-0.19517920241700745,-1.3309430891047773,0.8502775167280514,9.067045179593007,-1.965991596757471,3.6014571476609576,8.964670421447803,0.4147523733045501,-0.021398152461765456,-0.03862265079986579,-0.009222924333494479,-0.031986715245202496,0.06284789810567734,2011-09-29 13:55:08.514702828,8.518855492
49.00868138548367,8.397385642899515,109.49651883329894,-0.029600337604272837,0.010327312397123794,2.610730841857348,0.5869495374990877,1.3723350439798536,11.225092229778525,0.28629388093364067,-0.1358417620859894,0.47279999209952694,-0.24198598392120363,9.453263561132097,-2.1117909486621786,-0.22996059371463373,10.081575548588296,0.2903617161284179,0.009158663510501866,-0.35455395151803837,0.008728097336268522,-0.04433502254092279,-0.13090197645937124,2011-09-29 13:55:08.614724767,8.618877431
49.00957953540056,8.403803298848269,92.26387353765055,0.027636355303470136,-0.009181124381225316,2.530031467477271,0.6863096919885737,-3.8422592737612735,5.271417245954964,0.06502129898927494,-0.1465705293615775,8.817854089794876,1.0975640920346905,9.277237547641837,-0.18412817431026207,-0.46960988810669735,11.085990782709672,0.07900210181127953,-0.0319335306373604,-0.11418860677662625,0.0041486259292623,-0.18908889952937505,-0.10328218176294325,2011-09-29 13:55:08.724735236,8.728887900
49.008569116149836,8.397462009448137,116.08219337555401,0.015850909156390595,-0.017251296290420968,2.8672008885981275,2.048662916332365,-0.5356060138193103,6.584820073340294,1.7978899166532594,-0.147998744695076,-1.1166203150478524,0.3825449442574103,10.25348423319075,0.5021410807166977,0.467709256750758,10.364675916777731,0.007553058207082575,-0.01223987364005724,0.11700195731056265,-0.03819796001751148,0.07862456281294872,0.16282946329949477,2011-09-29 13:55:08.824891378,8.829044042
49.00903452353379,8.392567642502556,116.30452311107506,0.07080527451499816,0.08790323996910282,2.502275071222902,-2.4510802209749283,-1.7381211260199934,-2.035267571830101,-0.15502838295850313,0.034994260057528925,-0.8519475753916153,0.3540061800259729,9.607220429590335,1.1243075187826133,0.4474015380872344,9.488483197849018,0.019008410241502755,-0.011461037113893298,0.01436461056241083,-0.1950489422505951,-0.015327086038297633,0.008926294387235002,2011-09-29 13:55:08.924671933,8.928824597
49.0077302544942,8.395478076867604,114.99927674898655,0.03027790624465945,0.023917489675778215,2.8759183842352973,0.17111809750072932,-0.270932537783677,3.7533792881429644,0.524667173127719,-0.16049472213058563,2.7394424996611892,5.866218265456363,9.99311380431682,2.291345067134254,-1.3198734761328028,9.983471597921957,-0.05443940035186595,0.007246661452796892,0.16454467539053474,-0.07309949418907628,-0.04249922300458425,0.08095287461269532,2011-09-29 13:55:09.034668369,9.038821033
49.01291707334103,8.398449444391726,114.8527621320247,-0.07946753210086997,-0.0016470650427833165,2.591072291855086,6.067065382143725,6.041496172107354,8.731237363525038,-0.26835627228865466,-0.11853266554432094,-15.029962193496157,1.2824233913429963,12.436987698311519,1.3631966141987961,-1.6448878260611863,9.925607983298821,-0.2051848721676679,-0.03671291433125618,0.08244416203946549,-0.0019598819585898344,-0.039761779743325454,-0.16260097351297464,2011-09-29 13:55:09.134625133,9.138777797
49.00912486959822,8.396870189960733,110.00237998335054,0.006453750798420574,-0.004838900586955658,2.470475843305008,0.9367900143788915,-6.178449432635292,-7.5306975530077125,-0.3418933850747594,0.17108627485785227,0.7578849755268566,-2.7766255081993876,9.14368902355976,-0.855048564260794,0.00026615165196622326,10.466149511782628,-0.13091278898890196,-0.008761267427978814,0.08594305809489915,0.015030680924326799,-0.05058688028357142,0.11679851954000654,2011-09-29 13:55:09.234639576,9.238792240
49.00977415573898,8.375136053939004,110.12697934632097,0.02273139872840043,0.002951226096267315,2.715576187419107,-1.3004119378496872,2.5588131112331856,34.59231383599609,0.05333963752615509,-0.05975877670577305,2.3746143724545097,0.51568421499883,9.810062036907436,3.976380302902117,2.2678797386127876,10.676426084503577,0.02223926850327766,-0.0320284672447551,0.1823705932143814,-0.03341417190660688,0.014342732467837866,-0.005170167695790692,2011-09-29 13:55:09.344879907,9.349032571
49.00937720299141,8.393953579232809,118.54943400473832,0.08870552218987107,-0.023710272022083163,2.615683619597479,1.8208666519838363,7.658156302678503,3.3008027269592946,1.4922563602017187,-0.006545275275437761,0.3367961804494913,1.0930706108040171,9.99410942912642,-3.6514124753523394,-0.13960244003716088,10.540820542909875,-0.011511007575723625,0.032693003227000555,1.0050916389973594,0.04768573467971795,0.0460489946346057,0.14494280563281683,2011-09-29 13:55:09.444601691,9.448754355
49.007837704589484,8.401581083324317,115.73561046561676,0.3162809189726076,-0.02942852673029581,2.567302559822768,1.2643643042759163,-15.637419232767424,7.582953514710116,1.9781615385161837,0.04025690097974384,2.2343195894210264,0.2285446362098642,10.416362599512768,2.7261170374822874,-0.33533319483294766,9.919059338198268,-0.05102607954929684,0.0323324389696991,0.05780532560818727,-0.0049056526638674965,0.03609757380566977,0.0008456563933396527,2011-09-29 13:55:09.554600768,9.558753432
49.01007283850673,8.381987252989239,127.94683858565972,0.026860644448384492,-0.05816238354320298,2.9169921524092146,-8.718100366800968,-1.9382157803094544,-0.4586817442352775,0.5851875086085263,0.14569673293209148,3.1758188105284146,0.03868792251910025,9.212997171122284,1.127156833540143,0.3202323509536388,10.56523081369371,0.005704444981042032,0.030732415372389098,-0.09775716589774693,-0.03701637204934755,-0.08496690602501805,0.08947671200223872,2011-09-29 13:55:09.654590874,9.658743538
49.007747525561406,8.386535222483538,105.60391961755477,0.05243032675644892,-0.1775901974461464,2.9514425628553047,0.27427412034177673,13.114228264418955,-1.5575778114487666,-0.5643877637740836,-0.006245251221389282,2.580491199812578,0.2502731760235912,7.314529312631304,-0.6936856650789157,1.2186062256942807,10.291310842137536,0.018718654537750207,-0.02803494772078518,0.057516770563046694,0.11227323943536019,0.24046941289398954,0.06269376093920913,2011-09-29 13:55:09.754571515,9.758724179
49.012248159308484,8.380202248295621,111.55435463722222,0.03714815326441935,-0.14981704744132976,2.764185820038018,1.0078667574648967,-1.660641896674631,-29.096499243697938,-0.04289986528603848,0.20131352993672422,0.5240116093171974,0.26920407739946983,7.128698272902602,2.227275077634279,0.05899979204799709,10.23859410697258,0.051140843795914576,0.02391905829396078,-0.08540185121298557,0.03140427297231077,0.00039692883933380683,0.0045876436312393964,2011-09-29 13:55:09.864615155,9.868767819
49.012565429513764,8.397166151289627,114.28692436021701,0.01723311633652705,-0.046050991508338905,2.7524860711711625,1.174254603249898,-5.827167710203007,8.820092001357377,0.1957596797044044,-0.6822891025429338,0.2431950360051549,-0.4375064219901315,14.45237834758283,-0.5631753738512432,0.10883191065691541,10.942171933945225,-0.006085449137117978,0.04307825641363997,0.1437463641352613,0.013619295047563408,0.010823107043747322,0.08102361625749492,2011-09-29 13:55:09.964587092,9.968739756
49.00827776474428,8.396890052619131,96.84597856309442,0.20940349277940262,0.002490791398603091,2.7726306711813935,3.4973813315885307,17.254679221826347,4.062947137167448,-0.18500136517634336,-0.06757669103333176,5.2648738759211815,0.5450840821533062,9.614881529154356,-0.7773274090115905,-0.0890695080640197,10.163033832841721,0.017709163141848533,-0.005682435853849718,1.4615746204158309,-0.05026214161379432,0.0772125059939274,0.12104282560635651,2011-09-29 13:55:10.074525649,10.078678313
49.00881835371125,8.396368189042427,111.72615255953644,0.018868200327398287,0.0373381758436529,2.93869351889625,-0.12276687733629099,0.2873066263294457,22.237359284879002,-1.2884624358094159,0.0004131923651138035,2.2801620888047687,-0.5440646139401759,10.166978589086536,1.5840482804265301,-0.015834561196980873,9.88407648761046,-0.049970397733855206,-0.07534592061099485,0.04034278556759562,-0.001489391600549055,-0.003116740279340705,0.13665174835876764,2011-09-29 13:55:10.174521312,10.178673976
49.00918814415227,8.397227714641916,114.49109264346212,0.04010046038947098,-0.04831729534805456,2.5811153902251487,1.9716944338962223,-1.607919413369422,7.16698935306526,0.3294879035975379,-0.00970266079051075,-0.5261036077207035,1.386035411775271,9.092978023722008,2.3111660235386435,-0.13488710859072187,10.298035337249175,0.014309528734720026,0.013269846633901496,-0.08328531654676039,0.07258217319540687,0.024788466474901738,0.1669815530274887,2011-09-29 13:55:10.274487949,10.278640613
49.00898604624003,8.396255626300855,94.06014024989129,0.026339557335976132,0.02630172375293147,2.7493035780901276,1.9312593716483724,8.197431946510664,4.733423461589187,-0.10547915919593179,-0.09126207566321393,-1.1104200107109174,1.1320453397928696,8.903428113457878,0.6387132556386355,-0.16984492530322512,14.197142473471125,0.022468824017916948,0.017741983827896827,0.124384033786794,-0.024687562774088234,-0.023126630196225823,0.11567862626607099,2011-09-29 13:55:10.384574692,10.388727356
49.007993273322455,8.407311667198966,119.32205705162653,0.089243187063376,0.0038158386679433324,2.619599923931374,13.383583803452343,1.4845897012500944,-2.2165974667994934,-0.3422929294981717,0.12298245399427454,3.482592271885574,0.4307691233910922,10.602110135698402,-1.7415938758502112,0.8209195000800271,9.442673427651966,-0.2871130455045147,0.018252829624500456,0.008005172551269743,0.04723131541429828,-0.05253893809022545,0.02691990490411974,2011-09-29 13:55:10.484489676,10.488642340
49.00766173961513,8.397151917891469,138.20581540769894,0.0005344718969547135,-0.0194703292835383,2.5127123689918776,-1.96440193929265,2.4524880160487674,6.453081253340844,-0.1276884592017482,-0.006408252338978777,0.983550794300628,-0.13735622297744465,10.949474597216525,0.21028638922260834,0.5036409556912255,9.501834713000482,0.018051558002605193,-0.0429442093753998,0.1677297861590489,0.07155220042384239,0.0015640746509187307,0.11782945867671255,2011-09-29 13:55:10.584511832,10.588664496
49.01571701655788,8.393360882923982,112.13530085630477,0.04429500360750907,0.06515669730439198,3.0486673163335176,-0.6731892015863753,4.080419050688386,9.467436039879043,0.3643655806481951,-0.06073662372656849,1.9354663250153803,0.13621102602969049,7.390370903118621,1.5371753927693552,-4.011245878655762,10.018154976744206,0.008207045460899154,-0.17468262369792636,0.0583335049308815,0.044757331895182176,-0.16385892024479004,0.08503428126486436,2011-09-29 13:55:10.694568556,10.698721220
49.00843556655215,8.398691052455755,112.93254628269793,0.11064595766036284,-0.010135913450407617,3.02965925696329,-1.3106442199966706,1.4581885476453924,6.264668509631611,0.05336045737664982,-0.07765588252617318,3.6391999766311587,-0.8297272045662103,9.459228049706748,1.1746763605289825,0.15395712674899298,6.28536047019271,-0.04015865502844915,-0.002373462102907044,0.1255704829041158,-0.08226961536967521,-0.030559076071074262,0.25727346761945025,2011-09-29 13:55:10.794563928,10.798716592
49.00753272696116,8.405435690560957,114.42875547564066,-0.006957717689575996,0.019658225118118162,2.7841021915623614,0.01650642172333827,-0.31485952852031507,-16.63244891351631,-0.3484417994867302,0.16424657896082548,2.162765035584218,0.45673827904214354,9.635957131981518,0.2916520106789273,-0.1330288455149685,9.411098962931609,0.07856023931074878,0.05540195879651606,0.37537685682212363,0.008457141953659235,-0.008503746620526546,0.15110606603863436,2011-09-29 13:55:10.904464251,10.908616915
49.00422291713211,8.39590326541611,113.3834769867891,0.10582715235776102,0.0026102344537279505,2.9696012565149847,-0.6288540067095406,-8.547759988306504,-3.669650134180907,-0.4257073183179016,-0.16944328008267084,3.165562855749811,-0.120691798266713,9.548423860636824,-0.420278535762447,-0.06582429524871014,13.162981987107262,0.0031972557917852203,0.13928148448137137,0.05557968734373045,-0.20970294777441603,-0.07380850239292881,0.01036369222863353,2011-09-29 13:55:11.004411720,11.008564384
49.00924100547632,8.397061021969195,124.09744674276897,0.049729314467238134,0.04585214206641604,2.4734351925470106,1.7279189893481122,8.799063917665533,8.461021043525454,0.48965112167321406,0.11883786726702801,1.8978198314367989,0.6715207645119681,10.85477920097555,2.2138667938030805,-0.489512627808925,10.029014395519019,-0.013955451683185413,-0.003697830711828307,0.2802282988161878,0.003140542654958143,-0.055409394889385837,0.14428731206180592,2011-09-29 13:55:11.104427485,11.108580149
49.00877380402692,8.400899138717426,106.7466449816335,0.05924945220415031,-0.09311731219719499,2.6129190659875854,-3.1872645778339885,0.023544849865448025,-20.307080885624323,-0.31871727197187444,0.10301620416557258,-0.15920005146127392,0.9894484952603355,8.679798034865014,2.4238874010767457,0.17224871747868886,13.285168281987582,-0.07029902243354216,-0.018705116242175263,-0.060854354142447595,0.028388863916449514,0.015841721233748243,-0.055244967232162226,2011-09-29 13:55:11.214375442,11.218528106
49.00961771447738,8.399382057444425,114.93663238001169,0.08135200604410013,-0.004336668472303023,2.790346897579006,-19.05922350586358,2.605407345935835,-16.972420176094793,-0.48878455027356743,0.23856252813430953,0.47750749999659803,-6.417873969298413,5.634483008169652,1.0652633578086896,-0.14030396871678233,10.144575438233854,0.07503054533326506,-0.019348046821921663,-0.11164078979451025,0.2408140336229189,-0.05819679270409145,-0.00675931167727308,2011-09-29 13:55:11.314543798,11.318696462
49.008104310440324,8.398902986425407,116.2911645783544,0.01223963264960293,-0.04651652098043794,2.1762829023928614,-0.2699655225281137,-3.500804227769379,3.2766019994404263,0.25238980468001104,-0.13131340279358944,2.335271815585887,-0.4724005115293478,9.89244219420368,14.980191100110405,-0.5634846240607982,9.654532244317206,0.014391421997462378,-0.0024008016600009733,0.0010573505371435782,0.001811698758034169,0.029248763549666552,0.14270003149447316,2011-09-29 13:55:11.424348345,11.428501009
49.009228036367254,8.414649833727156,114.43691382060567,0.10848797588086764,-0.0041355716836491635,2.746963503904747,-2.6132466749166094,0.4141653084599848,3.4953613371451304,-0.6807095241878459,0.11945473842451018,1.1730975522782165,0.8587101836091512,9.239677206874122,-1.151300637982605,-0.8699500704383544,9.686499808129044,0.14215861346672765,0.04663875316585951,0.014622722751315662,-0.018889511933121567,0.008977077893797758,-0.010792272415183338,2011-09-29 13:55:11.524307029,11.528459693
49.00397870720657,8.397777486255748,115.43537165704113,-0.023707063291220763,-0.009584812549293076,3.445113599148658,-1.2893301979326512,-0.9113813655577006,-1.473488547984743,-0.4598522782081943,0.0199655618743055,2.408585850972928,4.97612034305261,9.095027642643366,-0.13408759922521263,0.7963338218014455,7.130108461304221,0.02097176421279474,0.27525846813623583,-0.024333427503603643,-0.02875440916503872,-0.03818697585308873,0.11506651841338451,2011-09-29 13:55:11.624312204,11.628464868
49.010054734619764,8.401429891697102,114.25096111964994,0.04063699528125736,0.03252861379060393,2.8650562709063605,3.411492394964467,-1.4248609457578612,1.698602173982003,0.9786599273623837,0.021217007473764746,-0.5975920777094275,0.2185301074766294,10.135047633525987,-0.007231994480909387,0.504096378857337,10.329872100154383,0.3317726557002451,0.002869526044141174,-0.21321013542265577,-0.008575119877168505,0.02729583800325664,-0.22727008560268114,2011-09-29 13:55:11.734309502,11.738462166
49.00564203785449,8.393414027506218,108.41683429774871,-0.012244653493590121,-0.018344864457881756,2.889364631610464,-2.6257828495022393,-0.8837541121270349,7.9135992859055895,0.06412439813131114,0.11927626823199045,-0.19461044654799753,0.6678150681102342,9.433252139062565,2.4044074870519374,-1.2738012543318906,10.174422438692094,-0.17384318217414885,0.03462256216163188,-0.6643072178163167,0.05212570080187302,0.03169383704085801,0.033766868607578444,2011-09-29 13:55:11.834354622,11.838507286
49.009923206104666,8.39225874444152,121.02812592252558,0.01984782005304262,-0.02686604824361838,2.8780081539328055,1.7987323033102887,2.572855234200722,-0.02855016440108704,-0.24944572874963455,0.2116636487373793,-0.2684124049787765,0.15960129377671337,10.197935606760952,2.019025828869446,1.05762746135838,10.078595359876338,-0.013199543124909546,0.07371767111342667,0.17513679461067058,0.0013199106874674832,-0.0032892753036080705,-0.11646793818051632,2011-09-29 13:55:11.934286457,11.938439121
49.007940322730676,8.39950568295806,104.21077796145315,0.04229825019865257,0.01586064638887401,3.178840861221636,-0.34129883711386366,-10.859111449728935,11.371827221626855,1.9725700585932642,-0.1185708588988077,-2.1366366174594527,0.4024953169708105,9.417777234999685,0.7347137410680867,1.1063620092938866,10.073290331355922,-0.06172497155023918,0.02430693736021078,-0.07333247479167278,0.020640534092783897,0.13496449076328654,0.017995650564117897,2011-09-29 13:55:12.044252175,12.048404839
49.00988832101752,8.399065444830137,120.84283168645449,0.04610370699193167,-0.011559913932650871,2.6841148272011384,-13.776023654398081,-6.217906624752249,-6.714746157473213,-0.22226841258720587,0.06991046874366333,1.0847954113477838,0.18883315758677774,5.400940832631421,-1.1616374327041723,-0.4718426808330004,8.991827376313513,-0.06585659174255379,0.019166915414129376,0.08053737091111657,0.24408399367103828,0.00880397711462828,-0.17040880741426478,2011-09-29 13:55:12.144263817,12.148416481
49.009774692390934,8.37150238013423,114.10319798709422,0.038259490837530566,0.08021716115172461,2.851154702378799,1.3817133839039824,-4.728035766905575,1.31529924129307,-0.2954032025121349,0.0687302966448861,-0.9604870125424222,0.2178452225657065,9.470245254441403,2.8616792824709942,-0.13398833998934517,11.51499119574721,-0.02616207468426791,0.05070665127049444,0.05079607822806049,-0.01312979511830703,0.04371419034746318,0.12015572772686814,2011-09-29 13:55:12.254214496,12.258367160
49.00841035292326,8.399331532267839,91.81153972755149,0.019233686660735543,0.007089213489398635,2.909623544413604,2.6328909197081574,16.055015691735896,-6.2602914875022435,-0.10379485003833465,-0.01662038515424092,-1.3877729666941458,1.8376368041546407,11.48712427819587,0.16245422585833108,-0.11542277396988049,9.192847049409844,-0.012728599052543768,0.03768201174504471,0.048424369082209595,-0.023041550105655225,0.06636890434752209,0.05657931057454327,2011-09-29 13:55:12.354264946,12.358417610
49.00910716718294,8.400123549292697,109.08971844733786,0.01654535150182086,0.026181193777908847,2.6218719452667223,9.470526871490307,10.245707083980326,0.07795045967058911,-0.09097814734213963,-0.22320755628400762,3.0155478323741414,0.505533844215888,10.191543697760464,-1.8647524050959412,3.2940009333303983,12.302347789684008,0.025923786213648013,0.005345555478265634,-0.18667694716210342,-0.09388120618166575,-0.007296301309147789,-0.005546768214235164,2011-09-29 13:55:12.454223537,12.458376201
