lat,lon,alt,roll,pitch,yaw,vn,ve,vf,vl,vu,ax,ay,az,af,al,au,wx,wy,wz,wf,wl,wu,timestamp,rel_time
49.01004848122977,8.398799393463749,120.61321441680634,0.033291147596336,-0.024012723345340544,3.288880913700979,-3.0944296237936353,-22.490465038453323,-4.484344264487846,-2.7105290924067216,-0.1593741045597661,-1.1129283195113742,0.31318307304631454,10.433044088734972,1.0545514392087623,0.04411898987098921,6.268019347167545,0.01059241705453016,0.02736090120454058,-0.0953412034505311,0.008172619771175798,-0.003912305436131393,0.05647130487896876,2011-09-29 13:54:59.995847336,0.000000000
49.01029464331865,8.396033739221892,117.98367605559808,0.004191461120174496,-0.021853625077108387,2.732976658189161,0.7069738637346031,-2.03649653287856,6.287957412345133,-1.3478351534717852,0.005332470955556023,0.9497361224779554,-0.23487435877120721,10.257730291335568,0.9462108608051886,0.5452038288123298,12.071995555620182,0.4990500238456795,0.022445244195932003,-0.11707086629085484,-0.02988772536367936,0.002588857717762033,0.1383473308801272,2011-09-29 13:55:00.105811344,0.109964008
49.00872514091123,8.384873452596874,110.35013062888389,0.0527962599130822,0.01536030218079803,2.702884825251281,0.219439581203799,4.43093702240996,3.0050666562722697,0.21853915247997488,-0.03126905276057903,-1.4485298668125037,-1.1479238158750338,10.665120985731278,-3.2478425339602914,-0.19693058400944172,9.516610208836498,0.0009410836600295073,0.00031049789055625273,0.01551922083514793,0.04930717315576978,-0.029617326798517266,-0.634165706776872,2011-09-29 13:55:00.205830857,0.209983521
49.0084531495783,8.397913002562696,114.60963489495903,-0.04970575067515588,-0.007032403371011138,2.5741011824595654,3.5858590885183754,2.8294802142693727,9.537369521153233,0.21448744825343,0.016124029757444373,-11.221419240502543,0.7110944043238872,10.133776055927331,-0.8722452240122477,0.30821661560270397,8.554359570969343,-0.052425031127978985,-0.027747031251031652,0.04460301672359898,0.0665832811171573,0.006587780586795704,0.17926528457872826,2011-09-29 13:55:00.306034581,0.310187245
49.00835706234668,8.412582097614068,113.1395122672822,0.00742591635313956,0.011741863989661892,2.3179600763491663,2.634709606388939,-22.579877397194434,1.7245482234091534,0.2689911049521999,0.06868407061515637,-0.20215712719866635,-0.07448969334471153,9.93682303053665,2.666796288261116,-0.859174868183357,9.449003981438226,0.06263808740942489,-0.08155067433411865,-0.1299471086417023,0.22937769320373963,-0.09111274405671982,0.14751873751596828,2011-09-29 13:55:00.415813621,0.419966285
49.007796791043916,8.3996203021516,117.83641439924621,0.052186398059576866,0.04813615331596783,2.2339194868910823,-1.552951442789286,-5.316051481701487,-2.019539686086584,0.8143047791095618,-0.05374169201887853,-3.5601953263663475,0.35492721818889617,9.815783881471768,-15.61172932450289,0.039317333804026994,8.685401787339796,0.044173892727788294,0.005403890206286267,0.012155335644161361,0.437257835310048,0.019628128683013266,-0.14370088649352172,2011-09-29 13:55:00.515769138,0.519921802
49.00931194834609,8.397103635845022,109.49586347514143,0.040238899906010636,0.031418836065532085,2.304161354597073,-1.9284734489376532,2.50051996445205,-1.7376547670670923,0.09139970258354663,1.1717554346880474,0.4845754383798274,0.10855664030437451,9.486376050812927,-3.3705837220065256,0.1708562786348869,10.696147783885927,-0.008333306668254726,0.003738690734843033,-0.016572628689549774,0.07041694919748409,-0.11908863342338251,0.13513897425461918,2011-09-29 13:55:00.615725458,0.619878122
49.00853484065686,8.401712978198939,115.29283790430993,0.05738044561832672,0.008398727127079914,2.4221722850762246,-1.3151651551046886,-2.750543268375859,0.03251332731214929,-0.48069106992599325,0.24648841448429304,-4.548939436610598,-0.14684009362561629,9.883653336428951,-11.534558092492203,-0.04117067445577119,9.648168789389974,-0.07248776282529211,-0.05160038212754926,0.01997283602993046,-0.11461667922752553,-0.0054449021594840386,0.020803332185485413,2011-09-29 13:55:00.725727428,0.729880092
49.00866340342262,8.398406761074709,108.42973882681213,0.027705380699266098,0.009183165573658583,2.4602509806423205,-0.13893981251015924,-1.8808905743373625,-0.9232616089541057,-3.2929844983085776,0.09459581714714885,-1.4294688804449045,-0.17135910147341804,8.722204209489636,-6.503154984606161,-0.1106690340780029,9.115543375987798,0.05321480066244223,0.030029459942094956,-0.07475586927595754,0.025643789269440748,-0.12704751197692746,0.0552072734538651,2011-09-29 13:55:00.825902798,0.830055462
49.00773431991528,8.397894132848698,137.79369190071418,-0.02395821649610037,-0.1965597164529278,2.7568697305584244,-1.2401854237922678,0.3593376321080813,11.34604065372054,0.02292626709743798,-0.1692589311243981,0.47944028202651556,0.1645473871275766,10.500804851400389,11.634090283993691,0.5329296375763938,10.657067295231435,0.012114665295633648,-0.014180717420679929,0.015713660859054557,-0.03150182319689727,0.05068158202903283,0.0018378810841709649,2011-09-29 13:55:00.935691380,0.939844044
49.00905338646305,8.40004272128275,111.99704324209445,0.09792715828565693,0.026999344581482784,2.5231490806760934,0.5270013725956909,3.627988551319418,1.4463449367013297,0.08725430549252755,0.11039703130264028,11.273179420377133,1.1545711875300424,9.90573496773355,1.4490089960904748,0.10117398738617153,14.543696220706902,0.020182320141622228,-0.05845732600855724,-0.2798873489326259,-0.04725901851098499,-0.03408895720107326,0.02428765704067911,2011-09-29 13:55:01.035679783,1.039832447
49.008409164104,8.395051546035912,109.38919456521347,0.0521773248860925,-0.15447359486223206,2.7981550150225463,-0.1974284915986426,0.890721727203907,-5.983686895216117,0.14531224503239734,0.01273723103415977,1.2250321683610803,-2.446405603231111,9.95091354691049,-2.1661117018670493,0.11659944983761128,9.64316563473118,0.05435550716354082,0.033096089995527676,0.10895875636118549,-0.05272294492786494,0.0020447212367410107,-0.07480019388906342,2011-09-29 13:55:01.135684518,1.139837182
49.00804416726231,8.387893024429143,116.25420547331521,-0.006107209158922777,0.013048356426692158,2.5920147797736592,3.8456460834027135,6.4165643304714575,0.46383193459107086,0.015212946695409011,-0.016319712227401695,1.2631303015663278,5.698875563465508,10.730665004650204,1.7582662795679975,0.4329583496296603,9.149446211911952,0.0895370510998504,0.044443565902942975,0.14383395141793914,-0.08035457870606619,0.07036666758553105,0.04940636396904023,2011-09-29 13:55:01.245653433,1.249806097
49.0085251219772,8.393305401733556,114.35353530561721,0.005447411637834423,0.00906012640473182,2.609065571153926,-8.315921415161236,-2.6127996383572705,-21.920175144160478,1.1212924310749077,-0.609159384589998,-0.7696725547616288,-0.31941572943843033,8.658643213687125,-1.1204415821158493,-2.3078412469948435,12.736083166624674,-0.06709376232664585,-0.0559715358507214,-0.06557300285885664,-0.04919163923652715,0.03395828946831135,0.0022052734103574535,2011-09-29 13:55:01.345864966,1.350017630
49.007834691444984,8.40096189843462,118.24966576343392,0.005931809796787122,0.041118028154052126,2.5235245857534343,5.1114890798312045,2.2212010276913148,-55.312811942028965,1.5358701655012537,-0.6154746444655778,2.4534384806557523,-0.066579966877152,9.623178885620959,-2.448095640823325,0.15535150267621098,10.070473276947737,-0.01013289196117956,0.04349885904818114,0.1866536526775347,-0.012017714532931848,0.36947719612670693,0.10191296220010501,2011-09-29 13:55:01.455611505,1.459764169
49.01008636658768,8.397571000294056,97.76891555376343,0.05651338505307246,-0.11045903757375714,2.538739448046096,0.3875469631353804,-3.1775931808237816,-10.623398720526314,-0.051752921882611304,-1.5984516061454548,0.9815008959305304,0.7133282421525492,9.967032672873733,-0.9295235343416054,0.7904124778778511,9.77207440603484,-0.004145578991241062,-0.010419822103957952,-0.06816814802141866,0.014012787672859189,-0.036595850525149264,0.08700061123899219,2011-09-29 13:55:01.555624065,1.559776729
49.008336394960885,8.390315021012748,116.54140019932424,-0.004884224444195933,0.05355792179643923,2.594582066034848,0.7863009124635351,-9.1587713633105,1.8053186319833474,-0.44369940110537764,0.03285265014710006,1.1188956091531763,0.9367208860199674,10.098303055723203,-0.3810745878557218,-0.13021040319142313,10.169437406669646,-0.03801519546905295,0.25157963670232825,0.05563100106784534,0.002541583260276623,0.05738297742525785,-0.1706569306956623,2011-09-29 13:55:01.655611506,1.659764170
49.00778008697549,8.39411741683287,116.92536281106396,-0.010490844517903865,0.03205662054595961,2.5325699342666397,-6.8281336718496854,-0.558812740074252,-5.207391160794909,-0.12288824709867481,0.014782049906929665,-2.775310749928464,1.0998949701043426,10.545840981180113,0.5354031912515853,-0.3092020426348851,8.406038139034695,0.09860864950571055,0.10038382957554638,0.04730009653584241,-0.041392693836937576,-0.07071453350742415,0.1258485884273544,2011-09-29 13:55:01.765596822,1.769749486
49.00771355829914,8.397747316943763,109.24088487122629,0.060955558178704364,0.052580367213997295,2.502706592165709,1.473431668318646,-0.3212653587278854,-3.8256793501936706,-0.4515540096416218,-0.023238609544824186,3.359311562233773,-0.6817110103236526,11.500485514261612,0.46142304930147987,0.18643848481816416,9.619361771352803,-0.04283515481436821,0.0004082371902709783,0.023007108309000546,-0.03587128519434359,0.01478808232545143,-0.002558555581016572,2011-09-29 13:55:01.865671942,1.869824606
49.007507962871244,8.39857392252483,107.21830388335289,-0.09722351943390183,0.060746366219310725,2.6698806056263282,0.5390350116567624,1.8830165686305351,-10.985750906034768,-0.02210076487655389,-0.13154648279569925,6.081503474322118,0.1734009890905776,9.576677103538177,2.786805175205175,-0.08546263834658499,8.789145779744771,-0.03969516532920778,0.04149800542728209,-0.06260406377546793,0.09250562074957776,-0.24868830297381328,-0.060125073641321594,2011-09-29 13:55:01.965532639,1.969685303
49.01050485510079,8.398021123792633,118.85955797099712,0.04482361541139031,-0.041379751894910985,2.717455924884155,-0.27145338904988137,24.30616648450601,-0.48336247524835174,0.05038446760138886,0.05759414866781812,0.37509117592742197,-3.2206378380698792,8.487838704251603,3.1805122638993604,-0.2676707238317647,10.382248482976571,0.01348347825929533,0.10166816561247867,-0.12017105532379788,0.018272774692384225,-0.02635473392098134,0.03657125412682288,2011-09-29 13:55:02.075563847,2.079716511
49.010789172438045,8.39597091365012,134.9961849541424,0.15529489044675593,0.04874424772692868,2.581997403249104,1.5063961352535298,3.4458417177031246,6.66696573417392,0.8700368175219919,0.04842603707398564,-0.7743372201192817,0.5200418967696088,9.830057438925984,3.330255498741787,0.799626925340083,10.504585412082825,0.0046887841170397924,-0.026527812550162403,-0.0580966088340721,-0.21316075084091451,-0.008130824907433172,-0.042497591367068425,2011-09-29 13:55:02.175522659,2.179675323
49.007544915752256,8.397728612403817,118.91581159264163,0.08847024971345688,0.02474781440247502,1.7669115707909713,3.8391951555334662,0.12319080129029103,-5.512098310696077,-0.3683648265596437,-0.09304243195775047,-7.085625560429357,3.109906513300177,10.22601370836695,2.000198230018995,1.596363277712957,9.491224896221619,-0.06396274470102997,-0.018630067162733556,0.04297369672406581,-0.039781793767328794,0.013498176199372443,0.08380250734933782,2011-09-29 13:55:02.285523626,2.289676290
49.00833152065234,8.399211154459412,58.24043474516603,0.010495600843425178,0.05725795003272876,2.5537712955796597,1.6050715651740775,-3.316480947059434,-32.474789963027895,0.22182361866273317,-0.29735436213592675,1.333807270508809,0.01763517100435183,9.476585174217188,-0.8904957880382331,0.3738992842578737,10.140218342067403,0.37784452710960986,-0.002510677000299262,0.00868106737887471,0.0696377665142829,-0.004533120401662496,0.13079146915944462,2011-09-29 13:55:02.385536958,2.389689622
49.009043990881565,8.386238423756254,111.18646904524128,0.0009908144931669999,0.17628137382273484,2.7965653704252573,0.5106893220425941,-2.1571238393062613,4.300530977314898,3.1329333040057747,-0.13236294764719234,0.04797700133981653,-0.25820721966052923,10.053753955672247,2.2793947023084007,-1.1729456455460872,9.301463249361854,-0.022078385158621264,0.00016661531248511087,0.4132939052174838,-0.02827710554845745,-0.07329291562582241,0.49707550705241055,2011-09-29 13:55:02.485503452,2.489656116
49.0086328478275,8.398302169906747,114.05728055719207,0.03903623531953457,-0.014249347561308419,2.95948401146329,12.032206679104789,5.509986872769268,4.960306322184483,0.29942634111984995,0.792786959963462,1.2870062446169512,-0.14431322833449686,6.466468359893005,-0.27691255683825544,0.17005382493923415,10.154114858363247,-0.0195868628845766,-0.02996296120077495,-0.06517564714694361,-0.4209525618314617,-0.01583674525230474,0.2731892141302069,2011-09-29 13:55:02.595512122,2.599664786
49.0081393939823,8.398531163098212,104.78613172491974,0.002440422013703354,0.06361628554666236,2.70978833542179,0.10745950249245784,1.3229852115449583,5.525607887629958,0.43178959220628976,-0.10107754197049704,0.718380503401586,-0.34859156784284495,9.958446792781913,-0.02376737833097531,-0.08227016716595989,9.643838073155617,0.09166359421927471,-0.02612143388998789,0.1880216492997632,-0.046722095792170945,0.18309440607641433,0.038676089968703545,2011-09-29 13:55:02.695466242,2.699618906
49.00815046592076,8.393434529481635,127.58269894218203,0.02748410286817441,0.09964685087080719,2.6722638637121654,6.852369280692331,-26.004160442943494,-5.567302385445068,-0.07086410756711152,0.014254575769122403,6.062133087452494,-0.4804741298139583,15.0101637687117,1.3005041595639664,5.651825578901585,10.164812184241379,0.0017759059468208478,-0.0816214940755998,0.10230613852170616,-0.023511013515022324,-0.1941457907238326,-0.22321580298918614,2011-09-29 13:55:02.795588299,2.799740963
49.00929200736308,8.401724266186077,174.96141419642925,0.05451073013693754,0.04203225644665137,2.5838791674981914,-0.051828036668257416,0.7554770307301812,3.47934272298547,0.29692739521885897,0.30163344846825235,0.062357009326114876,-0.05454682034355379,9.017464593879554,2.4705676931361573,1.4125053265204908,9.588277887406145,-0.005785978832022226,-0.04861515374673321,-0.06258543358487176,-0.00940321451307166,-0.0014170556449097159,0.16265292747092522,2011-09-29 13:55:02.905518729,2.909671393
49.008091752300956,8.399728480062663,112.86087712563433,0.005835586264010505,-0.11383655137546722,2.537045433332063,-0.03173445225043192,-3.47079403945499,3.7236778721835497,0.09644883187913893,0.07424171977135557,-2.020726772621644,-0.9759687312543873,9.852691762522054,2.9474624166714647,0.1540028455484706,12.53340123806845,0.0066270705010026435,-0.10171971650726096,0.04883959254977683,0.025283922078492133,0.0714926338358545,-0.11944828482728419,2011-09-29 13:55:03.005443506,3.009596170
49.00993540658273,8.398491573186163,98.23356799978122,-0.04430042268257639,-0.011468619368103353,2.5502123337544687,-0.8912655132747772,35.556254567745576,-12.711766562497546,3.536754922785356,-0.06335678147266459,0.08082001733117805,0.12817397151686133,8.933120827104325,0.1263849356654172,0.44925896025089873,9.194938212812733,0.041957694547360244,-0.050190413411372106,-0.0414937154957275,-0.0025479210488525156,0.10774943190462165,0.8100892868136274,2011-09-29 13:55:03.115443912,3.119596576
49.008251798209066,8.40097647285699,111.50825068827017,0.010113879803676739,0.03345114543301869,2.702228959706117,26.884737638205245,0.33470468283188537,-1.768060615416858,-0.12424666530189238,0.033924662219112375,1.3889087874265884,0.39779997369557546,10.120831890048473,2.167009080341283,-0.11034009921116444,8.37295374395464,0.028273846161740702,0.06217458426430563,-0.1403288578266002,-0.016399711011812965,0.037580069317012785,0.021783572499299745,2011-09-29 13:55:03.215402882,3.219555546
49.008456735048476,8.39830786323642,110.19378100278948,0.015544857861198285,0.04356258929953029,2.748353779151426,1.4400714441330686,-4.5428205940576465,38.27541980073925,-0.17901944892876295,-0.10597768707808297,3.505226448861926,5.126597453189314,9.3737181306839,-0.5234481924343308,-0.884816177740665,9.393677105560108,0.02363871582461416,0.0035665465959669675,0.11024332032295811,0.08898679225362352,-0.031027891464825465,-0.021658572094642566,2011-09-29 13:55:03.315569258,3.319721922
49.00744313988769,8.401226557943865,113.69002932944629,-0.011922956959266106,0.03790695019822694,2.601581927453314,-2.089309191387786,-0.039736612667011784,-17.44681040838882,-0.10034895396988477,0.007449345409014374,0.9682557782758632,-0.029594838507386312,8.205048901823037,5.68353772842945,1.0820597983629108,9.918249275227918,-0.13010791087765056,-0.28885166839522725,-0.021003277875469163,-0.05870380283966482,-0.017068000662545588,-0.017786099087194793,2011-09-29 13:55:03.425414723,3.429567387
49.00826152891677,8.401887416846655,135.86414051732896,-0.22459261025928623,0.06920663944067118,2.7344045386906517,-0.0836539168586754,2.8765590178117053,-0.6760099147437097,-0.20358692697170838,-0.06468057574723153,6.172906069585789,-0.4264864986752547,13.583138583467301,0.7361616775568378,-0.016890866429563063,9.854087951545951,0.02112593075578954,0.02895919791911826,0.0594869206998046,0.03816445660889933,-0.007578220791555867,0.11708166832430818,2011-09-29 13:55:03.525325238,3.529477902
49.01020254138274,8.401076816827507,106.89438962774909,0.12221871443163801,-0.017290904389383722,3.1288939503708804,0.7479550303698206,0.14556574995261462,-10.920019700041937,2.7586123580396356,-0.22619109249884148,0.02402071639094039,0.5668892174894552,9.52771542158715,-0.7554185009194778,0.31717280810731097,10.1678142308132,0.009803668395875303,0.02397754686444236,0.09817173857095293,0.049750329369827324,-0.0103702923028374,0.08495023677443736,2011-09-29 13:55:03.635350561,3.639503225
49.007475905562096,8.397471991123764,106.43594042426841,0.028640528572089784,-0.1291893444560094,2.5204332111550816,-1.4367171492207051,-11.298535690237536,-5.071796373833303,0.07137130716837262,-0.08262612323140012,3.9904912502411802,0.17188329329711277,8.410801280847714,0.4841273617247775,0.20039017032178896,10.204197531124889,0.05533910700214828,-0.00044827679822232597,0.3928495545124161,0.002910424784327178,-0.029800224701162385,-0.17366866788036225,2011-09-29 13:55:03.735305746,3.739458410
49.00758704532604,8.40151612861623,111.05320476355372,0.07317468247464914,0.007306081438396336,2.7338229967308747,3.251102062308985,-7.695296269159353,-2.753588239287838,5.061696912818716,-0.1129952974540553,1.4556292888819025,0.2814704543432498,8.32661617906057,1.2580869375470347,1.5371751006946521,8.909198577542814,-0.02725232144151783,-0.04631628122426859,0.026147918079590562,0.041761841350583,0.04477579741643195,0.14548326941758158,2011-09-29 13:55:03.835447119,3.839599783
49.0085141653337,8.396489939566747,109.69502005791043,0.03458735532572477,0.02059012790113957,2.9383124476562026,-3.4520597369736654,3.434989697840694,1.2631346131585035,0.6160417955220525,-0.1764347371022836,-2.699786971533001,0.5835513697737776,5.805237234261697,-1.191080306592199,0.13723090682421102,10.184699919488697,-0.041717706855066476,-0.020522695221013063,0.07954746881266203,-0.010807023268367934,0.012716947913431087,-0.09613377966145142,2011-09-29 13:55:03.945287260,3.949439924
49.00920393380962,8.398649127473748,110.46391677048442,0.01977458588227184,0.05467311370821647,2.9953260846864684,1.0599216308908301,-2.730693251396924,-0.7461396762568633,-0.3110401560961132,-1.3585876597797273,-0.31052676318590167,0.8667857611140948,9.469401269892556,2.457278899704594,-0.6413898054131336,11.020901343320451,-0.10178967716010472,-0.3416452821850762,0.004966040957203807,-0.004158445767238294,-0.04175231040660326,-0.05151272884438883,2011-09-29 13:55:04.045282871,4.049435535
49.007571276690996,8.398678702526094,119.28022059938458,0.02699325747429272,0.03072227952216619,2.906270055006894,2.852334003533544,-13.578232264522654,1.337713968676148,0.5208513685768118,0.027122686529277885,-1.5025766782667798,1.1329799855897724,9.962274925619724,0.39214032182383896,-0.7283677290739814,10.706614293726853,0.021011328338691137,-0.06523216911253904,-0.5527376262756966,0.06987169629168569,0.2840827697920008,0.18361395004580022,2011-09-29 13:55:04.155264902,4.159417566
49.00876916472471,8.396273705114714,115.29757782940305,-0.002819059443777038,0.005350142333323888,2.745590891291804,1.0592234860979695,2.263577133019873,0.7019985657237484,-0.5844207367127846,-0.014259183770256336,2.768657756380644,0.24437753895967118,15.022488043917923,2.6231831062566595,-2.4719303911287906,9.048018644176105,-0.010210284941994531,0.0587736389206957,0.10386040196958968,0.10424098869934897,-0.0295907728621191,0.22094296303167216,2011-09-29 13:55:04.255273614,4.259426278
49.008492497919825,8.400168224815857,106.39257301281297,0.040743519543356276,-0.015441781756569573,2.57963176781287,-4.499311792882761,-3.794887732410513,4.4132111359652955,0.5611600614841319,-0.23918135480770777,2.7003559032353075,0.5968295687927286,12.432262493617786,3.1229254954174532,0.7629250764846409,9.17419841025071,-0.01018707187593125,-0.034437995708906335,0.08147980772377428,-0.2661446460066507,-0.0019186096215381924,0.06978720510127687,2011-09-29 13:55:04.355369684,4.359522348
49.00792699477903,8.394609778844123,115.19755378299301,0.08537359473561197,0.024457850603336963,2.6813516496336414,1.7511450554939363,-1.0066693214096296,0.2737509920415908,2.5653515472153727,-0.19651477084123511,-11.17991012444734,1.251489735287009,10.408860933075855,-0.12447411586562018,1.9953925316374455,8.792731950071424,0.04046226557666041,-0.13190855100623705,0.016434492431283476,0.07931660412655667,0.21824048857446876,-0.015639879387123967,2011-09-29 13:55:04.465228821,4.469381485
49.008942294853824,8.393477074007826,109.8138455493493,0.002244610361438505,0.044091635035636095,2.73826949354441,5.091638731350137,-8.688541870417103,8.789081487540129,2.3261983758740654,-0.972871345519477,1.2366027039227399,0.5982376122175546,9.9523381298587,-0.5732244119482057,-0.26563807402296014,9.088063948100807,0.039815798384886567,0.05506908984591849,0.08054850312060582,-0.1780478952125883,0.0029934482580496347,-0.5069983544922504,2011-09-29 13:55:04.565286283,4.569438947
49.007441901048516,8.404004179898788,109.55456785846775,0.02834606309541919,0.032483084355498786,2.4228239598253496,-2.8103168625772685,-5.147288317398328,-2.042050820039931,0.16941670301051776,0.5961199032162581,0.6064595694622434,1.2000939890516138,10.618377624913146,9.69847464251282,0.10666215345529309,9.859715125192293,-0.004439310363796679,0.0683183936568879,0.1294392175862845,0.07362241188361913,-0.028454601247971684,-0.04472835203255645,2011-09-29 13:55:04.665211314,4.669363978
49.00946171640726,8.396666829461857,113.93786923216429,0.07267250414843102,0.01471651488797263,2.757475675935388,0.8253051242093733,1.5522095114917795,10.130227190390718,0.36954961747778975,-0.08531076556891953,5.480154398547965,-3.1810498216063032,9.928059860811848,-1.012929469665317,-0.41806353894804194,13.438593333451209,0.039201335663611475,-0.007073314230616426,0.11179912605696662,0.1292069127613738,-0.2563488695560549,-0.19820331124307677,2011-09-29 13:55:04.775241175,4.779393839
49.008092581062876,8.399238884123088,146.15634093599044,0.026140596013790054,-0.09309079844040757,2.862105881110783,1.92479442368037,-1.4457217397020605,-2.3440790708285917,-1.7049518410014273,0.028767039420953135,1.911862554678643,0.8925878953197759,9.852527033816223,3.1651613409570056,-0.24838222979052088,9.580639500178995,-0.13150734520432297,0.01644427235907691,0.13710538486052157,-0.025187774122864447,-0.035881222469569096,-0.054844806520208234,2011-09-29 13:55:04.875228552,4.879381216
49.00915066783858,8.397990824794677,123.01051351546329,-0.001722788371334355,-0.05094398810205547,3.073637932394707,-0.7204218277151908,-11.438416033754356,-4.166415064336425,-0.15039509098529552,-0.14998045405294225,-2.208895815382688,1.3932536672048565,8.174584940635185,2.4288832225714105,-0.25063583703716474,9.236204483798026,-0.028372206287708788,0.0008206240826104327,-0.1545216493202388,-0.13204419233921003,-0.05376761370705654,-0.13327257500406017,2011-09-29 13:55:04.985230209,4.989382873
49.008223380690445,8.396847654792698,117.62537601735366,0.031117244806915946,-0.18602178075586928,2.6937401479776883,0.3116624328359141,29.49817310805111,-4.050090617561392,-1.5157982672543902,0.10644948555378439,-0.41123400450500786,0.20473374168782021,10.730634420158859,-1.1515739994793561,-0.040053283540915724,9.765857478529357,-0.004156607129309391,-0.18559131257859357,0.07474084695152759,0.026228547551840252,0.04539202824394989,-0.06783593381873339,2011-09-29 13:55:05.085149691,5.089302355
49.00765865427418,8.390295907824813,110.85478977212068,0.02176747326742445,0.0003418576439347433,2.9734212633554664,-0.4119730250246538,2.1452816510164827,3.910295930190458,-0.1658726543996473,-0.06856726008326387,-0.5377133962095867,0.7074343687777993,8.431013850461195,1.020550111555948,-0.261712944709216,9.860089364909783,0.23083675749351457,-0.008382574492194607,0.07117554371005912,-0.20621067054277736,-0.116486020223848,-0.12905732699556063,2011-09-29 13:55:05.185149475,5.189302139
49.0095631497591,8.399669948438422,105.61993448817016,0.03656054385382833,0.13828435676057405,2.9130271539797694,3.701795732850729,-1.2857468825699059,6.446491527811225,0.21541432641222605,0.0241200300148864,-6.337907682915752,-0.3504619712332697,10.134509663946975,-0.8351084428035004,-0.5815539898725126,10.692893686153498,0.18465413037050574,0.025207509643339468,-0.6307610057223129,-0.03820408173295668,-0.044350677386191625,0.06826086626357084,2011-09-29 13:55:05.295327121,5.299479785
49.00928740105786,8.403296608440401,114.98378132757655,0.06577967364138904,-0.00946471159362568,2.388415863996999,1.5830746439656471,-2.952522339855335,3.723237110575911,0.06422061180625345,0.09368554815948262,-1.7269567872573939,-0.5104525464277724,10.191157480465204,1.1561858212069287,-1.1252875536655333,10.177230503076563,0.06085368809562386,0.15463348974623325,-0.06111290547347101,0.06844096651527701,-0.18293382750662393,0.05227958139534724,2011-09-29 13:55:05.395156937,5.399309601
49.00968634045391,8.402761870312013,109.74517741388875,-0.00011331365077998229,0.0144453317920717,2.688956662826389,9.787752857883875,-5.098679524537516,7.311374753599314,0.09643775789046452,-0.014623972594008876,1.5597323500778641,0.20074464368667644,9.928653186811873,-0.9912428128438651,-0.552866668683231,10.097068447863489,0.0015282162508136604,-0.11232889919178855,-0.025629642596936744,-0.007773194966182256,0.05097378804017171,0.0011675646676746892,2011-09-29 13:55:05.505103240,5.509255904
49.00887256076205,8.397820390465581,113.48941777310839,0.05361220806704335,-0.01186685249082042,2.447756748297022,1.27561409451211,0.21132224361211405,3.4571384057973846,0.30824899518813326,-0.05236316953100571,2.578003694501404,-0.8676765492629668,9.537058190934827,2.0574420961279585,0.11443419939712766,7.890179341541138,0.0031114293587814756,-0.0033454643890859287,-0.2504651162808527,-0.31093985813191877,-0.06441436499714208,-0.09942750310705611,2011-09-29 13:55:05.605109881,5.609262545
49.00989878961517,8.397179577068295,113.90275768887405,0.28345919891130517,3.410882842519447e-05,1.7165896246919894,4.634463542414505,-5.033824713149539,-0.4961594316229889,-0.01323543656960132,-0.025697818518838886,1.1661600821212932,-0.24513075546807905,10.008200945456082,5.805449664525869,0.5337960129886848,9.682088344638329,-0.008469278727879974,-0.008776033991327176,-0.9470079096064955,-0.05336882446723945,0.023069251299438938,0.015369787727613257,2011-09-29 13:55:05.705133809,5.709286473
49.012240760092055,8.397890020454035,116.1629953812176,0.024476681881040165,-0.05641470435228409,2.9790066067210286,17.145944009919194,-12.104490866452295,2.854865269469494,-0.17995397822164771,-0.11317689517265882,2.4372928712294026,0.47753357378800854,8.643494422738602,2.15344198869056,1.0341521706137522,9.051568732410002,0.020138529827388237,0.03275500870005324,-0.11825159072645583,-0.07093826323746659,-0.061381486265567206,-0.10477329304865352,2011-09-29 13:55:05.815280928,5.819433592
49.009269188651736,8.396807517561776,116.05029694564907,0.07093232546803144,-0.004732196759874546,2.68822142440581,-0.19580183453011468,-3.6829683779776516,3.5617099150063223,-0.17491535596060254,-0.19652128877119604,0.9994623556762822,-0.11672430120439359,10.197123944908888,-1.916284588792846,-0.24407073070371035,9.479595232168121,-0.07868995279950246,-0.14447388757418733,-0.13588163664792985,-0.02478786483548589,0.25155608871059204,-0.20720550602581478,2011-09-29 13:55:05.915101083,5.919253747
49.00766225909363,8.395501971808184,112.5454796304259,0.006784321316456562,-0.09017423156955685,2.5638937857225104,2.1482532509295114,1.602862913780672,1.3921548634648233,0.28699420105034895,-0.03558323640704665,-0.36092101121405784,0.9159117442480501,10.146005062575055,0.8790614859683357,0.5860343799398755,10.526706548264118,-0.0016854968811310603,0.05075978195429233,-0.022880126375713426,-0.08569110476806381,0.03864724129084853,-0.05706030216144015,2011-09-29 13:55:06.025034583,6.029187247
49.014657219356764,8.39821752639027,113.02269068521422,0.034565160935820446,0.06089775085437561,2.5009992967890984,1.2524881570730462,-22.338269748170163,-0.7319868084960168,0.27998529334061767,0.12504931938950234,-1.8799093572169203,0.0582207514404468,9.77259487293801,1.8947078065062561,-0.5003172847164757,10.635108023048053,0.058043970211310955,-0.03086373414353593,0.08596544147553878,-0.14740284314002675,0.206932414638073,-0.050491480925724086,2011-09-29 13:55:06.125039879,6.129192543
49.00801765602756,8.395727493001104,103.12745478608443,0.03012853572929571,-0.18505569577991035,2.8836304020513546,-0.24116781407715138,-9.319241094566465,-2.6417080209487684,-0.7019423956485266,-0.008878808068648821,0.0649727970950491,0.018979790244110006,7.345527875658812,-1.7424148988749912,0.06790407474075155,9.756386137974072,-0.08217175509782834,-0.0008342955986885905,0.06119454030170989,0.04582850660373219,-0.07756765685817951,0.7313005102224691,2011-09-29 13:55:06.225000605,6.229153269
49.00904589317566,8.39895839012607,116.42067853351008,0.04491654875240031,0.013113468762896168,1.6171642970292075,-0.014799049349536908,-11.10580614935501,6.519550943964096,-0.08799328844121676,-0.3262752421260602,-3.339692296657893,-0.47469081783182676,9.197544502636571,5.710490594549604,0.04533168894788883,9.752961011563745,-0.005755470394281689,0.005023702333484628,-0.03179639349693551,-0.016401548358425725,0.06320593901556365,0.001042980725982988,2011-09-29 13:55:06.335111452,6.339264116
49.008148036953536,8.39921118125711,96.7068320404327,0.03537918038126628,-0.009411718757848828,2.704338430159462,2.7250775309140174,18.908369031809436,11.17748943783346,1.3548086597120095,-0.30963188756993226,18.806800439861814,1.7288137423871248,6.897275722818054,2.9420170852111225,0.3359827562543604,10.49441093973997,-0.008799542654726898,-0.007709729630181343,0.019391997999653868,0.05325535164088953,-0.33276992599848615,0.09118546086781712,2011-09-29 13:55:06.434987151,6.439139815
49.007946153058114,8.394939245439875,109.68643755795331,0.09649623419002581,-0.18996116127236637,2.911200427921214,2.3315749847532543,17.003771147377094,0.1406336854814727,-0.5633335122053102,0.11389090254879748,-0.2793967584395766,0.3964797937545699,11.528288984534068,0.9903418145099332,0.5899380288547822,10.223611025381114,0.0763253084886696,0.017728270492616723,0.036332349834018285,0.16033319894197307,-0.04752648841380312,-0.011452025309952138,2011-09-29 13:55:06.545021848,6.549174512
49.00958379395427,8.373037302472566,106.45261458326571,0.058689045773473114,-0.0028916678827574753,0.9376374827755645,-0.27769085241709046,-0.8809104760871689,8.90886048823096,0.08392012022601074,0.023674889877083327,2.3764946803071183,-0.011104277365844739,9.734233019356596,0.12405313713885324,0.9254663236888051,11.953292835644358,-0.04359065541017635,-0.08803176139017414,0.05884114408124211,-0.0014179079346902574,-0.049072653065835345,0.06974458375265098,2011-09-29 13:55:06.644940773,6.649093437
49.009439147902675,8.399569579305219,92.45383744359042,0.03492246147086357,0.05107744840717558,2.570526211846823,0.3891659210153732,-18.12681448331814,24.636305706759295,0.35760982057841073,0.2515538849331369,0.16770546071664238,0.8697502721705953,9.813336361164952,-9.347678112581542,0.17689174689805917,9.003168957613548,-0.02179311255695218,0.19521921475194678,0.1238028698328483,0.0296865591949421,0.009484082277115703,-0.12156957317210085,2011-09-29 13:55:06.744955443,6.749108107
49.00782616791114,8.401848642930434,100.99898799294147,0.025307082333382136,0.024627588498601576,2.572373552654329,3.180343953106742,4.327816516181068,8.858811234080893,-0.37573118011851653,-0.16536537149915148,-0.5787254557587398,1.497391048230174,10.753979860278049,4.1963473081017515,-1.2949501269861432,11.450747345218929,-0.007750012061025765,0.003998669338293778,0.02138572448577581,-0.011407364888758258,0.04566953158255449,0.07873055453951708,2011-09-29 13:55:06.854977778,6.859130442
49.00828870146379,8.40775854047378,112.96136882604685,0.1854248244375134,0.07345206385869259,2.717737540270478,-2.9171407588979132,0.0603878168015024,-4.21465433255833,-3.5094493244740432,0.17036942624190307,-1.007554052970348,0.8360988226495307,10.03642231998127,-0.978192685484264,0.007639393022577379,9.164992228776697,-0.03789973643919363,0.022707233647737822,0.21671031523824272,0.029567324730893886,-0.17780329111308324,0.10355151865876229,2011-09-29 13:55:06.954940574,6.959093238
49.00934887673054,8.39982001068823,109.62216230556513,0.10592912481140619,0.0185011824877641,3.1844432457025387,-2.5585082824838667,-3.264846179902319,0.4053411911629925,0.5086786107598686,-0.09297361906000451,-1.1412326676301916,2.1251483879609783,8.910106063014968,-1.453844276435052,-5.114767364445998,9.234249907696466,-0.046144479170208724,-0.01679557468910102,-0.1310196058706613,-0.5071318791022128,0.02206653975841754,0.03206202148643387,2011-09-29 13:55:07.054909385,7.059062049
49.010153010499984,8.401890254732848,107.56046245035964,0.3223753360549814,0.030727291666211604,2.8026123128137796,4.632295560868041,-12.666789604692362,7.737691795392041,0.1077502533520498,-0.07463678389865896,-2.3124198092101853,1.2034761158456349,11.707137258288734,-4.647480626982332,-0.6100420548988659,11.004416824246931,0.03654215670212404,-0.024411756399293508,-0.013145363102657792,0.06358568131239081,-0.22898461780337842,0.09262326713265817,2011-09-29 13:55:07.164942368,7.169095032
49.00901472316018,8.402677041081242,115.16301654800696,-0.04062856666188549,0.040684525269804754,2.6649358007348236,2.247633646244629,-4.575885533052795,4.127848642197656,0.11492305113707749,0.0639924407860621,-1.4139782949649844,0.7414118309266231,9.739275288880075,-0.27006845001115876,3.846245533601208,10.129010065291581,0.05643901378386382,-0.01641698614828473,-0.0883964598036755,0.15061336732394492,-0.012388384671413512,0.8283990052810074,2011-09-29 13:55:07.264975390,7.269128054
49.00783903233154,8.398783738117169,112.21468487291585,0.06015467376940162,-0.163846712734495,2.5715967487570044,4.356963995317966,-8.160554348714815,8.446826738486713,0.08087067505880932,-0.3922595089654402,-2.0615768609964458,0.12504414547113255,9.675240610460113,-2.7273422684023227,-0.3931668252586188,9.255495822710886,0.011616679576377114,0.0335611255725715,-0.08335641881608642,-0.027590493323707495,0.1849022424074539,-0.11073919725724149,2011-09-29 13:55:07.374897830,7.379050494
49.01318942083037,8.39510335835237,116.58907422149231,0.0752329444953451,0.026222975977389824,2.540963823740864,2.1268962786892827,-8.821477942185233,19.820596655018473,0.1363827097515842,-0.21161860361055645,0.27916194232945823,-0.04699987594370669,10.22538580712721,-0.5869819312021856,1.4706422793331453,9.62312233074511,0.041217236699713514,-0.06472242098372563,-0.10435555238491559,-0.030055191035589818,-0.03855841447886467,-0.026818545300012535,2011-09-29 13:55:07.474856012,7.479008676
49.00704207383296,8.395465492345991,112.23780199323109,0.03332965698057824,0.015176368902322126,2.2337813321932916,3.120776805672482,-5.514442861326957,1.180735836624088,-0.4736476892398124,-0.15793728561124237,-2.1651253968903825,0.31895640999973185,7.90295983805909,-2.484497907586102,-0.6952720603846526,6.675780321619922,0.0187303688293365,0.018032261003326118,-0.09852581449974482,-0.025917019553622397,0.00968691273286012,-0.00607717258818901,2011-09-29 13:55:07.574842490,7.578995154
49.00918137471567,8.389769375289754,106.53246396335554,0.04423768159080527,0.03666622626913689,2.6666120396020565,4.908231319864758,0.305963909785991,4.6096462990662035,0.908101948287956,0.3039319550727852,-6.120005118983329,0.8208178981166246,9.025422933519476,-1.5896664243941236,5.221575347358358,8.34696069721652,0.06354721444837458,-0.01394031619035934,0.17902334936924305,-0.07539796057967989,-0.37847510426331377,0.12045229324278445,2011-09-29 13:55:07.684857104,7.689009768
49.00914861563963,8.395926163621729,104.46205934781852,0.002861377746266658,0.03996898748697694,2.715453068985984,0.8651594989310054,13.056736336719533,-9.050595023239424,0.10823543188756665,-0.02611799608954469,-3.3450102009440377,-0.07874963591954973,9.955303130376764,-0.2392825183961389,-0.9303272201039272,10.36325358731412,-0.00702232528342807,-0.07822142868412589,0.1389278520181012,-0.08358654375975424,-0.3418244142790879,0.2127462777269221,2011-09-29 13:55:07.784812817,7.788965481
49.00966306047365,8.398359446720779,130.76603298512194,-0.011094434930446422,0.015066574576112764,2.768100963020908,0.8495951201547604,-1.2950204326439507,-3.7242012490532046,1.657061207886164,0.02141984947012368,-1.7967072668661208,-2.5764905363959825,9.873184861720796,-1.7809758189318006,-0.3383495167073205,10.536578432799052,-0.23247465567244552,0.0402961109387002,0.006714715854781894,0.035223916334345615,0.018242271349731602,-0.17746793377072811,2011-09-29 13:55:07.884860529,7.889013193
49.01019881329162,8.4022430455815,111.58336684563888,0.0944147387953509,0.0760975062840176,2.6688001608881122,0.7634724829610207,-9.84484158247101,8.372545501128112,-0.6296549548354269,-0.09215964318385511,9.778593840630343,0.6518862610384465,11.334170814287262,-2.9865752319440486,0.49466197379973437,10.335712825572092,0.051153739094204786,0.02224729829366169,-0.27050112666332243,0.39558241357797647,0.015173776998655865,-0.13940579421088434,2011-09-29 13:55:07.994846599,7.998999263
49.01051330395037,8.399309965801573,109.93639614896782,0.055087273474362174,-0.027404126952235187,2.610329961323889,-16.04728020863672,9.355898739929128,4.22089385925141,-0.2541137975667669,0.05734481809853413,6.088171189844804,-0.13889770956953057,9.814390823026574,0.48912693990437384,-1.282419076308198,9.571967427851293,-0.42258098799286314,0.04384827376872835,0.00016681716111166707,0.07255466352258907,-0.012454488519344229,0.013213855121450888,2011-09-29 13:55:08.094927034,8.099079698
49.0130752753167,8.390725435482643,111.53810965951354,0.03793364514996723,0.06762679276962184,2.761833853659269,-0.7808773763550314,-10.425577980401087,-18.540448167645415,-1.6870201327444592,-0.18340871804536604,-0.2838685390385054,1.2708421380764594,9.44544897432032,0.8652404846772448,-0.9206835428886804,9.793639288703597,0.033053375573609434,0.005225177714518456,0.11589562531543339,0.04921525182464897,0.000260443937138935,-0.040463007106877794,2011-09-29 13:55:08.204766615,8.208919279
49.010098053871765,8.4040995055868,107.07205344777007,0.025554115406923955,0.026966226381888787,2.559427745395805,1.9689607253507202,30.565082319453396,4.68857260302779,-0.5181823399086575,0.07841244505743855,0.07579819358646259,0.33319908752025296,10.068504540432478,2.073951204124414,0.5088764341055462,9.63537895588182,0.031001929242465254,-0.06070388729146292,0.0020896469150165978,-0.16790687032610677,0.0197770998543938,0.05244637812341981,2011-09-29 13:55:08.304927272,8.309079936
49.00871589405493,8.400346539860232,118.30440874807103,0.09076124227712412,0.07514098044814005,2.6349284586605153,0.9501921299620402,2.0022268862758175,4.876998193883046,-0.014772430785005817,-0.262235070357188,1.555040246585411,0.3106934726159895,11.033862257708522,-0.47444451800733617,0.09571182967016122,16.199524548943053,0.2511533985027612,-0.026038858180564582,0.031739226429714405,0.017209749082389245,0.084591184325401,0.0020937579813018505,2011-09-29 13:55:08.404750358,8.408903022
49.009080864226,8.40403406720728,116.56938003236633,0.022726549032083095,0.028879214163857983,2.689273041506665,3.2053572198950575,1.8305144930299333,-6.458679347146737,-0.6373260380952789,-0.1574630779227758,-0.6777133186687827,0.6893770270148594,10.376726483734735,-2.0463527685142138,0.5721845483261178,9.336427362596016,0.01993521009363812,-0.275324664349009,0.022528985501345328,0.02446600641767078,-0.05802549261178353,0.12878741980767,2011-09-29 13:55:08.514702828,8.518855492
49.008361035666965,8.415772143879511,115.74592926271805,0.07658863437992133,-0.019428408786755547,2.7445853518124466,-0.011544684442982178,-1.5715695703442947,-0.7985557418421617,0.2270240641934813,0.08087245482544565,-8.714154241007147,-0.5865081689120489,10.425292883110366,0.07019112404177016,-0.032050707451374436,9.228521040247871,0.01418683039594013,0.021731066319213926,0.17110395993024163,-0.03577459050674947,0.00314598144916491,0.07476689773004515,2011-09-29 13:55:08.614724767,8.618877431
49.00806047359797,8.398714934176173,114.48585276600198,0.054755351504181336,-0.023110964145831078,2.5936380096286684,2.50061887791894,1.392195024678938,0.014439202904941384,1.1943237023520623,0.028930206189941358,2.076395204375895,0.5400574305474981,8.927280902644217,10.18069883067991,-1.3969852642683542,10.069390223581953,0.04758718122513078,0.0887619354019454,-0.11630853669947351,0.03681416955183151,-0.21682777959494198,-0.10067723538897112,2011-09-29 13:55:08.724735236,8.728887900
49.011567240276634,8.401395730645739,114.94609721709043,0.026072134542645495,0.01733259867853077,2.547386045733326,-3.092589158043856,-0.6173495319853313,7.320612812355723,-0.4612726208050785,-0.12658170338129632,3.450849729700048,0.21667559715504986,10.29570384887379,-1.632140524677166,0.07817719816950115,9.344006245950952,-0.01665814627388689,-0.00945655386067822,0.107263934126032,0.006618590656194728,-0.07329856610501327,0.1491980169879358,2011-09-29 13:55:08.824891378,8.829044042
49.00141269387794,8.400603349732174,108.76012842694647,0.0339959792459695,-0.09504787622290511,2.7204737209139256,2.4889314531517526,11.736734132342965,-7.676103781981066,0.09549124372588204,0.0022477495092457205,-6.704559308270107,0.5341052098615027,8.248482401840313,-2.012251758877057,0.7502556679343004,9.889211172625178,-0.10236417449515114,-0.03802735382731878,0.04970317452760632,0.010500320073169691,-0.06567266175469888,-0.02456301789914629,2011-09-29 13:55:08.924671933,8.928824597
49.01443418448939,8.395872718122234,117.8844932573211,0.05077080427655377,0.042008728014814645,2.982004804544975,0.3505276910646482,-0.2438572464175076,3.9228859971499572,-0.46961920627036446,0.03345994454902277,-0.7908969195588459,0.40643007093138295,10.045875345287687,2.812518568307654,-0.5613164770462911,9.635135181402685,-0.24753397187448922,0.033234584117271315,0.22167543567715506,-0.04717980206695898,-0.3283671421545169,0.1708292388847742,2011-09-29 13:55:09.034668369,9.038821033
49.008484036147465,8.397529871109787,109.11749054619186,0.05344426997998022,-0.029536603250499255,2.795011297996243,4.776798660324519,0.7174260416110811,4.614969776915062,-0.09060324170421405,0.13480387244706193,3.794974288880723,0.8482460678380983,9.65436883490662,0.5177217337580718,-2.7843819794224935,9.574119652183475,-0.010489570671446024,0.04365194785581507,-0.06767236539736922,0.008721917895941858,0.005857890099514419,0.10031516211072647,2011-09-29 13:55:09.134625133,9.138777797
49.009749320637795,8.40044467758083,107.10468797736154,0.010545647955708372,-0.022800320591230817,2.7608882661819534,-1.783034230303192,-11.987898552675173,-0.38465200320664417,0.38888741757007866,-0.014372849960000402,2.4250219910607704,0.16909674680971543,9.10779499998486,10.052174384666708,-0.18098940839636316,9.641691307875005,-0.0385693271873293,0.003472184250251003,-0.07679862714810476,0.02812757129698368,-0.038937635214069025,0.06278853364724835,2011-09-29 13:55:09.234639576,9.238792240
49.00854640015102,8.397263205914356,114.28728220087827,0.03289989501782702,0.056122268965918,2.5839708595107274,18.441995848108235,-17.87202737853759,-6.356737389944053,-0.6397247129004712,-1.07066989620651,-1.1889033501790354,0.9646200214040443,9.620319767634284,-2.0237939894479045,-0.673271864460015,9.156485231790745,-0.01717603654601718,-0.024224382901072074,0.4312564922913862,-0.023339842992279692,-0.033386309977014444,0.11244291182177182,2011-09-29 13:55:09.344879907,9.349032571
49.00765689851092,8.408400104396211,112.45523686724151,0.039588536002810176,-0.003439868099378526,2.506275967059097,4.227211788174806,-24.980464572368973,0.16092917646361282,-0.3587416890905807,-0.1430622146939589,-1.9199479372664983,-0.12398163303733634,9.750914198761494,-1.0456594050502517,0.29749108841534055,8.951796680282166,0.042707892562549116,-0.04961272915589619,-0.519006900915243,0.21174038910047438,-0.40142360049181436,0.1398613069137785,2011-09-29 13:55:09.444601691,9.448754355
49.008055021186436,8.395332300670923,108.16068065769669,0.04512330879723459,0.04127224599902945,2.6353479176839425,0.5822322061406456,-27.716535241136086,4.826110440642447,2.177304910170967,0.14843305955819355,-0.43966100712362743,1.1220685530486612,9.758128224571651,-3.6343206799433796,-0.33182114185382633,9.017970796246377,-0.024934511039272376,-0.02302643729949424,-0.011300255134810151,-0.057447422809469,-0.0667722306547717,0.025241211880596963,2011-09-29 13:55:09.554600768,9.558753432
49.00858820689583,8.396436340355505,103.24830426035096,-0.01420412781418981,0.005830307058935304,2.510481578358078,1.1182701802953083,1.7079635958960688,4.096829143338031,0.3248790627413639,-0.17922160887851168,1.7906863830176258,0.9949231068917219,10.234520919107746,1.1539819016958242,0.8985874298067127,9.064969680236903,0.04305599270149603,-0.0008664393136615456,0.09509249220429072,0.05929603216144713,0.04876605842231555,0.08171878809093205,2011-09-29 13:55:09.654590874,9.658743538
49.00900579900518,8.397940451660665,109.0235721029637,0.3257995944830656,-0.0025687751227686747,2.669686773868361,1.8665048259189392,-3.3807697424515073,22.51936877589374,-0.012038900568225555,0.03922440911476251,1.921182900963817,0.0729768114528711,9.070894153965638,2.179141851573763,-0.9077568469082988,12.235119375094495,0.16686320924335482,-0.06537331998916165,-0.039882041671719146,0.04175558441816435,-0.1958875267094207,0.04657196716199985,2011-09-29 13:55:09.754571515,9.758724179
49.0089693668974,8.396401741339064,76.3739905244278,0.1363832807995528,0.016659651409062705,2.5634160127376884,-0.20009280626387638,-2.160017636680446,0.5654573880696228,-0.080001848455383,0.0491213963966283,-1.842688315017947,0.17307482838218902,7.797608990920348,3.8288563601257333,0.6804365778057004,9.77053677833861,0.020527324512769708,0.023799688454117226,-0.8093597940572894,0.18601715793940435,0.01674850290436743,0.16104606997769194,2011-09-29 13:55:09.864615155,9.868767819
49.00950656744591,8.398801073397372,111.8523129384188,0.058655351540363915,0.04741788067206372,2.548247370495524,1.9997571591390582,-2.336361685139291,4.707692237251604,0.25114250810028,0.13203569265047982,24.10600442602542,0.8569805279942981,13.836123894393,24.70863799314509,0.17322704058275845,9.717555784140316,0.1510680515295103,-0.013035781859076757,-0.12553488178970673,-0.07488579379077229,-0.20148560655599265,0.009246019363152613,2011-09-29 13:55:09.964587092,9.968739756
49.00774460270341,8.40271604343873,138.6565804740526,0.01155021426046484,-0.04684666697441863,2.5893752620741566,-0.7056812775121648,-2.3222958709529014,-2.3016721865093457,4.317013147978659,0.1697705384284019,0.6290932164617298,-0.30597050853765306,9.681228365073304,10.131448007826595,0.6476327681399497,9.922271281480176,0.00438800174797107,0.005661061176047395,0.174318422160457,-0.05427234977180255,0.05551477648323342,0.14814320312712803,2011-09-29 13:55:10.074525649,10.078678313
49.0091560948017,8.399477156150807,114.98281214796411,0.016134983439195914,0.006266824578844787,2.8827892381662266,2.1064818895892063,-3.3376217924538674,-5.777330526099705,0.14133400681166355,0.0417464904733772,-2.432625089734795,0.24933324148721936,9.669683381610419,-2.010488630025056,1.310283989879612,9.168937114203242,-0.06684157614220658,-0.03592611579389324,0.22188653865693317,-0.06713691538594693,-0.02190482284465199,0.5471245424380072,2011-09-29 13:55:10.174521312,10.178673976
49.008954768669085,8.40076499546856,108.63736465984344,-0.0005844104319240456,0.01889514411737557,2.62399169943101,3.3403890898477817,1.8961716319297148,5.54609036507059,0.442259023029996,-0.21960775357585655,0.21188923734374132,0.716391840438715,12.121753892636388,8.792505361028168,-0.3137768350944704,9.695828817547316,0.045849878928193206,0.013756442662271676,0.043527495197022245,0.002480485087114449,-0.05931093212387369,0.0705944151628433,2011-09-29 13:55:10.274487949,10.278640613
49.009722373743564,8.398530063436159,111.4404287236519,0.08094834615094774,-0.010938859945865902,2.6612326120408265,1.0078314022096904,-3.0998570860193513,-15.356745133900084,-1.4593593873857484,0.006556236015384043,3.9944154445240216,1.6974482225986542,9.950786821162229,-0.08099624277461759,0.21653750374650357,9.467598196110034,-0.014303112238767433,0.006839911237124938,0.17772882904465023,0.0024318971826479277,0.015137557355542505,0.2083532408303591,2011-09-29 13:55:10.384574692,10.388727356
49.008137417843024,8.394824673189373,116.28556977323278,0.008146465417314917,0.039955021627497554,3.0271274871261986,1.6695977470342314,-6.232924253690418,4.797291348079926,0.004147656514438949,0.03945594227087681,2.3542859114782164,1.0634428712760184,9.931534511315622,0.9633175423345657,0.8839616746565774,9.378932270112486,-0.15949513083623512,0.03360775319659384,0.005910637225107124,-0.007105607714370236,-0.009692968836608064,0.17027981995949157,2011-09-29 13:55:10.484489676,10.488642340
49.00802509384471,8.41434072869774,112.22911350006422,0.017275603091902725,-0.017219991209599644,2.9892494986719504,0.9670151225784307,-5.991573892516352,8.778278974637464,0.5077383903365812,0.021608660559653336,-0.06132840500396486,0.8589544330337027,9.376425361670929,-0.8912768560291107,-0.09865229890680458,9.157335700922019,-0.2116536574062593,0.10594875218703559,0.13604360985637795,0.022066945428425574,-0.022107405686168626,-0.04197157806503682,2011-09-29 13:55:10.584511832,10.588664496
49.00902458704527,8.39752718585765,115.68381410226438,0.06108591824911085,0.006744443179675674,2.8730140336834427,-4.862792498222253,-2.836188852550534,-0.7612723970485056,-1.5708092781608987,-0.14130166213393225,5.578275831676679,-0.6281678229667244,9.881952631132181,-1.3707162661557315,-0.7975798069682255,9.841339755270509,0.040034770944167436,-0.1889795428518662,0.09554715430193877,0.040378451435589484,0.038209183198717,-0.7623433215885529,2011-09-29 13:55:10.694568556,10.698721220
49.0039869821212,8.399315429549569,114.34970781994438,-0.0055665815100293045,0.0012656032879733564,2.7920942552725823,1.3563962627168906,-5.025218411340751,-1.1925651723269044,-0.15163246523568008,0.037770130560731724,0.9761051954415332,0.5069965746147744,7.641959187738872,0.1665148017653767,0.4765319921113771,9.827661233644212,-0.1550568730781633,-0.16463635174981125,-0.01314821331564784,0.025587463578881607,0.01046545061896042,0.16467056843603797,2011-09-29 13:55:10.794563928,10.798716592
49.009996288005716,8.397075136150256,113.88170638280504,-0.05219681420663746,-0.0021176617644974804,2.9521611721797827,-2.3604716442780673,-4.389516148891462,4.263025355150558,-0.4612307424744757,-0.006443503441053736,1.573689988585512,1.512995037623257,9.774250095495098,-0.33860217524910996,0.9431757503606631,8.839519768417524,0.009453060617974,-0.0382310105076845,0.0136051496026168,0.023756521784803017,0.05349082641480805,-0.09659300899276024,2011-09-29 13:55:10.904464251,10.908616915
49.0095581771726,8.396628753604931,120.22638084001248,0.02293498513583537,0.025084319827981812,2.9633718609392794,-0.10462183815675363,-0.320577094024562,10.089847315971422,-0.3556571029591316,-0.0868542508636632,1.4332816808400914,0.40466295502717675,9.244339335596385,2.1981797657439057,0.6977419995042949,9.883750890326235,0.10128335741257351,-0.029824945812061545,0.04272713991639373,-0.009047748567871274,-0.00040762868725120706,-0.1685070422211594,2011-09-29 13:55:11.004411720,11.008564384
49.00731369408635,8.397236551327863,115.1842676526667,0.23953927820019716,0.023221603128691606,2.5750545208049767,4.08708942939166,-8.581068062843139,4.8547208678319596,-0.6807735972976448,-0.060771796152920624,2.8984019157319167,0.24985434039832044,9.736982502037423,1.1476305448367479,0.2593435668880935,9.51276832345597,-0.06353855720753904,-0.26025059023325947,0.1458682659957518,0.011538315497905866,0.15307699730819616,-0.15557572824240481,2011-09-29 13:55:11.104427485,11.108580149
49.00939103195073,8.397715236556785,105.58455394636893,0.013860298243123105,-0.027559478405543125,2.5471425334517805,15.094519033138793,-0.32636749778885,1.2775860466187583,0.07787382627202113,0.09633809931458473,-1.7664455297020647,0.7559949104321906,10.742742893030387,-0.7194262227737529,-0.13047043440693462,10.331427763445262,-0.00016495979878150893,0.003349117877849927,-0.19516312626428772,-0.015795352675107732,-0.040654907011498424,-0.10090942609624792,2011-09-29 13:55:11.214375442,11.218528106
49.0176657386242,8.393294827173584,108.05309850014662,0.08900745144845068,-0.023217776202697674,2.6369962893364565,0.32369948053949615,1.921414431911555,3.972837414535397,-0.07871461129307572,-0.04256189741356081,-3.3496745995399775,-2.0842630850105737,8.618694393026075,1.719377407573263,-0.6314036201815443,9.365401410007653,-0.00377820001525303,0.04030170540487758,-0.08362410064792315,-0.005588943527407836,-0.05247548556253251,-0.09420593413107292,2011-09-29 13:55:11.314543798,11.318696462
49.00468504629262,8.389468760048864,104.1439606033776,-0.026896102137983477,-0.014035971373082367,2.624660223626063,0.5729775370204728,-7.80102787687476,2.4252962789109658,-0.3922147073038356,-0.7900207643280058,1.9506997210725505,0.32975703136701584,10.116639071036357,2.6620732853847318,0.4354409582353389,9.473200038481593,-0.014838292264033659,0.034277597374212085,0.12044652213022895,0.03648385022702775,0.03265510930709158,0.024756359885260645,2011-09-29 13:55:11.424348345,11.428501009
49.00805693798734,8.396534087456356,113.98049757704514,0.1274673592129248,-0.03164790910685655,2.2337100087844846,0.33779340013166725,-2.021595588486331,1.5167616068713736,-0.19289647612304173,0.09823673532552629,3.6630720205809992,-5.157793520368344,8.329368841162857,-0.6803426387614135,0.061711513422788467,10.598394390285586,-0.1842280964448852,-0.31385274530866286,-0.12184354331877832,0.020199662680609284,-0.0982220917888913,-0.671641498350788,2011-09-29 13:55:11.524307029,11.528459693
49.004447648618715,8.392027173303442,109.38918884653306,0.02370981722792838,0.01580388825405543,3.5110311707497863,15.765920070015188,21.57826714431551,2.1358180069321215,-0.07859282860524616,0.27564875948051576,3.0266299545863555,0.13525875420224792,9.655496278926783,-2.3722163597046366,0.06366372375821504,10.458003816465924,-0.059443729753055286,0.07281627511126369,0.13099370718694495,0.009027047034696305,0.03581934493903735,0.12530615278831134,2011-09-29 13:55:11.624312204,11.628464868
49.00823327433979,8.388553811179982,113.15500450266482,0.04248245912011511,-0.09580802340450008,2.9761920146170344,-2.078762572765703,18.14144849358893,13.830363126715456,-0.11061200299849025,-0.06815245468344719,3.706361012368326,1.5050466371708735,10.153371341414529,3.36090434339207,-0.6909070875899225,9.337848389100424,-0.06102831315836881,0.07372429648988046,0.09579467220891726,-0.009894730014550967,0.036202039445716594,-0.0025265425648330654,2011-09-29 13:55:11.734309502,11.738462166
49.008999063896205,8.397128722107349,112.38290549653911,0.08959107036922162,-0.05764207681587535,2.9670190823873868,0.7347739989046478,-13.224341763379131,-1.9536573169623441,-0.447749381479733,0.02809900803886095,13.07624195403059,-0.08349763154521486,10.947408941124056,3.008934075972356,0.3863041873842622,9.947581715755053,-0.032795628464842186,0.038550087966887484,-0.14928915627737674,0.09867436281351082,0.023302786448118305,0.07839005173938852,2011-09-29 13:55:11.834354622,11.838507286
49.010385685297166,8.398710094625061,117.31290790426154,0.0048140955308718855,-0.025737058563343726,2.6285709296834066,1.6946536472123874,-2.866560232453795,2.5476679922332037,-2.1451545976481405,0.012581093085539573,1.4102199573135352,-6.045365579110709,9.272853822312484,0.6544196072118734,0.8517529213715377,10.187030227418001,0.22853758388017598,0.04217549035970549,-0.06214595579559184,0.051871285426990744,0.05633140591823223,0.02560436059861909,2011-09-29 13:55:11.934286457,11.938439121
49.00733726754131,8.39906353328521,111.85694699391941,0.06707491491503853,-0.0038883854866028963,2.9321365338322933,3.1990338926696946,-6.757106993940903,37.112709898389554,-0.5425484981455988,0.05493446467709229,-0.7615201957759207,-1.1347304396836506,11.9225855660386,-0.04883430045438614,-0.3681225820740913,9.982488513385135,-0.1303470495226379,0.02485191624461503,0.528236447346017,0.05241982402648254,-0.011530972117420393,-0.14869575945952757,2011-09-29 13:55:12.044252175,12.048404839
49.0098311928856,8.398809921465777,118.21521223987138,0.0284819175728087,0.05568347297528041,1.5783187560042582,4.158434939470448,2.1982956008411527,3.5542993055971746,-2.400107290913499,-0.06614000534863554,-1.1360829087699076,1.1489724611194716,11.334286891774,0.16499463503828654,-0.42180483440555305,9.354612520827223,0.03140776201265378,0.03990708629430584,-0.04993307213817678,0.0019104074283779115,0.0668665290208018,0.04584691968689611,2011-09-29 13:55:12.144263817,12.148416481
49.00841865480448,8.400432918438238,115.65407349389214,0.01622137710577573,-0.023652418483743977,3.8816922100454128,-0.657754581052324,-3.7328478396713725,-6.5172827252504675,2.342914529154082,0.11562862091487366,0.7427233221669386,0.9546445078741908,10.020285513821458,-1.3387546773627044,0.036460263880089064,9.249060692413801,0.02067452317179199,-0.007212980107704053,-0.00740533288051887,-0.05895850475506547,-0.007706217930727524,-0.10738317911875268,2011-09-29 13:55:12.254214496,12.258367160
49.006526497953814,8.383580566712112,112.83286406543363,0.04142575279564474,-0.0037429530743255564,2.9569853161863073,-1.0799475126856104,4.830862917512279,3.6241404102980943,0.20487747884168372,-0.7350811656340954,-0.2298786837085405,0.40328846181345884,8.714698270194443,-0.9491191030093289,-0.08443356107812389,10.032440358903347,-0.003743699383415903,0.06745112909561773,0.05600635419653192,-0.05193857332773521,0.008486159582807809,-0.1279576571208251,2011-09-29 13:55:12.354264946,12.358417610
49.007735825455605,8.398110277067012,117.47428732236665,0.007318063710990651,-0.005175915456723381,2.679161558741962,1.3353934900655935,-0.6340922284698141,-1.7746271150334372,-0.19833000246136714,0.6757491855653959,3.1735801975218005,0.08777532259184176,12.33954972715324,0.22356417508896,0.7284793352841432,10.159358857644394,-0.0695698353856305,-0.0172767862303603,-0.3434631884085944,-0.06230526481861311,-0.01801410228936912,-0.027038453982954458,2011-09-29 13:55:12.454223537,12.458376201
