lat,lon,alt,roll,pitch,yaw,vn,ve,vf,vl,vu,ax,ay,az,af,al,au,wx,wy,wz,wf,wl,wu,timestamp,rel_time
49.05349920422979,8.426656514346572,109.74126982583279,0.0029026115470659475,0.0042955714347258245,2.61578340129586,-1.9519058926642803,-18.214476689719923,17.334512374644518,-0.15627308458835365,0.98940822695061,0.24252539559659325,-0.7142578568373104,9.676618265347964,-0.3831793844008641,6.288356290906869,8.871429772862257,-0.030819457275114488,0.0021715699470368716,-0.0075699151772841335,-0.027334599756555267,-0.008347441803499304,0.02135211081439444,2011-09-26 13:22:48.945746808,0.000000000
49.04987152770966,8.423014895435507,109.25822172868384,0.010435424029775806,0.025498924116154197,3.1424732590515094,20.596544962760188,-15.299737811644276,17.26900822081061,0.0829533676435397,0.5122278626166892,-1.8079979270019844,0.9279457656927559,9.278652599818331,-0.6294133761852037,-1.3548375318932238,9.158892075143436,-0.08324337202882032,0.010522097835795555,-0.3552014621332584,0.0576057170652173,0.010415083888543166,0.11985606652415877,2011-09-26 13:22:49.055763018,0.110016210
49.059121230397096,8.422575032865446,108.27226471884084,0.02398506951843933,0.02472115583752267,2.8407957924154648,16.580310350839948,-17.35654173450904,16.71246323456424,-0.23037614575115067,0.14337377358274506,-0.41860894988859343,4.248992234055311,9.857279339707251,-0.4384848525308135,2.248434012363968,10.338668032298457,0.008684943482175625,-0.058210794901371696,-0.10222467548086156,0.0003176115802351748,0.024718843498827976,-0.02650832379369367,2011-09-26 13:22:49.155811026,0.210064218
49.05495228147893,8.426474119149104,108.79492816606582,-0.30544462374739484,-0.002436833958821591,3.243210549675404,6.141473822498751,-26.03489421214121,17.278867804581008,0.003492993063525157,-0.03569666880447428,-0.10858309382393477,1.863571726060799,10.446793500342528,1.5338670430516443,-1.292040590913563,8.699384828211956,0.07012126601259874,-0.007174784985203752,0.034138487445500985,0.055563785275777454,0.14962655144096404,0.08864891912439818,2011-09-26 13:22:49.255922990,0.310176182
49.054072412920696,8.42283898940381,109.71219400139341,0.006865006209035976,0.011025975294944602,3.146826548486913,2.318411454505683,-19.976210230508194,17.56998796430261,0.19928653922335343,0.18126389768889134,-0.27602727754460726,-6.833730847542274,9.76492259537774,-1.391824779669894,0.5434157065982697,9.426758370963817,0.020648360158785274,-0.05768554354498108,0.06272882113720736,0.059529826177683855,0.03458339875050339,-0.062294023912291864,2011-09-26 13:22:49.365738649,0.419991841
49.04925001138042,8.426308763418062,110.17476427625319,0.04725834969293499,0.010947505720801845,3.1912123009382123,39.82342666308281,-1.5230129543882729,17.573726856553368,-0.12098117747172768,0.0879484603443302,-0.09832991089136373,-1.3882277511608732,10.480531053556573,0.3335671819326371,-0.49190271044284983,9.770163875814337,0.0016594357917658724,-0.016366490109662138,-0.01670863279159005,0.006508716073177858,0.03302902261271065,0.10256384569163908,2011-09-26 13:22:49.475844757,0.530097949
49.0585181615515,8.41882548515367,110.9582904702257,0.4054061623183326,0.016090877428465284,2.1627359284670424,8.857494821619163,-4.900164359062929,17.17757821639684,0.2015385539968079,-0.032138707503105775,0.20525044232528786,-0.8376512551465839,9.892706608680818,-0.1436134151591738,-1.3394851351911832,10.113441597825581,0.02004997579475476,-0.01332851360493468,-0.0009575051003168841,0.0018527102561057252,-0.03371166059585237,-0.0769516718705666,2011-09-26 13:22:49.575789434,0.630042626
49.06162379209493,8.431112628009913,110.61402522462107,0.035258305121989436,0.014288792113229414,1.5204517862654952,-4.305512365931462,-13.032725954181593,17.519079239980144,0.3262236339330069,-0.03002108575443519,-0.37969094289515526,-2.673598420803372,10.648663974102675,-0.2246912285199579,-0.543134575865929,7.248761508300152,0.021983854315235536,0.019224110145841126,0.022758619322743208,-0.008717681120947923,-0.0254702682487765,-0.050306067813921336,2011-09-26 13:22:49.675847621,0.730100813
49.05451056233885,8.420276498838033,110.32733315300152,0.04564675540923469,0.015459772259149563,2.82889220433533,34.46466046065357,-23.252145082002023,16.97403625200764,0.31727845638010116,-0.11670514927316968,-0.5568461062933144,6.7908172120247565,9.93665209630527,-0.567074209604955,2.3432737588222707,7.797338446084361,0.00452347344112187,0.01522796792059746,-0.009854998313723032,-0.0209732741577598,-0.02690152338000769,0.2826616032748643,2011-09-26 13:22:49.785805956,0.840059148
49.04807271027748,8.428242625157667,108.19997107928609,0.11305530986683306,0.015520890593412055,2.3912347506803004,25.96981294443948,-13.96844767840267,16.84068707749607,0.4766313252449117,0.09974879267407281,-0.5083142538412434,2.3585172023324517,10.65091913059913,0.46734089877718743,0.7921860137803235,10.240418674968245,0.0021913999944700112,-0.01385265062889875,-0.18437762750098655,-0.01657993063670178,0.008809205672770722,0.0014592208498874254,2011-09-26 13:22:49.885824378,0.940077570
49.04835591812321,8.43233653941281,109.75448264171193,0.10625973085450134,0.0012748206561888778,3.347706310824285,9.776252544965402,-8.896489490102748,17.00114256588214,0.0003147642788324384,1.1073400965908042,0.21310447919983339,-2.9232962442927706,10.182043192516028,-0.5868731945250101,4.768003465469002,9.463115098488277,0.0195688264738635,0.02558364631880666,0.04728690561719709,0.016844126765519475,0.004342488723467576,-0.08150225127239197,2011-09-26 13:22:49.985813996,1.040067188
49.05817007716463,8.415933240616228,109.4023237064709,0.05441015506559008,0.004677620535758861,1.8929466048215269,63.704208393483256,-19.46486347304777,18.50827543780836,0.27719658214374876,0.04861207761618195,-1.1326975704331428,4.264666772713485,8.609202529909528,-0.007335152442552728,-0.5910914098411786,10.060363593386578,-0.012051983275421323,0.06271149075435636,0.17618379346848628,0.02686939762268789,-0.0026999343469005085,0.1418535828656012,2011-09-26 13:22:50.085802410,1.140055602
49.052024677516904,8.417861909385143,109.46315199964357,-0.03027533620086155,0.011244733102610732,2.9847341319541307,11.565594614252362,-41.50170174498734,18.284063924586185,1.950181544446147,0.7446253325503013,-0.46848679787824865,-0.6600530384851813,9.676755949466289,-0.28376255104720616,1.7394506928915312,9.59871150044664,-0.06027111012442077,-0.18978313190622456,-0.03576032374580835,-0.021903124447023033,-0.027469333690773562,-0.03400225601425577,2011-09-26 13:22:50.195818913,1.250072105
49.04541438703767,8.417641398027097,110.20542403665843,0.033009510594109046,0.014619464615860766,2.44007402274717,-44.73711216894712,-1.2297648436605737,17.571107157614165,1.8933610261229505,0.2680639000513546,-0.3015784454292647,-0.2832146479502089,10.3802497818916,-1.3559189761067447,1.958478104742564,10.13118716127996,-0.009747176606595815,0.013708925241545919,0.025363940443225517,0.0502705730954507,-0.036966011730022556,-0.02034771845606845,2011-09-26 13:22:50.295809380,1.350062572
49.050450974988294,8.41946284383616,107.59145488509981,0.06157699573116826,0.02049788486109389,2.7653242691034032,10.137064865906375,-11.99741729828002,16.11024303471824,-0.11885350490808619,-0.0005118060388107394,-0.4946554451645295,1.3131500749743632,11.03880911223223,1.9522809756131065,2.5564616967619234,9.840252054118112,-0.016353677981006863,-0.028959364780172227,0.010605381272161842,0.012276375948088503,-0.01788732867215148,-0.05008766559230868,2011-09-26 13:22:50.395867647,1.450120839
49.04264553265845,8.42510157000595,109.55816654867719,0.006363452811699262,0.018556384218303298,2.4526352643297766,8.596942225020701,-25.000707460819584,16.96150148068567,0.2147535779546166,-0.025797965935279353,0.3039806769577142,-0.6163756287946707,9.936373214918758,-0.36114252526311685,1.6699852477308021,6.861703239919432,-0.0641564199604649,-0.0328011237352143,0.048919350853391545,-0.0641579450708148,-0.023081093620110273,-0.5783671634455074,2011-09-26 13:22:50.505834311,1.560087503
49.05796851776994,8.423096596331915,110.41015049407486,0.05640194257313369,-0.0018425159275649167,2.8217301940647683,8.385661562502403,-2.565892412498396,17.116933746635567,0.3026935746492553,0.05759146618969233,-0.24150863601070305,1.1333882980130217,9.573421872231815,-0.4375663797254325,-2.0652297173855736,10.05434375919593,-0.026198926227451024,0.006519527455930931,0.15104121169115972,-0.0373792847292911,-0.012903653933490375,0.01609293118495636,2011-09-26 13:22:50.605836335,1.660089527
49.05614696871512,8.424470968671953,109.96683463099461,0.012065803659402498,0.006579550800256503,5.199156661208258,3.0001814197759282,-8.821371177212406,17.058978753378355,-0.0037094418536222466,0.051489742045739806,-0.5375059268653504,-0.5930866651492568,10.161061328453146,-0.5331094645948382,-3.0742224987838833,10.01444098667064,0.016536121571067198,-0.00410498779681452,-0.03022373449122755,0.04996725296848632,0.01803851285321099,-0.01519632252005163,2011-09-26 13:22:50.705896358,1.760149550
49.09375846869753,8.423845511090482,108.87205832922676,0.12924511552436418,0.0022365355221403236,2.3466262289214557,5.457798078849132,-12.899945079635053,17.622305222082396,0.012594188467862108,-0.026051526823541067,-0.5497392740631093,-5.320604302398866,11.250546918146467,-0.08451510591954758,-1.2505045955569811,10.017750577167575,-0.033557220924416584,0.029723440765188774,-0.025653033100728626,-0.012128972761542334,-0.02463400350579721,-0.13297177179946662,2011-09-26 13:22:50.815896574,1.870149766
49.049378667689574,8.42669843607151,109.00639707802294,0.060986524275076136,6.12777227671571e-05,2.3665271760620175,12.181343320998014,-44.09531577763417,16.682825617170536,-0.03067865527238412,0.037180335427380716,-0.7311016753581716,-2.127615219776233,8.849652888379433,0.20459333106983174,-3.2416190903405964,9.573406351793436,-0.013281930889223335,0.007776920128615451,-0.156428882147614,-0.002047234331577795,-0.008252404408639589,0.029753196938100072,2011-09-26 13:22:50.915856822,1.970110014
49.05395541239346,8.422573716868229,108.70160218021758,0.04963161751404695,-0.0006233175337401475,3.32370164158991,-0.7092278465277726,-27.730386693897294,16.04135018852699,-0.9631364830862882,-0.1405440612492286,-1.523488432186951,-4.135324298713839,9.74606125277091,-0.04689589601826891,-2.0744106525343358,10.074656268038613,0.034253729248130374,0.038712949958958895,0.042943463006177615,0.02143397923687381,0.0004666554123568384,0.06830701541425044,2011-09-26 13:22:51.025845497,2.080098689
49.03251689378904,8.4278292877075,109.87870505826608,-0.11034485458292936,0.012960492249013833,3.2266907927249244,1.913242871796201,-30.53739435141726,15.936236028441535,-0.1520809421456351,0.2664271227811596,0.27019706998726023,-0.1082837448944644,9.766898732721694,-0.7670666208891318,-2.6134012098637935,9.271932138331739,0.01623533755738302,0.004220953659126536,-0.09960411356739798,-0.012739508497318027,-0.11200696845532758,0.022293124941527832,2011-09-26 13:22:51.125838107,2.180091299
49.04607596952556,8.421404354997572,106.55315520852196,-0.0037379460255332134,0.007693070615335168,2.395226869961643,16.016633465362744,-10.05206624905544,17.552008801147483,-0.18306796557175062,0.07454280787566755,-0.2403867884957791,0.7488448995534026,9.826458990029925,0.33784011432478783,-1.4460939849199184,7.125603172430946,-0.0046587870968506214,-0.006006960027767705,0.6420619596537017,-0.07751059605101221,0.021125847587633195,-0.3257697054775735,2011-09-26 13:22:51.226062865,2.280316057
49.0517500454932,8.420814047967424,109.5831351732249,0.034057407328596925,0.022251578025421704,2.6943367852691775,6.135358485441086,-5.798960008061249,17.017246037933845,0.2568374929891691,0.36892261548098865,0.3369882233909296,2.6725327394992027,13.11244059525923,0.2140470995638631,-0.351557271262299,9.834981153899157,-0.030909716942295593,-0.009331814319340322,-0.12170630094147458,-0.040445239057155316,-0.041073807983390304,-0.07482599718924962,2011-09-26 13:22:51.335892235,2.390145427
49.05157286782889,8.41466766283271,109.81395058805532,0.02800958156901516,0.023122557869344383,2.5004460956135124,0.7507493887774483,20.155436359601524,18.135301453759194,0.16959812297654941,-0.021663113406715246,0.2457670362374323,-1.9601578477840516,9.69012617147836,0.3653786952568687,1.6211102373271005,9.647827550563788,0.0008686028765245097,0.013386621821972063,-0.07589750498618783,-0.044468716096937214,-0.09963439811004891,-0.2298533196522362,2011-09-26 13:22:51.435899088,2.490152280
49.05178695709834,8.425452403905027,109.03920605452593,0.10116915322882106,0.011919735378987741,2.125084046852077,4.460953198433655,-20.40921079230921,17.50773890338078,-0.1380401120356805,-0.08745371325295745,0.35153458097952206,-7.825071409753357,7.9584171283294,-0.282078693443648,-2.565682732359845,6.50532603535641,-0.015119742289003528,0.016945356167621585,-0.21759440137635594,-0.04260353359571441,0.07259771605525567,-0.10545412519570159,2011-09-26 13:22:51.535872612,2.590125804
49.05312203192608,8.424215546103603,110.14316597356718,0.01887336074642627,-0.0065816659479198125,2.5224140107412976,14.36661312010129,1.9479349590595572,16.839113770707506,0.223029883955923,0.256175117227349,0.5484318764609664,5.82461067501605,9.920508001740226,-0.37263948744635356,0.42269416871052834,10.09439501497274,-0.013047622542401396,0.01724496522656888,-0.471415113603159,0.01046418047595134,-0.0065012484771367765,-0.005099555377192179,2011-09-26 13:22:51.645859362,2.700112554
49.06166805990049,8.428279959128062,109.91270442586436,0.027407879564669516,0.06096111358688199,3.3494876388636508,12.863352667484065,-41.74062425690825,16.140426151511157,-0.6174623213442805,0.009169636581404997,-0.8213928710787533,0.06256288820415079,9.78883303082342,-0.12865753725795248,2.0412712936108734,10.132283291450587,-0.05484981041622908,0.01639577022288098,0.46239584803706735,-0.0008504049211321852,0.019692221503692618,0.7437526191015635,2011-09-26 13:22:51.745918474,2.800171666
49.05133981102612,8.405246540277213,108.6388002952508,0.000760373609762971,0.010776412385972807,2.5132008374538297,11.354577838933409,-11.76174379617127,16.429543884084406,0.0112685086318922,-0.5809114240810723,0.06576207401888501,-2.495423838296583,9.91319803155866,-0.3425940776739532,0.9428007006850552,6.386199548153057,-0.017077714274575693,0.004418684425774262,0.0427586197683526,-0.03327961427409569,0.045232369904319746,-0.11233779495821936,2011-09-26 13:22:51.845901771,2.900154963
49.007063444962725,8.424831393455955,110.26159620526518,0.08324214481918502,0.015132131724863385,1.390146910053646,-4.958202376370869,-13.784641096352857,16.443757719059406,-0.03790073814194565,0.16844914694990312,-0.4314065807192528,0.14137535651009048,9.508793767407713,0.08855260449587615,-0.3379729512133792,9.94566621140685,0.028157101219432774,-0.04514540414245853,-0.10812200943378819,0.0054816381920621444,-0.041690446565072196,0.052390149702400385,2011-09-26 13:22:51.955904540,3.010157732
49.05619677490508,8.421633437949165,110.58288494771645,0.08040681770450686,-0.013307046368516467,2.4108155608300135,-43.12773409569783,-16.894495816143582,17.17577823653078,-0.12999932744004394,-0.03291061656814011,-0.48935047892674044,0.12130997170383151,9.316017284670858,0.5711270991721661,-1.9049713590045514,9.737368903400167,0.012893034423995633,0.015557298294324208,-0.4668904707437805,0.02509404294022237,-0.021875848402792466,0.2800727280735046,2011-09-26 13:22:52.055879178,3.110132370
49.05010857694738,8.417539463963152,109.13186662009925,0.13183929224515964,0.012722584209274832,1.9653743553778735,-1.2931126869159488,46.09271559001478,17.373489424317082,-0.027513356122830426,1.5600770420713017,0.057507801256991314,-2.741143035367349,9.460216802120867,0.03567194306096642,-2.392897069789871,9.812372943098078,-0.022882936106333095,0.035761239691342706,-0.0020341611948860028,0.12727667880361912,-0.0850004034914349,-0.035165551976577565,2011-09-26 13:22:52.165895331,3.220148523
49.05080369090928,8.388164084972509,110.5626097261435,0.03279288464128997,0.018316562873200368,1.582400376778274,9.465612472402224,-8.38023062553032,17.023477631545113,-0.2082027356179251,-0.006613224751916995,0.06987625816385866,0.01610977661126234,10.290895735564394,-4.046764293054238,-1.688529394483075,9.501631282309589,0.023672861546243817,0.1417029696702563,-0.17758137854948203,0.006674315033312093,-0.007461882073492471,-0.2407922019355176,2011-09-26 13:22:52.266104152,3.320357344
49.05685205713615,8.423376194154361,109.59704549619168,-0.04883989236848442,0.007032641718822897,3.3378599616823736,-0.4986922028122418,-8.526125020079292,16.93945481419186,-0.058511644222553796,0.24514194541842196,-0.6338359793889791,-0.9011645443209144,8.813926345812085,-0.03300345859321993,1.0052793340051935,9.771460719133081,0.0147684809695312,-0.04369713851429902,-0.07162068491852189,0.15996619234201762,6.113377086605816e-05,-0.12416423178802699,2011-09-26 13:22:52.365873379,3.420126571
49.03544619371226,8.434846286644863,110.52646352223987,0.045107986073685484,0.025387542495366427,2.8245281156381807,2.832324579768227,-41.78658041780427,17.472749910122282,-0.24988850344622987,-0.5010771885694602,0.2933937596535547,-4.956198902273483,11.192420785771642,0.18505361145337212,-2.3981924231637124,8.873739588847316,-0.03407875085726007,0.014465018396490684,-0.40879738420761863,-0.005514511126625872,0.028644583471900104,-0.17629340921574738,2011-09-26 13:22:52.475970984,3.530224176
49.049508448690425,8.431593232741925,110.82537981437797,-0.003705142988802583,0.01592068250909235,1.833468147424701,3.2707983045919082,12.74913154659656,16.469469234191767,-0.0936438341210657,-0.17011145325191626,0.21219314656531926,-0.025410904723778716,10.620069065041266,0.4110091611117659,1.3261157222819997,10.33177037157271,0.06786356378100863,-0.041293674012868015,-0.07760724682252397,-0.002508347561826059,0.011906536092731753,-0.17276072298091988,2011-09-26 13:22:52.575913160,3.630166352
49.04925876571603,8.420925316671857,109.73753575350794,0.05430407020132709,-0.020967441081443,2.563803154386357,6.241053187310117,-46.65599798952048,22.425306027532134,-0.012315737170657308,-0.11190844042914977,-0.01209801199870103,-0.6856994448213095,9.92190184059519,-0.40093602596731204,0.287110157631431,10.300828473331842,0.009370128977425911,0.21831812651699828,-0.14569674060812643,-0.016417060651218195,0.005795623894225766,0.02892168911058203,2011-09-26 13:22:52.675882868,3.730136060
49.04978564120409,8.424980621452658,108.93858196502951,-0.004224959062201852,-0.0014701080680658155,1.9059688484459754,18.624683251383424,-16.386154522206102,17.55521766391077,0.32088898404349514,0.01570646325880486,-0.3729402308345578,-3.296027900505057,9.435862402716706,-0.21385492149807944,-3.680414621653105,10.065666489305631,-0.05625784847853051,-0.004473860804453108,-0.3355799405506247,-0.07677083857691129,-0.030101953016361475,-0.14598853899497446,2011-09-26 13:22:52.785932600,3.840185792
49.04514728012884,8.38022090538966,108.37449379038176,-0.04194380501340198,-0.003218137918104362,-0.25350841225268494,5.063107120241484,-6.411434274029628,17.621299030509956,1.5265452659589756,-0.953404962177218,0.20849781727777017,-4.13942971712681,10.746276714770437,0.01697946118264161,-2.383185694487203,10.495969160939058,0.03640379316270359,-0.0063885544578290345,-0.2965860726097819,0.0318089795008635,-0.03125951242598827,-0.13395124638481481,2011-09-26 13:22:52.885886881,3.940140073
49.06032616797159,8.425484768589484,108.82234310846567,0.0026927916109991262,0.0058822982727737465,1.9366126287421825,-3.4952715494579376,-11.6804653083314,16.26211692569632,-0.40895554801457223,0.04509809766640971,0.7801414438586375,-1.5965545615382404,9.99492565074951,0.23128717059447684,-4.346038517753447,9.730973957342995,0.021405319946721353,0.013875859194697707,0.48781688844114307,0.015155630974311031,0.015961425744285166,0.049894081362417575,2011-09-26 13:22:52.985881391,4.040134583
49.0556844516353,8.428266362693616,109.53905711949703,0.023836889817262105,-0.006707685148141892,-0.7789017360824046,4.300504796419276,-37.05249173688841,16.617471132329264,0.0426073069899618,-0.041589849113715716,0.23325830042411144,7.51337864304366,9.97845037688422,0.19955758045949104,-3.0246542240002423,12.338073646405833,0.06370366331875328,-0.0009712670023768839,-0.11738026836739712,-0.027794941484463178,0.14250949325387308,-0.10098594179973755,2011-09-26 13:22:53.095882992,4.150136184
49.05135481316279,8.420958093910404,111.37542284066552,-0.01631039069394167,0.0008803907287713254,3.799013383897742,-1.9644942124651692,-15.250964981504758,20.514862975054587,0.0673679730868829,0.053149954704523175,-3.670282104018887,-0.21428536304127332,10.002565503581607,-0.5610552511807126,-0.18139956515090416,9.530632991113581,0.07498865360179818,0.010767981344857347,-0.09648896189240516,0.014260812718450288,0.015534592876047313,-0.11033182648570457,2011-09-26 13:22:53.195892196,4.250145388
49.05627514746381,8.427431646576188,109.9559177204307,0.09288953817672749,0.0019275353805061788,2.4576732666836545,13.690231131504381,34.151514668820056,16.233322883141867,0.025109092035601112,-0.03393022128883333,-0.019703122032548342,0.47109903555125676,10.66338808622416,0.48370210484263904,-4.88081140533049,9.659183876973398,-0.017202697474795182,-0.006581334522632576,-0.08735045541077731,-0.1379509624737947,0.011287822412456704,-0.04750841817127216,2011-09-26 13:22:53.295913969,4.350167161
49.04879021137436,8.424398625212039,110.81122596438718,0.06568787649639488,0.0038590775412381904,3.0881258421743145,1.9924826355564367,-19.341596096034074,16.584755942957543,-0.18616074525569154,-0.17965971062449573,-0.17731978506528798,-0.75733743933819,9.871233693050053,-0.26933999614121085,-2.7028920789757658,9.987424408842509,-0.05379847254675382,-0.14720420325415245,0.10115599873986429,0.009860229096230187,0.050245308614273045,-0.40049836601795585,2011-09-26 13:22:53.405880208,4.460133400
49.05085553782242,8.418460324369976,109.77997478911142,0.054986268465109324,0.015906604309630885,3.094872508603724,6.968594131999815,-9.016530953175241,13.61196309712149,-0.7204317037349486,0.1872313458653395,0.765216241037869,-0.366677152394427,9.67362553537771,-0.46484642913641416,-2.1386798975576475,9.494745216041297,-0.026727044431936235,0.023752150479807214,-0.04445335552756827,0.33112381335748914,-0.011855609604697157,-0.11357688793274713,2011-09-26 13:22:53.505897277,4.560150469
49.023983777200044,8.387231317528578,110.41982555975962,-0.3410399818524112,-0.010795893686812063,2.491677142970812,12.08874575396406,-20.29858336158307,16.728540929230086,0.09411599176771966,0.12617750830723376,0.08085152916097561,-2.6349459074912156,9.772591074485405,-0.5136236160328607,-3.784522535382248,9.669521007214435,0.03510831958459841,-0.0010600543311547212,0.22230758592501734,-0.20255479350614963,-0.013265645466753392,-0.5352768064740053,2011-09-26 13:22:53.615917077,4.670170269
49.051901589448306,8.421339248470389,110.55338592577911,0.11108883049189386,-0.04456117870538797,-0.47012373988816014,36.28564369866668,-1.1940206781244154,17.323503590167636,0.04437258365086464,0.4745204576635822,-0.08474719589322585,-5.83995822582589,9.364812073319158,0.43785951250527483,-1.4154928774391409,6.367253384541917,0.0010887133158923642,0.002125086358768997,-0.24182283488866255,0.003974199084590272,0.003620080221797821,-0.18081782458224982,2011-09-26 13:22:53.715964961,4.770218153
49.05762937274428,8.424142059535923,110.91120831964648,0.031417111325901546,0.013576286119901047,1.2860092226818485,6.044548779079569,-13.397896692147114,16.027817679746384,0.7339172741176235,-0.06565522177011347,-0.49847713432669927,-5.03763876454944,9.136445376570562,-0.12901945850094496,-5.753158018619615,9.339696090669863,0.02300444227145415,0.2054183438289075,0.6812066244118405,0.022475478048109884,0.028037241044297265,-0.16240756056819558,2011-09-26 13:22:53.815912073,4.870165265
49.05333784307851,8.433769589642734,110.9147132763655,0.04358575695633877,-0.010256341761839458,1.221147964638312,12.10985030431647,-23.786203190469394,14.704651621986084,0.11397892619142466,0.28768881016517617,-0.010475658741403701,-2.092552386797517,9.210456024930158,0.3342727449220573,-0.6896305249490975,9.572468195455684,-0.010256669933181011,-0.020605613912505243,-0.04880716430211438,0.06976050307618566,-0.08273479365642587,-0.13037787069737697,2011-09-26 13:22:53.925904510,4.980157702
49.04358225378021,8.440643437226896,109.43099444138777,0.04515783782373524,-0.005901474319314911,2.625555059931288,28.498659471112035,-23.99573112927365,16.748831013351,0.2803311636960099,0.026165707507827225,0.12948235037834782,-1.015250880208184,10.44741046389479,-0.15648908282332208,-5.519955839928697,10.14626782966736,0.10583755049505372,-0.05217715024999154,-0.005063028939516254,-0.10262204914376241,0.007612594648437712,-0.14788230494820664,2011-09-26 13:22:54.025929770,5.080182962
49.05283590640875,8.424020082863086,101.72807750540883,-0.03695582837234583,0.0019246826265424148,2.695231207893884,21.966125739082436,-17.835403432024652,17.86116062192864,0.26737503270829904,-0.04383574807119903,-0.36777403642890516,-1.5075355082166277,9.1028752594122,0.6279588262193767,0.7943956279628874,12.18001543955879,-0.0003797139653562466,0.03642970487541582,0.005657228962862332,0.029263353264419274,0.009150273206523426,-0.44053218750454076,2011-09-26 13:22:54.125920444,5.180173636
49.05336700997425,8.42632565135088,109.7113058915182,0.010308010652964147,0.0001287666542232474,2.7840321040277716,16.388734201770013,-5.639114712498379,22.510240544943052,0.34768597237522214,-0.013431425718751201,0.6672684877692434,-0.4924300986242874,10.470733171489721,-0.08309275387205964,-2.9377180438797006,10.464953772152924,0.056213475286146,-0.16735838939831774,0.08712182811950815,-0.04264684874288858,-0.026531928049066428,-0.05582808770659586,2011-09-26 13:22:54.236185901,5.290439093
49.05439700038015,8.395017672328917,109.87870769603742,0.09287815048826739,-0.010734312483190418,1.6397639241423803,-26.88958103266782,-8.219195682178409,16.72922506829601,0.029963904453059055,-0.10433907285657251,0.5927782689624365,-0.23580826183346804,9.43623820712698,-0.19016747564709108,-1.7701327339709887,10.339263230224244,-0.027383589165602306,-0.03410566898390555,0.009713718848670186,-0.045462891698033206,-0.21055461585759092,-0.10986179425158979,2011-09-26 13:22:54.335988222,5.390241414
49.05093810348343,8.427992770676788,110.04266346872113,0.029876374053192684,0.0027855140163015276,1.9733926483133004,6.883633904358119,-3.6527105463006464,17.261689325317448,-0.1368553948217291,0.4159828363528537,0.2265684652163448,-2.820418387066807,9.489781278452073,0.3927299166888253,-4.225413448656333,10.18505979829133,0.03509054018711989,0.21848426909635693,0.3136742108616085,0.02873967530113131,-0.026266437549383063,-0.16062410464217164,2011-09-26 13:22:54.435971360,5.490224552
49.02470263541049,8.422783319286879,110.26750305878616,0.01465782795693503,-0.0031793447226494487,1.9601441956951215,14.991653343001886,-20.197544365983035,18.59625575871552,-0.1463284224565931,-0.08711349332320056,-0.15363609088588495,-0.08399550925415489,9.707949567549084,-0.20303015480920877,0.5024626316170735,9.778254489038266,-0.002201449567835077,0.017177620656972287,-0.14805000229756315,0.0012915342213558174,-0.016368435190752536,0.010431755505619852,2011-09-26 13:22:54.545939135,5.600192327
49.06463694235077,8.427650186988448,110.47983987124563,0.10494806651019531,0.027563295933538637,2.0889559694579294,-38.87439980567155,2.055091266088418,17.403576237933642,-0.1037263247379168,-0.0800335216766683,0.6560161758685266,-1.1271591098198728,10.11209990029437,0.3340116581450936,-4.760897465318349,10.256348093531603,0.032119956079580604,0.04651425216893406,0.06387543099633387,0.02323063202420723,-0.06974864215222114,-0.1851069575132584,2011-09-26 13:22:54.645940664,5.700193856
49.055143594271044,8.43337631138563,110.70183081469014,0.10498695185076946,0.013368139665425268,3.1323209092662547,6.996202743009742,-6.3930740720457155,18.622359900548553,0.05221063803896007,-0.10889490076875351,3.20707216377801,-2.268326916660611,13.472369647843614,0.46422510724973154,-2.846530442574786,10.035683965190398,0.040239995794696726,-0.049932788032028885,-0.21035783003138905,0.26752737815186506,-0.0891635745358744,-0.11175910465270344,2011-09-26 13:22:54.746140841,5.800394033
49.020006726412504,8.422777027454488,109.08058445894673,-0.020241430609388537,0.018725324647531905,-0.0842639203580946,7.128042971204764,-10.857362865701894,17.625213614405638,-0.7190824790010601,-0.20374934470691866,0.042327904605428096,-1.8101762901854797,9.573764396042506,0.09932856428081943,-0.05118422305997972,9.349261624945168,-0.013658034982595556,-0.011498889567252406,0.04106916494483043,0.0061797191335369595,-0.004631136299113355,-0.07201328625362084,2011-09-26 13:22:54.855951243,5.910204435
49.0472169980353,8.432462237526558,109.90751181596583,0.0334682972595804,0.011032892641543595,2.669118260317263,5.442331814424884,39.556799756757265,17.84768336974039,0.10802222457063691,1.0425331240270057,0.05863829043270187,1.2440331501675432,10.207516491726746,0.7969000089874329,-0.4976220132883987,10.246075229513607,-0.07546673960535562,-0.08978400709766905,-0.17365104482849664,-0.052290217255710605,-0.2357950642253976,0.4507379953077743,2011-09-26 13:22:54.955998693,6.010251885
49.05540926916678,8.42123523084622,110.22563057085351,0.0212184832920382,-0.027441889444590382,3.241522583088906,20.436614861069053,-23.8544376589645,18.147256900285644,-0.045070637674385114,0.06323095917954602,-0.07838713238443694,0.5013927563573318,6.94471072064724,0.36266117665220265,-2.8240220587863027,9.541339410255388,-0.11515088099357891,-0.022830486327028332,-0.0003098622346603547,0.006491100915592487,0.0024247917169169155,-0.07512997819922246,2011-09-26 13:22:55.065956110,6.120209302
49.05788663061783,8.437069833372663,109.70854684356281,0.3049919391278281,0.008115742057043645,2.8068377441422987,23.982106139403093,-11.042922606992022,17.854668333534228,0.21514716120607968,-0.124421005775844,-0.15891290002112976,-0.4499860651311754,9.80759158912823,0.7761006661271859,-3.971654564178663,9.219563528314348,-0.03225283677199213,0.18437686492961786,0.4304446772953908,-0.02272778261792372,-0.17378240760037725,-0.30810643078153593,2011-09-26 13:22:55.165967496,6.220220688
49.04935768639985,8.43092883360175,109.69178600347661,0.04210226445201956,0.017459482432453197,-1.5439153724083798,19.082115206638115,2.6131973805149364,16.229258905068246,0.08211657392704355,0.19692150962186106,-0.2981201267625865,13.500407544783922,9.53987618271294,0.06280336135653261,-1.1435450152268092,8.159664540576006,-0.060111223908810414,-0.014322837795653942,-0.09045517487772117,-0.016567888294863137,-0.041907821100702944,-0.07588958599456821,2011-09-26 13:22:55.266026330,6.320279522
49.054169801470586,8.454961310112767,110.4100411555435,0.06527312776413127,0.02034098911838485,4.348028081672947,11.112782981175993,-19.112057164748954,17.804508051106264,-0.06882148161727158,-0.1749299089195246,0.30306912391028235,-1.6463268474906827,9.831258100151903,0.38916002928254423,0.3894501795139029,10.271689277771825,-0.02044857107243858,-0.01692321591638403,-0.8848179779226593,0.04022971146898694,-0.014408790106150588,0.13226285097232487,2011-09-26 13:22:55.375985831,6.430239023
49.04868235948435,8.445142266765162,110.53370139108331,0.038060463033045056,0.015240572454448612,2.1492083040675443,7.648047721310505,-19.93465289105449,18.694776010468196,-0.2487017731357524,-0.07717419149833835,-0.4087030075772521,9.471665888710843,9.948074735427781,0.7286050557692653,-2.7426062681324246,9.821540007235624,0.005699977465875168,-0.000722874097459282,0.011949045608297432,-0.031712174794111724,-0.04577188983892212,-0.2266050218026244,2011-09-26 13:22:55.476026540,6.530279732
49.05622053516407,8.420749250944317,109.69247289750963,0.07481666031825038,0.0015262416971198352,8.354931054312246,14.356635832294499,-9.382302502034635,18.631573750469673,-0.05527518828601349,0.10827494285639,-0.15402267396122196,-1.3546001202825408,16.115532167684556,0.5375488527731004,-4.349582192145881,9.851281162000499,-0.005839610038428574,-0.021153529849045956,-0.14849826481025152,0.016746194846755984,-0.0059915549149409325,0.12261322540044053,2011-09-26 13:22:55.586018329,6.640271521
49.00332556036257,8.415733177218675,109.89734131756155,0.0034255700928557814,0.0007715658442805067,2.400562431718176,7.607314829139178,-3.739149161529891,17.46765313679582,0.032764256750730913,-0.2374840305613859,0.38702072845300617,-3.026315542633335,9.015113773199252,0.29128393253562823,-3.0589296218824242,9.62059011132798,0.0077394109884084145,0.012738141780693213,0.01570240642347072,0.013616637708984365,-0.02212836249264135,-0.14208590993076964,2011-09-26 13:22:55.685984983,6.740238175
49.04539891164168,8.431481596034493,109.0746304203045,0.034284831516628214,0.0014931838812346212,3.2884495139283345,14.3460247473244,-3.282483351375884,17.474988533021197,-0.20069640701407082,-0.4054948878299652,1.1316598444454402,-1.4220604755901505,9.549699321340263,-0.34934418691417185,11.298161549214049,8.92558327675431,0.39080807430916836,-0.03290766954502448,-0.029414016104420786,0.04502173678196919,-0.014853048350614153,-0.29169942630382645,2011-09-26 13:22:55.786021787,6.840274979
49.04799367297879,8.418350475299345,109.736660394952,0.002048358043716149,0.012587500521000002,2.42113307163288,10.778285621424825,-11.473004055344749,17.78657129606042,-0.12296177460933957,0.0015850224230167104,-1.0376012626505073,-1.0494723881408525,8.739942373211724,0.0008933275676828445,-1.8721546361359553,10.129268899893736,-0.17143087811733915,-0.02947010253227063,0.041878225630797,0.0010499166017824326,-0.024196380767976467,-0.029045963148487508,2011-09-26 13:22:55.886016590,6.940269782
49.097434906063484,8.421415969967924,110.39735113028844,0.07431078833473106,0.013945992526295876,2.405533483295147,-38.24448242869242,-21.015641668714274,16.945740334541192,0.18530487124933817,-0.03260708411626012,1.9790059228120798,-1.1389819592380155,10.106044816762399,0.1240773453934463,-0.08271193543170141,9.835094581442123,0.018959492320277584,-0.04143420555251794,-0.1644316903114554,0.005609793109221861,0.051040841919180124,-0.03012309561840789,2011-09-26 13:22:55.996065179,7.050318371
49.051793121286835,8.426381610762078,114.43379696650628,0.08164574973106781,0.0824540377292943,6.096721350908116,36.2664927153362,-4.202553603937063,17.715929236565923,0.22679062785345588,-0.28701062665375127,-0.27322748314612155,-0.08724295117080261,7.172200043711542,2.508053041251034,-2.4248778233617587,9.891141799305904,-0.029066014678906488,0.02146629113899719,0.003531976799962519,0.008976339083425098,-0.00225627026146113,0.013801573607502338,2011-09-26 13:22:56.096029582,7.150282774
49.049988227132836,8.423842010192418,109.1836695204509,0.040301824530118546,-0.058772104565369715,2.360943004976611,7.273089056127459,36.37205677885805,17.317287859914657,-0.04586429550261219,0.03724748622461983,0.6296357785605223,0.14608333572741272,10.849046531071625,2.4993613304511997,-1.8480269833123106,9.260269155509828,-0.019190472267528246,0.04270344488996512,-0.5170650824435123,0.01740686090636128,-0.029686701609213214,-0.15139133727843135,2011-09-26 13:22:56.196024115,7.250277307
49.02913433771852,8.412600349494065,110.32518673478644,0.06347758954083015,0.03688174799404239,2.8308591583665454,18.11131987061575,-10.031919080534301,17.547660756039,0.15442758916783408,-0.2470874239912525,-0.11489391845889046,0.013762181550833197,9.613668642807763,-0.11910190518362909,-0.24746750986588006,9.91005328708387,-0.006458797495380367,0.019269692140120302,-0.17504012160762922,0.057735832946266705,0.08147691942617676,-0.1526232272053835,2011-09-26 13:22:56.306108489,7.360361681
49.054505851304974,8.435598875300801,109.82851278377642,0.028828828687138375,0.04893234167138194,2.0400564795702913,11.87037624133372,-13.640901697601018,17.184578868202237,-9.278503469786759e-05,0.012232694730404142,0.014517775176572517,-0.312383270778794,10.151019831276548,1.3823449655474263,-0.7867219141827503,5.836888631713457,-0.033456588019654496,-0.01361172883262141,-0.9839749601315105,-0.027835353421794457,-0.007660418733194563,-0.03843672520293368,2011-09-26 13:22:56.406084818,7.460338010
49.05518122790883,8.425683741256027,109.48813945866942,0.04485419172519681,-0.0006653595055837354,2.2726813674201822,5.903373463195752,-7.0861923827384175,18.154743404355752,-0.04329318903020764,-0.022614666251245898,0.4850871624269539,4.934981830615756,9.812135471879579,0.0056699531474151965,-0.24745660173897321,11.630290586761443,-0.03013024231711952,-0.015629554253322835,-0.058184095056738425,-0.009137898061964264,-0.028156143101901506,-0.6319689128214062,2011-09-26 13:22:56.516036812,7.570290004
49.05243343447054,8.421118622820298,107.70653073159346,0.0642206012360647,0.07114991279180512,3.0259875153626186,11.444529643307526,-90.70341192264254,18.048619410800367,-0.3373636978807544,-0.05897352467624718,0.054820229177443766,2.544899512735875,9.669350923408192,0.4431963353291142,-3.3830871211589235,9.700589005764641,-0.0028450890154688687,-0.013307871426166646,-0.0005824651677039522,-0.018525805833624023,-0.005300584163940074,0.25446384459548704,2011-09-26 13:22:56.616060361,7.670313553
49.053639813333,8.489694723335113,110.00522952504691,-0.07540514351514693,0.013944354721081562,1.3978248140107428,-14.116109452512811,-19.290396134277195,17.884400166651908,0.08627987541396881,-0.12042777437568307,-0.26422393037651803,-1.6971290875376455,9.876030931843086,-1.8462664418548147,-1.2608078332204924,10.796594695411624,-0.07300790658532393,0.0005194069279849233,-0.07232626600697645,-0.03427235488036217,0.01799491634985107,0.411771122164825,2011-09-26 13:22:56.716299891,7.770553083
49.0622331474273,8.427018778661072,109.47250419642137,0.008380130246959147,-0.00036963921767332875,1.7678546221341271,18.71758559712717,-7.426166001164146,16.163789939284925,0.17552485195904535,-0.6447546959445455,2.3454902665324724,-1.4729002932060682,9.667440233229584,0.38991527267977105,0.5772031535048219,9.945897801284229,0.06670173642988951,0.04249770919043157,-0.4950594366764095,-0.025270770730313967,-0.02221288482868277,-0.2713514601288331,2011-09-26 13:22:56.826099296,7.880352488
49.04687359583073,8.419408691077804,109.15576912609409,0.043978576031452506,0.01780183414281304,2.006919974602308,15.566306049366252,-0.48616875068770504,17.929311183199484,0.36491040744976866,-0.009879640600665984,1.1198882170178142,-4.533161192764358,9.313472667973892,-0.12435217265474052,-7.609507213641429,9.707035149569728,-0.04306538425638799,0.039456327054202434,-0.06250813698214819,-0.024268903195644988,0.0005159129741399136,-0.1177255494907222,2011-09-26 13:22:56.926079700,7.980332892
49.05170806356863,8.414869373003876,108.6768591783,-0.0005498323211396428,0.017871667692321222,2.114061831704313,19.348151966147817,-16.793126674515918,17.995867814439823,0.19776143087717835,0.13046820868631642,-0.4419878747530198,-1.275251582120334,9.842728073969491,0.29115940416837255,-0.22674636105261603,10.356832675175706,-0.010070132548734817,0.003894628430747941,-0.1271573168230643,-0.05666304288156485,-0.1324133938086138,-0.02349711145023272,2011-09-26 13:22:57.026105084,8.080358276
49.05308259234349,8.425788304809878,110.69090840631726,0.04723371798421462,0.0021423665589207514,1.4325160761703928,14.715002870974384,-8.922070570863543,18.22689241621566,-0.016410588007111773,0.03658862105797683,-0.14584101329988863,-2.2860207993310864,12.022015705749492,-0.2445244575161311,-2.28130216332218,4.738806915894352,-0.0839281006652213,-0.021250998024636637,0.04050353786926243,0.007953024832711573,0.01709710642396288,-0.04888728586665947,2011-09-26 13:22:57.136165571,8.190418763
49.05433112356864,8.434278505301219,111.99108460831022,0.0031973241099334873,0.009765533265245402,2.2392316859185213,7.84629173751797,-18.583801920359512,18.693138250387456,-0.11255924435555009,0.15565921019743237,0.5080135647195582,17.391337299093973,9.649587061592127,0.284464602131911,-0.6062545940128292,9.251864975824176,-0.026844335130719717,0.010940273545151242,0.11704692594752195,-0.021591831705098034,-0.00938128709932442,0.041795832632809796,2011-09-26 13:22:57.236185522,8.290438714
49.05336672137779,8.42619764364882,109.15234818306376,0.08047684025399886,0.007784130989323049,1.5697534476931412,-21.947632928374716,-1.82090045486804,18.569922380702135,-0.2062900016866107,0.05180011273067242,0.4678108743634548,7.200840880380307,10.25565722374402,0.47102432617517354,0.24253249768908347,9.607787368392621,0.042144689201222905,0.055415329066336734,-0.008158119753676762,-0.028505764296245677,-0.014897156209098764,0.15964279945306278,2011-09-26 13:22:57.336123367,8.390376559
49.050627018564974,8.399079423554342,112.2940188387491,0.03985614575733715,0.02656920687749386,1.6395431171653996,22.403359852768958,-4.908055224752181,18.69724089657596,-0.6965548934857188,-0.09859152957095356,0.12073528397992125,1.3613993390683605,13.995574028058279,0.48621997816556345,-2.963641206894443,9.85978823138651,0.04379768654368593,-0.0010260065427000736,-0.07649673713799353,-0.05487479003462759,0.012700197212430545,-0.13752112936177124,2011-09-26 13:22:57.446156169,8.500409361
49.05176558985401,8.441640185082298,110.72906588246926,0.060273444962435516,0.02465086204334453,1.9216228574980754,87.52213274067398,-8.225319975166444,17.84367198018314,-0.2933674305292442,-0.017475535807795903,-0.6344551654032656,-0.4779808983715922,7.281248993132904,-2.541139482305763,0.5021304194200511,10.128252480096027,-0.025011085114249446,-0.041349149849805936,0.0037436312725438355,0.04447867588997322,-0.023825365747120488,-0.05136882550075131,2011-09-26 13:22:57.546145502,8.600398694
49.05582821998425,8.424626869180047,108.98785418622637,0.08324550360325454,0.014638968967156728,2.187716355337647,14.494876770549077,-13.698493232678032,17.6268252139264,0.08560754494375541,0.0030323217031890315,-0.3819559942241014,12.099874884496577,9.562185708920435,-0.08058421406298903,-3.8190591990117864,7.018897979447911,-0.005104460231450928,-0.020713624095345662,0.14564964952406423,-0.05035203140696981,-0.017589373887298282,0.14478980406448194,2011-09-26 13:22:57.646137470,8.700390662
49.03762980376967,8.398346838667827,109.90602140662669,0.05155124454103105,0.024525836896371007,2.005240018541143,9.851965250361404,-10.055856792728665,17.242409709559773,-0.003277481717567546,-0.26270087492396504,-0.5777516364903903,-0.16344554742737066,9.33048249435204,0.1391232574539962,-11.897979807129625,10.333073231100695,0.035511819822824156,-0.012612497274308798,-0.5187378336019051,0.027804306093171773,0.00837056844510365,-0.5992974987942882,2011-09-26 13:22:57.756218372,8.810471564
49.05504727529838,8.399002550738984,109.0952593061799,0.025570134837185645,-0.04359283275519179,1.7834908913761056,29.66035906099462,-10.604480326645529,20.404617076380667,0.3002781085932877,-0.627511033359361,-0.5012935459204572,-6.95291341326407,8.64867476376585,-0.38122621133579937,-0.8164594587015896,9.504643603127612,-0.033325198190001695,0.06288470428751233,-0.33244078534078303,-0.041893883930999395,-0.01939063956337988,-0.29779420785628613,2011-09-26 13:22:57.856139373,8.910392565
49.0599213628814,8.428324848918164,108.36891752530289,0.025183885818735017,0.003328420345374352,3.7283805530821255,10.003194161468564,-9.839714339187847,18.260651557499333,0.004419498069559685,-0.1918617235790873,-0.633971733426158,9.023517589692403,9.021117243413059,0.6034047608333177,-3.69222771363405,9.272135938614749,0.004322165847952672,0.016978045379874948,-0.06988849139591259,0.014069805549525449,0.03622858137162553,0.01541137628307628,2011-09-26 13:22:57.966119654,9.020372846
49.05457201488762,8.42893669986798,108.61542241341209,0.025447983941646577,0.004131619105192168,3.7108691101823563,-1.4032959370993616,-11.112450258434986,18.569159788437954,0.11521899933399238,-0.1489954576809444,-0.33175963858318763,6.203080159923272,9.560020164997155,-0.7640701891992964,0.35276653094761,13.195404400949242,0.01398387189610725,0.01837824241768185,0.052154586606223276,-0.016743743852704954,-0.007578970298256623,-0.18231416593182959,2011-09-26 13:22:58.066142767,9.120395959
49.04933012089498,8.42074459380152,109.74441310340578,0.009113988034462242,0.004582912565233973,1.6475967266547602,16.776153873266693,-11.653634903705779,17.305138128376566,-0.035812052930218774,-0.09558510843234788,0.4995143153253945,2.137156613098469,9.689548375297575,-1.1102989472364502,-1.2589266291456034,9.952030049759538,-0.11353706845850056,0.008937391987353117,-0.03369728147276825,0.016316767469481283,0.02827990282592142,-0.18057328853963525,2011-09-26 13:22:58.166149619,9.220402811
49.049240161111555,8.420635553316227,113.0372068592036,0.0956994372456047,0.0222759954676753,2.554164890881525,17.90541543124518,-10.337586847084284,17.259484184949063,-0.16986812323846157,0.15098511406415477,-0.5259526793530092,-0.3551745881200892,9.98570699124552,-0.7442408215412346,-3.3578636066144023,12.342136878789924,-0.03761045531538959,-0.025169567114488076,-0.06421353949719873,0.02180520834077207,0.02496076472025338,0.012697165235676655,2011-09-26 13:22:58.276332531,9.330585723
49.051885062070454,8.426838041189217,109.28518379771613,-0.007801376866913609,0.003913089407410309,2.1663062448749186,7.561672578919069,-38.81833785448113,16.843685044610236,0.009105206559510887,-0.026959922154568043,-0.383216727934176,1.5961544912607208,10.597624198825537,-0.3437830802717287,3.246989628495725,9.863090142912647,-0.04450244448551504,-0.03867395519610726,-0.20183173140728522,0.07610613739481395,0.021168589774243053,-5.208935872354128e-05,2011-09-26 13:22:58.376147206,9.430400398
49.05719077445559,8.43039773408758,109.25292232397825,0.04243107801530839,0.03500651024007335,1.3190356168807753,14.848069122114966,-9.251937017300596,17.107019000227808,0.06870745678859329,-0.6283270541670912,-0.6731279037284033,1.4530407424791383,9.386098926965355,-0.2668118082928452,-9.531944417767969,9.38244418554874,0.06552474325404027,0.07469080519692214,0.5254037372968452,-0.009517310949210574,-0.0003440114928970053,-0.0001569775611939806,2011-09-26 13:22:58.476199006,9.530452198
49.04155291636956,8.420461242064775,108.74513302537754,0.010627268241669752,0.018843596544342752,0.6075996861004023,20.622566273244892,-14.779414927248329,17.64947153661055,0.4168250406422912,-0.034716657931305385,-0.5135586057837865,7.203739555148383,9.992763484436058,0.3770664408990354,0.39768717153664096,12.4307617621735,0.048620449229486135,0.1275443619839885,0.22695816330088833,0.009779330647728905,-0.025206304985792016,-0.19918669489272767,2011-09-26 13:22:58.586188367,9.640441559
49.05930264370183,8.424331305877578,110.06747499417396,0.24278210793443125,0.009844895023174274,2.6213200585803245,21.783203683122345,3.585405195592566,17.16380629474491,0.5381305594527938,0.01056279254574654,-0.6536936981196556,8.451253597290972,9.20292385025231,-1.9378736261397729,-1.078866505273502,10.276254806128163,-0.1963906311060728,0.031922853168982135,-0.48881487955797814,-0.09942476741787049,0.017353713203558073,-0.08533990360666686,2011-09-26 13:22:58.686183992,9.740437184
49.01342548602393,8.419001410623231,109.75392473397821,0.04733044025250227,0.019854812725714346,2.3732522944404435,19.4724470309549,-7.6036118021290555,17.945881315664103,0.2584876117570812,-0.010219130395025061,-0.661642460187334,-0.5411405605398227,9.353791738336433,-0.21305673204687103,1.3080710252265957,10.020327691638638,0.05214670183094636,0.043035528435665354,0.08192298791522822,0.028466297462009935,-0.004189248699755651,0.5982517539752811,2011-09-26 13:22:58.786201232,9.840454424
49.07654604624118,8.4165458397624,109.49820635661374,0.05405387249652996,0.017855842795144072,3.120283393644897,16.52221028952161,-24.673184765173293,19.12134974740399,0.2438822068813445,-0.10797836785703932,2.1721366839352436,0.0938567327377482,8.221284858541207,0.16135442748661766,0.2284947309332958,9.229572930820586,0.06728208028091123,-0.01676584803819321,-0.13241713061096622,0.06787483349187494,0.03292025603735712,0.14663500042821906,2011-09-26 13:22:58.896214025,9.950467217
49.05591918916091,8.424556023130425,110.40576045684121,0.060134638227544945,0.005816615090366646,7.074403873256081,22.397358790649456,-8.15668016880849,18.053079438255956,0.15509394257221348,-0.2728727587359222,-0.1862843730723067,0.7075206537476306,9.215882123683343,-0.13183519636757757,-1.0021700929137507,16.452856147046006,-0.0005315330747141939,-0.034092506842793774,-0.7175335279263835,0.02833955960918856,0.09366699185900153,-0.0629667702307953,2011-09-26 13:22:58.996215051,10.050468243
49.062976072460835,8.427042225845245,109.93887471289345,0.06789514882733083,0.019322055615400822,2.350491687720841,25.168531026495266,-11.972203514104944,17.400548912431223,-0.8992998321186071,-0.12296886376414681,-0.45628804506607046,-0.3477041468501567,7.7787345607831,-0.8727349307212727,-1.705342474967983,9.570037018848147,0.021996093588266614,-0.026352494216555236,0.08613662436929179,0.008400135950152862,-0.007170784970470173,-0.008729456432645648,2011-09-26 13:22:59.096201767,10.150454959
49.07318948796164,8.421783234510013,108.61913200940432,-0.022093771009771834,0.01533416186902922,1.5783570302463894,6.319479520429406,-19.668495085875545,18.721016650808203,-0.07578413752293547,-0.08446141022720827,-0.7601823852281092,0.47751059575232035,11.432914528835276,0.1332855543683555,-7.467136269735029,10.203089676066579,-0.04572326764741462,-0.017470859624324483,-0.09328798982961403,0.00650628483033017,-0.00010887217448334909,-0.014220123791809171,2011-09-26 13:22:59.206318561,10.260571753
49.008090981391554,8.428884653531426,110.8096441532367,0.08516073807884472,-0.0023282469246636347,2.4486861102615007,8.902571861815602,-7.052866076107105,17.798139429586378,0.7421169114944951,0.1274241771660087,0.4563007041385407,-0.38721848960805694,9.483351846082632,1.2803795279993642,-1.9916209869839514,9.70100013594897,-0.009979118290706886,-0.009946029720103191,0.178680723523165,-0.03711080196924252,0.01071092699108735,0.09084561189819088,2011-09-26 13:22:59.306244990,10.360498182
49.005241871012,8.425980069255008,110.05540173416553,0.009715720269697175,0.004774520470712525,2.593337235982831,10.109540577777853,-6.983118969728276,18.507638643851397,-0.030656883974852327,-0.5140524362789922,0.5214570898289891,-1.294403332349534,9.107342841885657,-0.1351414853569533,0.16458552157048073,9.658312353500635,0.01061620706156145,0.027025481393988044,0.08050896937072977,0.2707674984250436,-0.0511882509658892,0.07640397952415004,2011-09-26 13:22:59.416185645,10.470438837
49.05521198111705,8.4211980578494,109.97093705833566,-0.16421644648193146,0.011143012081501329,1.7176952159625605,2.0941652299246325,-7.001414898623182,17.063982006119865,-0.01985147160641766,0.013117966844047736,0.00109674482122879,-1.670246354308161,9.366610512948292,-0.13648363872937783,1.9614191248778996,10.258073077964857,-0.020556535860772135,0.01791935320222844,-0.10632874040328236,-0.013818035059593194,-0.05370758348520047,-0.3924726871633895,2011-09-26 13:22:59.516209899,10.570463091
49.052935808377924,8.424905715154804,109.89635367405823,-0.0011935706212121144,0.017991195117260217,2.403705420457588,5.17020436921343,-11.683106489144636,14.820548586095438,-0.5060625049255311,-0.01283435099456881,0.5437107653507469,-10.631425902423002,9.040765779492773,-0.4318283308487012,-4.018812683709214,9.440622999184928,-0.28091443938717703,-0.01335662216420502,0.034434155054442986,-0.007484883884981872,-0.024283481242767618,0.09648573005906087,2011-09-26 13:22:59.616219366,10.670472558
49.05231556187086,8.367058166225274,109.92997692160363,0.030927112824751687,0.0037173648047357007,1.3414120148756052,10.624761655548358,-4.465236025838232,17.801595915727127,0.3191203453902259,-0.1651491718760392,-0.6111160117581605,1.1950038460476888,10.17238358071842,0.31067991165668174,4.408370446052461,7.011412915418223,-0.023897288731928548,-0.002317399059527792,-0.06201445327971525,0.014592489728232403,0.00826909683711828,-0.08687899560695023,2011-09-26 13:22:59.726444753,10.780697945
48.99439111756529,8.406738523478985,108.72739910099273,-0.21484737384704292,-0.09860547330314644,1.9100321774455393,10.97723055363997,-10.549518423327836,18.53970315278903,-0.019235498837151324,1.2709190623330657,0.22354889488927665,0.9676626436691518,9.403285006813993,-0.5730732129282264,-4.3296714170834765,10.119152373249928,-0.08107808268955355,-0.07906651460276806,0.1668254133374906,0.1785434416774553,0.005563659388836503,-0.005633105021615492,2011-09-26 13:22:59.826224857,10.880478049
49.0556534462569,8.427264122925957,111.71653009111493,0.008532082251218268,0.001816811518670631,2.839034960584536,18.784727330953505,-15.5135716753066,18.190631855922366,-0.05215953629377057,0.018152509726105725,0.03086106090791338,5.4915542559267045,9.931492133699207,-0.7139564321696825,2.1397042521902376,10.08643392732749,0.043238820124484184,-0.017868419544030865,0.2521756351231054,0.036213358536475185,-0.028152904878310257,-0.00521905292191227,2011-09-26 13:22:59.926198554,10.980451746
49.04905347835654,8.43326227755353,109.52497433112113,-0.014816108088661305,0.003911815996232854,2.4682685052151854,9.570634023318107,-12.788955694498904,17.045195333587007,0.5812128851967133,0.07153102658910084,0.1594533753252347,-0.8246108412218673,9.336291054254431,-2.194160465630329,0.740525447844622,10.12374769799409,-0.013743648243890356,0.00881760414938204,0.024584568850263014,0.042776764589137074,0.004074255077427161,-0.06823003429183684,2011-09-26 13:23:00.036230466,11.090483658
49.05777926581058,8.421698173673557,109.27973445887352,0.09443734011934835,0.015490842839424111,2.4622795078908455,80.66479038797536,-15.470814135226464,16.668017205139016,-0.14432191713251813,-0.0153265045146753,-0.1877207224332177,0.3866195275354559,9.750583775631764,0.12905100890995555,-3.7256865803256236,10.01973231291787,0.08956078314927238,0.0104984741957676,0.025432854440527307,-0.04858795348934511,0.03318177744705166,0.02951408558608603,2011-09-26 13:23:00.136245194,11.190498386
49.0538083278187,8.422777464269913,109.54842174689858,0.022875664853501496,-0.0032006581882213156,2.429896227660191,27.59105786454583,-3.30858832854996,15.783637375003215,0.19094732664320208,0.38472562771912183,-3.4529717730612726,-1.9040684503824683,10.336702136671734,0.18125491453964016,0.7804694562388199,9.48680357703571,-0.03237397958337508,0.004228549058682313,0.12419032009877937,0.05159125364339474,0.0065339875309244535,0.12013977495882654,2011-09-26 13:23:00.236444661,11.290697853
49.03017551843252,8.420558053018405,108.80352337682015,0.027708326407370452,-0.007475146719420844,1.4223849589472901,13.00260179228748,-5.678374410780725,17.51710311857272,0.020256219905534112,-0.33762827093033204,4.005300597165906,6.305067674855852,9.887581134838092,1.486590804142909,-0.561216379816255,9.661352936899338,-0.005864705012798692,-0.1187473061569277,0.03993232737313632,-0.06578587448178898,0.025222215854948216,-0.8061815166068195,2011-09-26 13:23:00.346222050,11.400475242
49.060851760193025,8.420904052345811,108.75491508396763,0.06682210935593041,0.004825815679190138,2.1399191373874182,15.358942866398392,-17.284347316880584,17.661615752451297,0.010189511810817342,0.06624884677505392,0.329944366046828,-0.5079262965545762,12.634884299407648,-3.1938782362037927,1.599729065005463,8.740197611833347,-0.0007860121900404114,0.009643574141694417,0.04678876585953458,0.02334546254893283,0.045088216932126376,0.061211665987584214,2011-09-26 13:23:00.446240396,11.500493588
49.05276714511184,8.423427488463169,109.27209877726268,-0.13410150343203123,-0.06644713314838928,1.9279940682936747,15.713221390025046,-2.984929697925341,17.146926915179176,0.028226109051798412,-0.07522743094254102,-0.5532520076267529,-2.142340202431493,10.22893553709653,-0.48837822640199646,-0.2492251907070538,10.012718613756187,0.002830833250543962,-0.012940619910571065,-0.024004775208183938,-0.09981635212818579,0.0002893311444197369,-0.1817943594242239,2011-09-26 13:23:00.546249290,11.600502482
49.05483603312093,8.455568722062964,109.2278288529504,0.0476348820408877,0.005462225947858591,2.6545946868082098,7.789683772444833,-12.300104040967817,18.159906454146636,0.4750434401933614,0.11602510971073585,0.005858175574309024,-0.1932395065462013,10.159650338205719,0.2875726113983445,-9.241006901163924,10.224739845510674,0.009116342463193955,-0.00453423249398701,0.16602527351782853,-0.2331727627262343,-0.022550881127552685,0.12232140664763318,2011-09-26 13:23:00.656287871,11.710541063
49.04367324860469,8.42114919700351,103.27101707550683,0.03388983816973314,0.0030719509306159887,2.5152014888596383,-8.184913673796117,-7.424594559242562,17.18474824772175,0.10368892427103456,-0.3360348875546772,0.01998662355156659,-0.07993443029205535,9.372207993787645,0.35353170302015746,-0.9149582619823129,12.05763337696958,0.006965265764360665,-0.020226066764215483,0.007023563905140313,0.030044226444275915,-0.004143412558909669,0.18455890224850943,2011-09-26 13:23:00.756303818,11.810557010
49.05508910839422,8.41636589146365,108.66538902658922,0.011216604410021275,-0.041170590437577106,1.9723435603430635,1.9168198813549093,-7.553505844935832,18.324032132906403,0.025719807954566465,-0.10594842906595012,-0.28207922018279663,1.6455072360931926,9.792392484261951,0.31532713154045594,7.6363286451620835,9.61127061388614,0.046839312232192565,0.019667561462025796,0.12195222846767131,0.07350377769045442,-0.10180337251666376,-0.23558926511494557,2011-09-26 13:23:00.866280155,11.920533347
49.053652548540086,8.419487619268727,109.761575548785,0.38513224386412404,0.03715814424412699,2.0257544450265597,-11.820401789653987,-8.748118642613575,18.279805123598855,-0.01647531380734929,-0.058789887099394714,0.034933727245092805,-1.1325736736205456,9.700936376835115,-0.4098055850561547,-1.2570090571847987,9.531337030101096,0.014215773476778513,-0.012442454625349273,-0.3997899144537893,-0.018779691680376326,-0.06909482328745728,0.19826128469643362,2011-09-26 13:23:00.966262653,12.020515845
49.04865358727643,8.39228688879979,109.30983059085911,-0.383914576962375,0.012015057935668958,1.5593011730568223,19.639346489957504,-3.3064322511824873,17.2426912040278,0.061759339458001855,-0.18724348122318993,-0.1680475533397954,3.356715160825881,10.474756145799356,0.08345727094585798,0.014470464011349812,9.050270795718445,-0.0940509368747353,-0.0003648813006407788,0.08319087936442496,-0.0272511826594678,0.00723490206377273,0.09339501051232656,2011-09-26 13:23:01.066261781,12.120514973
49.055877555075845,8.41594876988208,110.95991846180473,-0.015902705810440357,0.0005251402138416661,2.1827684059630807,12.047052182264935,-7.112186387352023,19.720420453560088,0.29089778508011827,-0.13387371432297687,0.03215631834420672,0.9636824689360173,9.959646074831014,0.24124039615659387,8.730894994888672,9.269632321250013,-0.04009165307453584,-0.08720250578686038,0.017788200961107264,-0.03709902909052834,0.02337363184142402,-0.002539087254398863,2011-09-26 13:23:01.176270403,12.230523595
49.05339115109268,8.418141669903425,109.53616144774942,0.031541226350193234,0.0048380318759017734,2.9334244705820227,23.27427199600349,-8.51764496600806,17.143444327536074,0.17453446142691914,-1.210609646024147,-0.3486332731889308,-0.8572559886228719,9.548208254102544,3.4567288202605666,0.07166281825051493,9.283129145254582,0.0417720012078161,0.0120443083330181,0.027949150038721164,0.03656650055395162,0.007295497844922335,0.036787740169105736,2011-09-26 13:23:01.276545569,12.330798761
