lat,lon,alt,roll,pitch,yaw,vn,ve,vf,vl,vu,ax,ay,az,af,al,au,wx,wy,wz,wf,wl,wu,timestamp,rel_time
49.04727618169004,8.427949683044355,110.33458121832476,0.08790334433679925,0.009583675711858045,2.396713349682014,4.667118185887153,-11.992241170217786,17.97786101246178,-0.19982629767271126,0.06353989764654824,-0.14916458823578344,1.4515538296411945,9.250070881952125,-0.3350578272053003,1.0121635545162888,9.871957535429866,-0.0031500440547583127,0.013959053547856991,0.07029382063514118,0.016078780097630654,0.03691969537420112,0.021394713177918787,2011-09-26 13:22:48.945746808,0.000000000
49.06311495802995,8.42075776935316,109.41427417479153,-0.027683704999829258,0.02055836771488922,5.277309474407572,4.576414220011103,-17.60502856833184,18.115325327279685,-0.07491987219597847,0.007967891421296946,-0.30685533052263386,2.796117520616822,10.158662915121694,-0.17275892238716614,-0.8971242148900325,6.800676849767626,-0.05521956324288966,-0.01964971013483891,-0.029130560887896804,0.018785799080475694,-0.15534715016038214,0.04271011703266072,2011-09-26 13:22:49.055763018,0.110016210
49.047418553589516,8.463236431543113,110.98192685815982,0.04022502290515929,0.015154716758351353,2.0765589283061097,-8.913873141543268,-12.86946347413122,17.344641493738013,-0.10521398741125741,-0.18506726091580214,0.19960053021098545,3.5272087512712833,9.624042761399771,1.7210464342279952,2.3765970045240823,10.43696733034541,0.009877336307324392,0.0052045517066378,0.13059928242608618,0.006808755119719649,-0.009248296128583123,-0.05547446163605904,2011-09-26 13:22:49.155811026,0.210064218
49.048177193289575,8.421999776867109,108.7310936898621,-0.01770477994728499,0.008966070403376925,2.1467559554508067,27.66267715517171,-39.939949859954496,17.601932799245645,1.0681841777232568,0.5393610490420184,0.029751999839565446,2.1439851967500636,13.842621090650155,-0.2599459724142777,-0.48918446413057914,10.735166194182614,0.0013808633412846529,-0.003899778338153196,0.09405790237551775,0.013048519656878137,-0.02437050154772862,-0.050709651899884994,2011-09-26 13:22:49.255922990,0.310176182
49.05224473191678,8.425844139515714,114.4409871511696,0.05900417609262744,0.0013703623861714437,1.7342265107503751,6.394208299584371,-14.329751547790783,17.394587552182646,0.1442344803762258,-0.12668116499472212,-1.0615850472028372,0.5068446604249006,9.941936598836923,-0.27008637138612634,-0.5660610979230207,10.356242343689138,0.013165401158143462,-0.009732150828146689,0.04412392319757025,-0.0019071010361808131,0.027664696646975795,-0.1398799015780033,2011-09-26 13:22:49.365738649,0.419991841
49.05250261030358,8.418232146542046,109.45102872271963,0.0664865150611956,0.012064305336652571,3.0558130700041444,18.995049278525897,-8.256059925735062,17.615943801250587,0.020201720357341364,0.025060056365187208,0.2629165741906958,12.72845086243238,9.633273540416328,-2.0856235936491845,0.517835782933955,10.28408515918491,0.010277311404862198,0.005064394519246914,-0.1709275067035006,0.0358457706843468,-0.039323077361971936,0.04310402582451073,2011-09-26 13:22:49.475844757,0.530097949
49.05694425732671,8.426004545458003,108.81519504373617,0.07422246476799571,0.007582101434321125,3.601788378069064,6.641998216797108,-18.495254768852007,18.15013947808457,-0.024147746752476773,0.5378074626349519,0.06759227468356957,0.45207086023612414,9.544726145607491,-0.5918010295833315,2.21741762787937,9.831874391316964,-0.048887471110766,0.02533928136315302,-0.016909884597362167,0.010076212643419138,-0.026411783881855503,-0.06646478843751616,2011-09-26 13:22:49.575789434,0.630042626
49.0544114424812,8.426274325229299,109.29999126023301,0.5058887788427473,-0.001972882800999722,2.7282637351357057,16.13311764187803,-4.793405686396012,16.405549978175678,-0.007720845972083688,0.10486042510274035,0.2748698200235624,4.221667359678183,9.406343329558048,0.24430055192376574,1.1444306714444763,10.054121258862066,0.00044786758368073267,0.038369959334972836,0.10274008542909263,-0.012270255356538137,0.09511264899202393,-0.02641009774310344,2011-09-26 13:22:49.675847621,0.730100813
49.05195297987523,8.417271029531431,108.72198114384295,0.12233004248946548,0.004675820848791419,2.9224705696526945,9.336177616400263,-14.011756924562151,17.01175587099807,-0.05993697933475195,0.03247902004885456,-0.8311705455196068,12.978571444982588,10.285399780515668,0.1413064878688491,1.6407126003739962,9.969076657275087,0.0269219185453535,-0.04815063059125838,-0.2587062641381545,-0.041511852909342895,-0.04054925915347436,0.12721205241547234,2011-09-26 13:22:49.785805956,0.840059148
49.05108628083293,8.430456562522622,111.58766697415744,-0.16231123523440033,-0.008975487457713777,2.7159529439819856,2.261009379088506,-18.398316914641054,17.28083400109746,0.18592121009487306,0.17321267359000347,-0.2841991091071848,1.081364862079751,10.979200361653145,0.18971489550116946,0.07058914521063603,10.019653063142826,-0.056945221280664676,-0.005059445795035346,-0.09951166205957905,0.025045466804074615,0.02995188842426162,0.18695652742997365,2011-09-26 13:22:49.885824378,0.940077570
49.05531731371653,8.440089434364053,110.45782148951075,0.05053768257034544,0.005074831313342522,2.530997779866852,23.918768515485212,-14.153037657554707,14.765934256188437,0.15718893423598548,0.06654644049135565,0.203356518844085,-4.230482697954029,9.963793140039405,-0.04038774764206055,-0.17575881075076433,10.052893011562865,-0.00774969843381699,-0.005297071813340723,-0.14340915750472333,-0.047154659251264844,0.008142702698483238,0.06096853686087218,2011-09-26 13:22:49.985813996,1.040067188
49.04879282280183,8.36868900133312,108.03577783127974,0.10478046404885191,0.012415457120764726,2.0899408428098796,-11.550541964804015,-13.805198545323531,10.230154135464009,0.40640101408125107,-3.4723137589363906e-05,-2.3069043460085426,1.9772187099646934,9.394535965497797,0.1537940830002172,-3.350198859700751,8.857211137584862,-0.052380212662259625,0.055072590730810056,0.002385972295523113,-0.013081196000693705,-0.01599478946819633,-0.023124332187734353,2011-09-26 13:22:50.085802410,1.140055602
49.044973496529074,8.432840465001684,107.89620044470446,0.04020404422377794,-0.01749240731977098,2.57085563735239,6.518914945941718,-20.92386948251059,16.554018052776534,0.22092420391845757,-0.17196978781746075,-0.9561702075093783,0.842029513038071,8.725713276674888,-0.3223999833797153,1.7643074707826054,9.880245629090059,0.01816522395268587,-0.00015760421612788858,-0.058792097835507956,-0.1087248292121779,-0.020144075854187794,-0.4536369662942263,2011-09-26 13:22:50.195818913,1.250072105
49.04651153098768,8.421050462472273,110.1645846748761,0.05375932885781268,0.002978616643571631,2.792094899397187,6.0625493753392,-7.8377437513057915,17.554947171953412,0.16073673306564984,0.07779667882636425,-0.841173013465534,-1.1453597144515706,10.31235982818295,0.5629929394045441,-2.9672160543004473,9.802602624039517,0.031318882749117,0.012181160232107326,-0.007239402937954562,0.20955819476628493,0.022579689502493262,0.7151014651075177,2011-09-26 13:22:50.295809380,1.350062572
49.05370660311458,8.421913437228984,109.0389882664123,0.03952350151568973,0.022254428290570123,2.7621246614803114,7.052592734549791,-64.69373848416735,16.015292152915777,0.22210136948082013,0.18814247138102932,-3.0414759574485486,-0.3006954332119581,8.242619105333342,0.059910356387867125,-2.833763705400247,9.391992797881205,0.2666860385070267,-0.012558297781318312,-0.12110652071456801,0.03660032052872613,0.01392528730334466,-0.05926074688118463,2011-09-26 13:22:50.395867647,1.450120839
49.05591449145734,8.413519428848083,110.57506670650227,0.0878959538459809,-0.04406179664380694,2.2398114692985778,-0.9379722310098995,-7.378140734379246,17.655656961142338,-0.07248957902754713,-0.01435336417064014,-1.0148102252608335,0.6670615460999614,9.363979233537876,-0.34169517436479097,-1.6806913601424323,9.747379280339642,-0.12180906395534348,0.0022153786737067567,-0.04188742580163695,0.015987724412173367,-0.023834572385264118,0.6049410165856521,2011-09-26 13:22:50.505834311,1.560087503
49.056195726631316,8.42611437848242,108.15273861422064,-0.22568002502782863,0.007853124200033795,2.507444284567112,8.442346584975283,-7.296773813802744,16.566645071330743,-0.22885725333857718,-0.24046857420545042,-1.0704133331176227,-19.52402132467557,9.807609774314981,-0.018442592889802045,-1.769034327683158,9.937966785109138,-0.07588006051518259,-0.223442072921395,-0.09493625868994154,-0.03157983777009945,0.03485338188084625,-0.023323835693990172,2011-09-26 13:22:50.605836335,1.660089527
49.043686148055635,8.417311095763829,110.61062740774047,0.24715802763012035,0.009550149230087785,2.897548258582681,8.570013090480334,-70.85315122421153,17.463648666519635,0.14787205354724275,0.0901560247729078,0.42386264571631027,5.4471334211132465,10.085839103836065,2.5554415829646757,2.2271259699004498,9.712673525560007,0.01537929333476383,-0.06013597080791028,0.8957912479634006,0.0427293570467478,-0.020939094197636274,-0.06440678462555384,2011-09-26 13:22:50.705896358,1.760149550
49.056646350038186,8.424094444402911,115.66794302359696,0.003906566084376631,-0.004158372973518523,3.0099080224821675,4.534880873087003,-24.770470833720214,17.19175619706746,-0.03919657016072269,0.10209941298278287,0.10408242874256196,-5.323465013208555,9.21377828310368,-1.364718520347647,-2.3945730232935096,9.952578486438735,-0.30946294058583074,0.04017744176245158,0.19277245910930232,-0.006010338214960885,-0.011932105156454839,-0.02869594496371499,2011-09-26 13:22:50.815896574,1.870149766
49.04741633033354,8.42085933227639,108.43962524761022,-0.019677924086594085,0.003760932108866066,2.7149393314780195,5.575185705636311,-12.56028902673284,16.910916501489606,0.1057851114454929,-0.060303381011739765,-0.4229521998277133,-0.43745062376366356,9.780754376490284,0.20454341668739223,-0.8559370034985684,9.791849772527936,0.11471417241177179,0.0010139324510613952,0.02669332162179823,-0.017699474024372323,-0.0005490518821407234,-0.08767453101349398,2011-09-26 13:22:50.915856822,1.970110014
49.06044981598685,8.425825425126305,108.9171515864893,0.06508668613324062,0.025178205726884353,2.357786768975382,8.603174290404704,-2.2543796894094648,17.24749279983358,-0.117691363635404,0.02048478388569817,-0.24056673698663172,-3.0294999135281593,10.46462047423623,0.270509742838698,1.739923865457114,10.51452983583117,-0.06144320271415352,0.021154997235372553,0.1707669331995631,-0.008473453160587684,-0.01284769297272275,0.03194638885101226,2011-09-26 13:22:51.025845497,2.080098689
49.06355813708365,8.422977223471609,109.51103551130862,0.025187200635584255,0.01073960146573345,2.257476797531985,0.9811022307341748,-60.411297097542594,16.87679363313486,-0.21912589235192054,0.15046707771079965,-0.6455209256183151,1.5840819057173463,10.130322852790902,0.3396042820579044,-1.1632736349083599,9.841447065034552,0.03708706340199534,0.039094294784853795,0.22268315372079844,-0.012697250019987978,-0.022243404236543297,0.15245197977335656,2011-09-26 13:22:51.125838107,2.180091299
49.06046819943057,8.416902289139507,108.42675410152967,0.08364903388323913,0.01236174308014662,3.768805701721247,9.151436918584901,-17.43736896512195,16.66999597347499,-0.09394537026992116,0.21857647383329204,-0.4550332675354561,-1.5813336571930252,9.830170278426491,-0.2947861593315642,-1.846119576289711,9.800035074583688,0.0013255245190777398,-0.0005200399866162617,-0.06577303890930873,0.027912244154960984,0.1472267057456206,-0.024034542480343795,2011-09-26 13:22:51.226062865,2.280316057
49.05405941465541,8.416991938683974,110.80481357189657,-0.007254608477177807,0.0010243601537261796,3.8027727694027478,17.63401300388915,-20.09704809126647,17.53375658488209,0.24394812611634048,-0.1512132604953963,0.5469717870569164,8.909123566638716,9.11124502173995,1.3723961124946351,0.09487986346212951,9.440236235040231,0.01811747044403528,0.0013786723293229206,-0.24903675958460192,-0.007402274571574646,-0.01931092625226034,-0.026451382636491556,2011-09-26 13:22:51.335892235,2.390145427
49.05187532615345,8.423847881757572,108.4405818818577,0.12039773129392042,0.005978800095924847,4.3542515764798875,26.089727403176333,-29.755542361209272,16.450214793165934,0.3081418109564121,-0.011807711978390856,-2.849635699574371,-3.3328671264224488,10.239803857388504,-0.44360471956508357,-4.739161636945411,9.525185803772715,-0.007756580116396176,0.0006832676253778732,-0.1698298467927358,0.007020642444436438,-0.039230641535683106,-0.18787459011335073,2011-09-26 13:22:51.435899088,2.490152280
49.0521074683738,8.425516995617086,109.81612540283814,0.02331297517713301,-0.05219744245848602,2.6472263622599264,4.8054001263845585,-3.3232785881064206,19.489197103248703,0.09700636451336621,0.6405187803168791,-0.34065879503539176,-0.7219770278583331,9.455147308949607,0.038716391423591304,12.38311806001897,9.48820753745762,0.021544111526362986,0.005790401708987167,-0.14128301128069304,0.12209118771780585,0.1427205795658165,-0.009488479462661556,2011-09-26 13:22:51.535872612,2.590125804
49.054519013215206,8.420664866623953,108.30292131429312,0.0692468288883818,-0.011119997974918444,3.309209477392823,35.155054426447144,-21.21530574839935,16.488658736501613,0.047148597912071745,0.039694040210888334,-0.7690841211487476,10.19786693915571,9.341956887179947,-0.7359389615569325,0.21213051783801706,9.457832934016938,-0.01160965347267625,-0.011501021162444188,-0.17081478351624318,0.09573348769667321,0.07248875395810417,-0.21205985502125066,2011-09-26 13:22:51.645859362,2.700112554
49.05553993681799,8.433077144383937,110.99046949994184,0.05297789987637424,0.0030815357093013623,3.9398568759311066,-52.89568678093948,-17.660301097121067,14.316466175358581,-0.01997178797798991,-0.13709175592679232,0.22705238116696033,-1.811471403167776,9.79898548752815,-0.6295237793110703,-0.4665301915091332,10.058416188723754,0.03883610790558079,-0.11390874883707428,-0.07143975354708895,0.35071948143693343,-0.0280931697805718,-0.12707037392476095,2011-09-26 13:22:51.745918474,2.800171666
49.0497891986127,8.4192648663645,108.75842622070884,0.005568193015691177,0.0020719484769862054,5.164476874760459,36.056526225968895,-10.119206785464987,16.946574050603317,0.015192153513969698,-0.06298924309435525,-0.08689119956664657,1.1722682560536914,9.032506960316773,-0.35836443283964575,-0.20983062528043772,10.41775399146568,0.10437363299199946,0.001363296788584106,-0.1274416937410714,-0.06955704438955224,0.02351732876942,0.0012462087361670982,2011-09-26 13:22:51.845901771,2.900154963
49.113681640834926,8.429742783534643,113.19106403436513,0.045353515783107354,0.00681048672553242,2.336878137233438,4.762085114637443,-14.818811502401758,17.26427640401649,-0.21076813683927725,-0.13700063650926428,-0.32832466453201503,-0.34559575629211586,9.775950626213495,0.2845169134780045,-0.303400474723157,10.186647530788287,-0.01335022314826986,-0.007256832999688484,-0.09529662305534771,-0.029599873237079983,-0.2111825972143033,0.1005004267461459,2011-09-26 13:22:51.955904540,3.010157732
49.06188515778479,8.421429973473213,109.56946160552926,0.011914350405931761,0.038209750425282796,-3.743577408132792,10.282925029641923,-10.10666920824637,17.688139786361106,0.26713457574154287,0.04958165084902816,0.1665593517163438,-1.5597235068118183,9.44372377132267,-0.06304289543403475,1.7630010997439758,10.44734723222586,-0.014602334259014017,0.0032147655677579154,-0.025238964137385675,-0.009489002134667078,0.0016466841906295508,0.02934921583268582,2011-09-26 13:22:52.055879178,3.110132370
49.04319848093188,8.432274034754094,109.41659452656954,0.014259622592995649,0.0053881009118143365,4.158494528381407,4.481329224969395,42.81571212367139,17.158575017365095,0.11050018172069148,-0.13030472196967643,-3.2725655848238726,0.13420867916079615,9.956294857987837,0.15660393644524687,-4.274272566345568,10.344812131076486,-0.03816422277974677,-0.039058654329302805,-0.1856159058663049,-0.018612580579181623,-0.021670885511768608,-0.009690710187282833,2011-09-26 13:22:52.165895331,3.220148523
49.04405421021473,8.42064397296482,108.40148250939791,-0.41363783319852643,0.0052943239362475,1.7239396456241725,12.602969300542846,-24.689893554526783,13.985362384941746,0.07589244126881134,0.04191198853293241,-0.5107473810041954,-0.0023724209130189244,9.768092941699667,-0.09894151956389315,0.7765749271191602,9.532458931121266,0.02726647714043988,0.02655731182883422,-0.005499750059471023,-0.04710683441361309,0.0339276417703118,-0.005678632140659154,2011-09-26 13:22:52.266104152,3.320357344
49.057397716486996,8.429869086138611,109.45436751900465,0.0034778691395405785,0.04558244643759819,1.493763227085729,10.043255036341943,-13.152312957227563,9.595507950841263,0.23889890191878893,-0.028419555165725738,-0.13392524442995649,-1.7022717471688436,9.857464914009624,-0.380357609806788,0.1280631745086629,9.31361877033253,-0.034729350013138593,0.005162330272039001,-1.0705260691287999,0.02023316942278825,-0.04821992263590474,-0.04182757571061199,2011-09-26 13:22:52.365873379,3.420126571
49.05655468613061,8.419639591488208,108.7661930263671,0.06379225332764112,0.09676649919976447,3.254811902972796,8.751934478578725,-21.618355241718195,17.505642901177644,-0.059139977800136224,-0.11090005517237478,0.19175656084447282,-2.338456535814758,10.227941499787894,-0.07506297401314356,-2.341109305889438,9.338173950258238,0.284419205804944,-0.001999199177413155,0.03254129710151615,-0.05312698532020885,0.18374262919388992,-0.22227261530128511,2011-09-26 13:22:52.475970984,3.530224176
49.05863741330842,8.42774663325311,108.95481982019741,0.20173766217659472,0.013963438710801638,1.6130142512647574,-22.1912652785032,-15.716673502657526,17.345068335566317,0.0845027399965446,-0.11234796197040682,0.023109133302902485,-2.0184456528070926,10.349901475784968,-1.059589984651316,0.31840648063844545,9.732903091115377,-0.024219837832200986,-0.032711243610542076,-0.1113400750149592,-0.010446864141029896,-0.03199323243705545,-0.22188546500785833,2011-09-26 13:22:52.575913160,3.630166352
49.046417596555735,8.419576778361126,109.40606336942251,-0.012583264747700263,0.02755869796544714,2.4936878220509158,11.795833605794792,-0.4260023873190786,16.264600266373105,0.025453441733225668,-0.1746511006819258,0.18215584100382437,-2.5889521729709544,13.242037041818636,0.4000684931917111,-3.4368468680545563,9.660019349685069,0.0013070192635062927,-0.005499178098143733,0.39563437653926153,-0.03027048927035239,-0.025244408485870028,0.036079208456913356,2011-09-26 13:22:52.675882868,3.730136060
49.04657294423015,8.425661416105148,109.45533538054106,0.030108364260299635,0.008305982538469632,-0.10924541954744393,42.210242824424064,-19.47792169824472,17.174279933973192,-0.11587756906472832,0.10462976813545918,0.09681432384262446,0.5804619508366426,10.309148667673519,0.18821746352030275,-3.047146106304438,9.899562061101172,-0.003175859880585264,0.04411198687947848,-0.15602229186733724,-0.038540557441877864,0.024376032206599223,-0.14532648871457443,2011-09-26 13:22:52.785932600,3.840185792
49.087671236686894,8.431901588034457,111.5671403989168,0.0767749991187556,-0.005427370879465574,2.8109529924016856,11.056131977480996,-33.185811949508455,16.685915885397524,-0.3990436474968394,0.0841078423464744,-0.2572667544445419,1.1260530110087397,7.586464771684376,-0.645812811077443,-0.41112213461642044,13.814733547637992,0.0007707084084219162,-0.012581875072223624,-0.06449941572643789,0.009193660704644373,-0.03573403164326273,-0.06200492375391954,2011-09-26 13:22:52.885886881,3.940140073
49.04159696866223,8.42217514053369,109.38335787445034,0.008450909536597634,-0.00029507162869520966,4.678083256862054,13.670771961071017,-8.118774415484612,16.87642917646391,-0.00046045676895589,-0.16150224512801709,0.15222475210024183,-0.3168564919720658,8.882856537530818,0.7151633763858063,6.210949164516288,9.139459827916406,-0.025302201621758127,0.010225023148333932,-0.0029495299671911807,0.048307009430292674,0.008546798868706407,-0.048313576735649975,2011-09-26 13:22:52.985881391,4.040134583
49.051510569876115,8.43240774174562,109.74581925069249,0.4966999480420532,-0.002350502207605333,3.2760774613050785,9.865811842962266,-18.624340531314793,16.058020399123894,-0.18236697691425205,0.32718483122993525,-2.032660216757919,-6.073765913976073,10.603106458152931,0.11343003438683007,-1.9326187305124705,10.121860103547661,0.05531074204334978,-0.03557939190928966,-0.1991715302117142,0.060330111640837555,0.028558117415016338,-0.12924412566891427,2011-09-26 13:22:53.095882992,4.150136184
49.05378481361728,8.433586786323229,109.52046969946574,-0.032629050187220184,-0.033329460554695614,2.1386310937634287,9.921058747399867,-17.675893987196627,17.72912060009703,-0.033972383376531745,-0.5995016917724336,0.6363987956489099,-18.337851310520076,8.906564972736076,0.5165030149390423,-2.0944511134270822,10.058982426258735,-0.031752233344519286,0.13087155834444575,-0.06353726051600093,-0.007212781914746195,-0.07693918159001889,-0.18132011550998,2011-09-26 13:22:53.195892196,4.250145388
49.04939667652488,8.447711653404175,110.27891435942489,0.03566500122958476,0.0022722456888534725,2.7635106434375634,3.022942099917514,-21.259145060508214,15.985994856925041,0.25747433675428233,-0.03698815354222679,0.6524122849223914,-0.04086070361466021,8.973009895720532,1.2077133785574476,-3.9314620950914696,9.273629978087534,-0.02959607299883885,-0.012957677546545062,-0.1738712463138417,0.003243852203121522,0.008836859124606238,-0.12736154159528418,2011-09-26 13:22:53.295913969,4.350167161
49.0489295337271,8.42030883826107,110.47924643346636,0.03065686720158544,0.01815092525401375,1.7481486813663762,16.547466545980384,-10.332005848354127,16.09482097933041,0.16637097059999084,-0.03977392536291555,-0.1814663842891233,0.24603960202609554,9.763260212172558,0.3171186284428286,-1.5859627983543894,10.07675777811184,-0.02906901150631901,0.006950903265208473,-0.27943690502149415,-0.028394593327954853,-0.05427643619769729,0.5507745309639914,2011-09-26 13:22:53.405880208,4.460133400
49.04712126314737,8.41989932098826,109.2660113484031,0.09929875084526416,-0.0021537980040931535,2.6436922302088752,9.866888467438809,-9.7339004187575,16.858988866047273,-0.01771239159522063,-0.014504318443184984,0.33534213287849957,-1.6981801714726779,10.056839571830334,-0.3294005548549094,-0.9802994254350077,10.280896915882066,-0.00821343760670637,0.0020528234960158383,-0.10842416567634267,-0.02701936488238229,-0.0025562349503696785,0.13204071497226927,2011-09-26 13:22:53.505897277,4.560150469
49.04854704491754,8.417191633183938,110.13860904061666,0.07920664693903731,0.012965617636775544,1.9031045524032466,8.31900312386533,-10.346103160913911,17.130230059629298,0.006554782616678356,0.04170595046205715,0.38130953448717975,-5.055878180620089,10.157970712399697,0.7878742150147178,3.855131716165917,9.393238431777513,-0.009995301417851826,-0.02758176857478606,-0.04977003044817373,-0.036800666456575426,-0.023054183975578988,-0.07959753918956623,2011-09-26 13:22:53.615917077,4.670170269
49.0526904607278,8.40797156399799,109.3568251344496,0.0010012895252892243,0.003189517272476314,2.577007593135498,21.727275290403654,-21.74526863723473,18.09779168499574,0.05282783563675381,0.12607763651104392,-0.14970296910339934,-5.296237610969979,10.63442939395576,0.15616283451733162,-0.6020487577447202,9.920185214187628,-0.0015640622560473601,0.016195149508253584,-0.021169008399252842,0.03157849342880054,0.03269355671140663,-0.06923516520287948,2011-09-26 13:22:53.715964961,4.770218153
49.04769246491067,8.431040842092308,114.05464708308199,0.3321340608814886,0.013469410947183052,2.0530269790383127,25.57549792140531,1.1203668192718546,22.813228202912736,-0.0033483792315186396,-0.11188335746795403,0.08177526082667498,-3.15447473190617,7.705280459899145,0.17520324449001062,-1.6488290004146005,9.655967432228985,-0.03990334552043,0.031610869539158405,-0.10084857229324376,0.04229444207440505,0.06005352116529665,-0.15259736891116968,2011-09-26 13:22:53.815912073,4.870165265
49.04926943661561,8.418760724885356,110.1341278203805,-0.20779268463053585,0.011664109219162068,2.486399734813495,4.728316352865655,2.2654283780665434,16.84520480587223,-0.08191996686978369,0.16255851134725283,-0.4024341128712581,-2.264770713465435,10.316636476126744,-0.11746804451101661,-1.344876271064734,6.568693179468443,-0.014374690495373484,0.016294727696575747,0.03441380793077081,0.014725539287782776,0.0034993610833837533,-0.009434496795689487,2011-09-26 13:22:53.925904510,4.980157702
49.0462213592226,8.4303963830011,109.2291211871127,0.030135366843738208,0.007066048744624905,3.2026758612596833,3.124909930861751,-57.99939120659406,16.09127016614976,-0.08135574268126815,-0.0375416546138545,2.90033114439414,-2.808519319266689,9.522594967317318,3.3931659209136815,-2.09237612645461,10.22458287718197,0.05501579019796427,0.010899902612810571,-0.0707262498849149,-0.004227962347699548,0.031238448945864652,-0.1300694178222405,2011-09-26 13:22:54.025929770,5.080182962
49.04222101177603,8.422399139147316,110.96012841544704,-0.02012972323982165,-0.0088786517459373,1.928253109093129,15.738283283704618,-7.635708496806949,13.841991123384034,0.9469150037916454,0.08509231943767738,0.025785549536431446,-1.1809839298597935,11.013884493061456,-1.6307951293290208,-2.3287829092164647,9.745954625090334,-0.045582726550003165,-0.06913344579639424,-0.1243153763000383,-0.05485068552965091,-0.03169738030122652,-0.09880791206344824,2011-09-26 13:22:54.125920444,5.180173636
49.04690096053359,8.417861242810003,109.71807749763504,0.007463119978853093,-0.002401150772719178,2.5207490628737124,21.557686484174845,-5.629988867647449,17.544921580624344,0.17110989710099894,-0.01036809359235559,0.6466870342741075,-1.4311821550466066,10.138637495959989,0.035559632569059446,-0.025397103755429473,9.747693702969329,0.00887029380256187,-0.008033022391327221,0.015876261253793808,0.0221571203903975,-0.11277309481577748,-0.4697268800701407,2011-09-26 13:22:54.236185901,5.290439093
49.00608778044341,8.424936589785071,110.08025886150617,0.09682145158368774,-0.00013559967525436818,2.290882868882365,16.937684684723468,-21.703204164759114,16.26560597504239,-0.3536779627980248,0.273202651483808,0.565069008541471,-0.3004231925800581,10.454215642505735,0.32107497524880013,-0.6147339758812225,9.977331863516541,0.006711729418170265,0.03245860072638053,-0.08665179909764407,0.024840254511507114,0.00211295951662671,-0.09463518746287074,2011-09-26 13:22:54.335988222,5.390241414
49.0490135569974,8.424127751747791,109.54735410653497,0.10900553575675923,-0.00491342573492492,2.744668727745076,15.371875302938282,-19.30705704368315,17.461547938638912,0.011205669043034397,0.05248308146482623,0.1840591893437074,6.406117439018876,9.725641145417141,-0.10486269990581254,-0.9663767377533601,9.757314422790373,0.03211842299379925,-0.03235729308753551,-0.4634732369692856,-0.005441110539667605,0.0061154108012348215,-0.13568506132921396,2011-09-26 13:22:54.435971360,5.490224552
49.06744661430826,8.44475650898144,110.82003999450998,0.012593967276860518,0.002709612078255686,1.6483362792380976,0.1223731646024735,-17.41809587935641,18.637808769876962,0.1960211628050221,0.3555059514615777,0.4050751822137354,1.6215864340557151,9.313872176887878,0.8666634933309579,-3.3537949737412136,9.34671962541828,0.03541425855553196,0.016399862193598038,-0.16037715548847165,0.011538884031984616,0.04562469720676445,-0.006956160970764014,2011-09-26 13:22:54.545939135,5.600192327
49.0563399510966,8.41117527740239,104.64817552166824,0.036877154601011555,0.014725916398492925,-0.0900260579156913,17.1850278294803,-14.227824955592176,21.7730033827644,-0.20712483702302906,1.7079690298456047,-0.0039671069978734486,-0.35757731949511073,5.362082942569989,0.031344522685599396,0.6275936678152929,9.462138287683146,0.10054487321835885,0.0008565570194115062,0.06971842844242855,0.14205761158163258,0.007496787245827891,-0.09830211348655087,2011-09-26 13:22:54.645940664,5.700193856
49.07102921691824,8.43197539198061,109.94721277628983,0.05525577892599792,0.009108777134310984,-1.9562579950904726,-6.407470813936033,-18.61485579124985,17.533225245882193,-0.0031713646329013107,0.12830785822509125,-3.761705371198015,-0.4379929032882656,9.786374927419795,0.5214708326747128,0.8686014044137278,9.625565285975293,0.016670628957107712,-0.030739220755955133,-0.08186285467804369,-0.09548635631125588,0.07590242819526673,-0.38000164650773605,2011-09-26 13:22:54.746140841,5.800394033
49.048545716696005,8.428974495205324,112.14434904731377,0.0591372284572791,0.010471127760389918,2.216513187246369,2.9348690290520594,-7.378660185835741,14.52612085669519,-0.2959114981204843,0.11368734253084399,0.06920832008562028,-0.972114844621315,8.852935492025175,-0.02852899585690377,-1.464594161063919,10.475888197876678,0.05188377517925092,0.030785627371461812,-0.038006261805240416,-0.1308671066798257,-0.0020912606172209963,-0.04726984723634127,2011-09-26 13:22:54.855951243,5.910204435
49.05506123326662,8.4241837482176,120.0359040083064,-0.07150187163231522,0.008869204850270646,2.450940030508012,15.969269376871432,-21.9814629972823,21.906699226078075,-0.11232509146450559,0.10544517378845808,1.8814745746310078,-1.4896309751528445,10.552858397119378,0.059056763061942324,-1.794798194945645,12.158196208741938,-0.022252519545010004,0.04069119722120155,-0.010281727150590017,0.026992443246361353,-0.03323663714926785,0.029366010315025226,2011-09-26 13:22:54.955998693,6.010251885
49.061385824812426,8.420475788564172,110.09556187086537,0.0304810629115001,0.0075165763533884735,2.0066602434393674,1.6173588742043314,-18.638064625270882,16.61330959506273,-0.013804686477926695,0.6438758646368129,0.08002579541136882,-1.360550682401466,8.48258453510399,0.28806845038581275,-1.7743506921802887,13.39860239330314,-0.17721445689134152,0.012043559918368503,0.11223060786226259,0.02294701488532102,0.011501268999345922,-0.11752969377289565,2011-09-26 13:22:55.065956110,6.120209302
49.05290674612493,8.427124535077821,110.72164659199476,0.021688346214337066,-0.03540171792595337,2.126525393784611,21.111544016495188,-20.675451938856988,17.238648529982274,-0.0097940493966857,-0.12696028557542602,0.8478816148583094,-1.316113446176486,9.940422628312998,-0.6338672720133867,-2.3367711785137653,9.510153832281102,0.029598040157905483,-0.03900581723841424,-0.1444474700317064,0.017055223121767202,0.02277619259192663,-0.11374159191754277,2011-09-26 13:22:55.165967496,6.220220688
49.05036221204772,8.41245517296516,108.41771837061283,0.04608078320858061,0.020516676047776943,1.3198136134798233,10.750727434407452,-3.0128593514306203,17.670015543654554,0.050210910170319124,-0.11698963128756024,0.33790190935081654,-2.9881553394499916,9.898932860708761,0.429887151163439,-2.195487769922773,10.146256528554257,0.0142519704724784,5.587309469935048e-05,-0.1699356697203806,-0.028856017756971268,-0.20883177128230027,-0.26833826363611174,2011-09-26 13:22:55.266026330,6.320279522
49.05302215172556,8.420000184516757,109.45458710895737,0.054396843593472084,0.01074510186814925,2.6103308380501136,2.8091305051408817,-33.17014795534808,16.599993690270548,-0.3033919389238372,0.02572145784106973,-2.298712145600258,1.7829340911384142,9.296906260818337,0.06869046621740181,-2.44725172992836,9.908606090704476,0.03794144111207684,0.02706283466916907,0.1981402550725024,0.047265029577404784,-0.08424720944720406,0.11410945273000091,2011-09-26 13:22:55.375985831,6.430239023
49.00238329790068,8.479570548902112,109.89302373695445,0.029358407863326788,0.009376148891805937,1.5437639847289037,6.947174395993214,-6.225324132222222,17.71542288599507,-0.11631216567338494,0.40480681212906494,0.42892249095962526,-1.0298565144818874,9.536991196171304,0.46280048197859447,-5.304496742051965,12.533474801666994,-0.2879248745481177,-0.024314828454632433,-0.14397393453467286,-0.10715615838371116,0.12855943819166862,-0.04264366647500593,2011-09-26 13:22:55.476026540,6.530279732
49.076982141985845,8.420574214166244,109.14928051622978,0.03652898047763342,0.014992366540928503,1.894969711537656,11.926061547320183,-8.783338091506746,18.321984363142384,0.04065428546411303,0.33195074921640233,-1.794187886860482,-12.7925538014682,10.60751949006939,0.4734605098223903,-0.21566688946674195,9.468297917058436,-0.0034715455674135406,0.005890239550965289,-0.1671795884118055,0.046070978318226236,0.2617926249146565,0.3553914665269982,2011-09-26 13:22:55.586018329,6.640271521
49.05135588047807,8.43188565730128,109.32474335770594,0.017213348782243006,-0.05059211590905429,1.9393510063846198,17.200291662241394,-15.628435431383584,17.370709307238307,-0.1434796397294066,-0.27490021790103386,-0.11071865846798404,0.2142979976394851,9.951821910985917,1.116546851828201,-0.5959995909726644,9.89060953195923,-0.008938379805225046,-0.009178146002728961,-0.10945861232350768,0.07152197469332033,-0.017624939246200927,-0.12386599302375523,2011-09-26 13:22:55.685984983,6.740238175
49.05039113074478,8.428626427438981,114.67906647497011,0.0733685281419873,-0.02166912120151402,1.5592568586885251,58.825026244698066,31.421872433242363,17.330102875999927,-0.13523210633071175,-0.13399635812833555,1.5687841526883914,-8.372740489804254,8.4887931137303,0.11182371379895148,0.7189473903202412,9.956468755678179,-0.014940887533137378,-0.23322609745421727,-0.031698409951099286,-0.04004339143819772,-0.006303279640887977,-0.08654328332576358,2011-09-26 13:22:55.786021787,6.840274979
49.058460413895915,8.419984492725714,108.32845636582161,0.025759420712937485,0.016758539807499265,3.16917752631716,11.932153067932628,-3.8292834501751063,18.543902554589774,-0.1033027978038593,0.0565160177655181,0.0013016119349864852,-0.4086484469804875,11.411058084130449,0.2971064589970391,-0.8396030411134703,7.548506996932604,-0.3105716930895446,-0.010630808824249872,0.05172805066317718,-0.03040627691290347,0.00013383066075450725,-0.056166909668381296,2011-09-26 13:22:55.886016590,6.940269782
49.052294097116395,8.425567684553815,110.0180307710756,0.0009195288224095599,0.0064000661083453095,0.3405196332126379,-14.283437669426903,-2.7703913879641586,18.159852979422926,0.06655589391601296,0.4719577629147595,-3.0399553644843067,-1.2925812627109656,9.693188807746763,-1.5300038251096661,0.8177185043077206,9.586514735192939,0.07270376716720704,0.005677097728637375,0.019368416559795612,-0.027466608942442298,-0.02065723102115279,0.04988275861442759,2011-09-26 13:22:55.996065179,7.050318371
49.05998121126252,8.418670761245973,110.5185297696386,0.021400018073300775,0.011894880109542651,2.048735340496027,15.992017979734804,-13.40933744855346,17.58067860750792,-1.3731147234239665,-0.7124788836788984,-0.7253652863588087,-3.292366507089394,9.539818145104793,0.16928127467335546,-2.1272916109944027,8.645981877921106,0.14842292014788108,0.14717818552520828,-0.09294707843993297,0.04760422912807682,0.025386479218311685,-0.09344651286962427,2011-09-26 13:22:56.096029582,7.150282774
49.04946409899712,8.402716725789737,108.91971415238577,0.03349313304848753,0.012413623992073854,3.0548717503735516,66.4381031280508,-20.15220340153445,17.24298033278699,0.00729897100051502,-0.1902762215976323,0.9206333745772435,1.3885401124411532,8.616785015174766,0.38034319559166324,-0.10173892976499888,9.209713731290183,0.054000280969314515,-0.011726135225598353,-0.10147737089368705,-0.03825900525993677,0.01481285172234186,-0.489646344985341,2011-09-26 13:22:56.196024115,7.250277307
49.053218455730836,8.42853090063352,109.77187618439149,0.12695398274350173,0.00945869154659135,1.9134740596983564,3.994523804925654,-10.836989767060107,16.301374973474434,-0.10287488237923348,-0.17037674532386687,-0.2579080330155496,-0.5767300324259068,10.492322571176482,0.6800646948365563,-0.19227642649691146,9.892248565746746,0.007147717863762178,0.005911257836548446,-0.14450170530360523,-0.059477646482404924,-0.02538341511240166,0.015931290473193777,2011-09-26 13:22:56.306108489,7.360361681
49.04922716467651,8.429382742499085,110.02082564924942,0.04523695798906262,0.01796495235872577,1.8630381580549589,24.046424644513237,-13.565805489774597,17.692686764030938,-0.07592044360308409,-0.1916296579556067,-3.9251635056733973,2.1295168235495483,11.345489888100715,-0.4270730788189735,0.013785884393740844,6.055123514838039,-0.3019476310758664,-0.017578534589638106,-0.03749020512973399,0.07529777759099378,-0.013956946866681632,-0.13970768319359572,2011-09-26 13:22:56.406084818,7.460338010
49.02584590876509,8.419288208875377,108.2744571749807,-0.01395482440132205,0.01830079858212809,2.1909306374072286,9.130178686999903,-11.614825785067826,18.050735961252244,-0.16400396867221673,-0.2927886575798895,-3.0973796897798223,1.2597843552131387,10.18978284660786,0.3083434483674684,-2.243661230935531,12.14025462998968,0.04432435587150158,0.2283095579419468,-0.159399039907276,0.023544834885106496,0.011910932986314418,-0.03836328770690697,2011-09-26 13:22:56.516036812,7.570290004
49.054833890950974,8.419736538881452,110.67275620126783,0.14442387719658611,-0.002064998311276796,2.335545608894865,16.48366680433534,-8.863421149238789,18.28901423132999,0.21977416984522236,-1.2138156304286642,0.4766057613523359,-1.519710506832328,9.682312222660139,0.2307233823818978,-1.7173880086890105,9.936180989021937,0.006964011020000437,-0.006620763040548813,-0.08259907783754719,-0.029346634803136616,-0.020487916913519595,0.04935016243248516,2011-09-26 13:22:56.616060361,7.670313553
49.059364945540615,8.411172875968525,109.4978728811419,0.0965562072314822,0.05744878245709617,1.6750508357474758,12.342545091097406,-10.605084375962793,17.80143158271714,0.305006730060602,-0.12764487901293592,-0.06569745381299597,-1.6305561969357518,9.663225472036682,0.031130488751966223,-2.2960912573959655,10.094036132501552,0.03714094245629861,0.086068091125505,0.12786000644077872,-0.019907019261848506,-0.012560359940801888,0.042145264179798886,2011-09-26 13:22:56.716299891,7.770553083
49.06323434726418,8.417456476102668,109.67000490823825,0.01652296348763223,0.02406128919473291,5.603644910003267,12.168714346292113,-6.66005798022532,16.623307851131784,-0.19081122031713843,-0.11862056712983837,0.11878475563813412,-0.5783387844350426,10.410544414984106,-1.1097907867784422,-2.5803261026483635,9.764412364404361,-0.005624437437005849,-0.0645130575549527,-0.1364542535178556,-0.0937816593388691,-0.044025689989939706,-0.0038365803703628437,2011-09-26 13:22:56.826099296,7.880352488
49.052277655953986,8.408538084709754,110.30744350998,0.028341658664591617,0.010573511661334934,1.6176647891275313,9.657319741839466,-8.230087498019365,20.420877978747633,0.29545712428748805,-0.7347454867084406,-0.20639821249167772,-1.1209514883651421,9.474666061862122,0.3002391089207487,-2.704612169692223,9.264979571823147,0.05540199126372222,-0.049053129244241246,-0.11478199575423471,0.018851524520813404,0.22150631481567273,-0.11272995210918269,2011-09-26 13:22:56.926079700,7.980332892
49.07892769544688,8.42643679798263,109.89425150304942,0.005383268716134586,-0.0008388109442464785,2.7857451623390688,16.29362259326858,-11.471861605678514,18.022873284624872,-0.002933192560076958,-0.07269578259554552,0.11813361557468206,1.1515480550186306,9.510508545744402,0.7746858747465248,-1.4216856732925542,10.917896932197488,-0.07529158082243068,-0.035770431959042844,0.004176367968600964,0.024660030919113368,0.009445233493946374,-0.023832054259404167,2011-09-26 13:22:57.026105084,8.080358276
49.01701062785986,8.4284881636802,109.79885959969063,-0.2643645855671408,-0.04679521148164576,2.010370331708366,19.32691798472981,-18.02820594694036,18.621995089100295,0.7872422467950733,-0.07801278209905917,0.27928691387270144,-18.10620004960729,10.473325273934998,0.7022148078511212,-2.3031514625053666,9.297283859439027,-0.057910305340633655,0.10056055832636344,-0.048174045008817466,-0.0149806848726969,0.03818567966687155,0.14599310518927736,2011-09-26 13:22:57.136165571,8.190418763
49.066443942163275,8.426407456735145,110.09887507398658,0.06095423522066733,0.001685541656655097,2.2279074295972587,71.85901201525178,-5.89834690918433,19.184488785897674,0.19079557954541276,-0.03713496305436713,-1.5808071201748193,-0.6693363153288158,10.054452300567435,0.1279722368250929,-2.0247594052414986,9.698256408475327,0.003492230442105821,-7.1233602946333134e-06,0.05734063178429041,0.03960445803571417,-0.002829954177876664,-0.03963121676329925,2011-09-26 13:22:57.236185522,8.290438714
49.04753024702651,8.424644128064841,110.00755358621092,0.06925214906038205,9.308844037896578e-05,1.8076237960128003,8.261266390468109,-9.77209132536312,16.71026221560353,0.008555222073883262,-0.11118297139955442,-0.23757571317328038,0.47396220104067766,10.166535951057835,0.08326732287373258,1.2169346694546115,9.536754621077586,-0.008215110739887933,-0.016413425699097615,-0.19845580418039602,-0.012913045198297095,-0.028616815608968015,-0.22391588552486139,2011-09-26 13:22:57.336123367,8.390376559
49.00784792385211,8.428198634458495,107.89851424473477,0.04652737343524232,-0.005021678580731496,1.084661133908072,-53.289396128370164,-5.163826646652477,12.631643730992018,0.13490446356859218,-0.2994601833219853,-0.09662712328009668,0.6300312371898354,10.21353426219974,1.2362129431030486,-0.3565159309964152,10.730479161899646,-0.03531411025485586,-0.024391967171880434,0.0018713522678939082,-0.04365303350783156,0.0019827760143940575,-0.08024169837494688,2011-09-26 13:22:57.446156169,8.500409361
49.05083045027372,8.422259047531117,105.59805403076592,0.04612819522179916,0.011070370621204355,1.6586469361614185,15.327100684828268,-15.582093120025958,17.91998900911098,0.09735207969435647,-0.16777567157497986,0.8475591355409483,2.64998549848468,9.870836423102158,2.097982039239138,0.25594975907324763,9.523402921625959,-0.005671801506783668,0.0038959465927761953,0.011977590536257444,0.015833434859735936,-0.0010900863549193548,-0.13246747397503916,2011-09-26 13:22:57.546145502,8.600398694
49.0452399542965,8.41560455286335,108.64743207283853,0.0377467598606282,-0.0003994994458387203,1.780726387002837,6.584442167176819,-16.513935113475817,18.27464305378583,0.08876138266083528,0.19355921679956264,-0.10254013450072744,0.7587259102818867,10.012556318982627,0.0068083152455643,-1.1400532015289282,10.12289812516272,-0.22620803249668478,-0.02914509308235869,0.13074030971813622,0.0440692252537143,0.008808539123211293,0.15899201680051894,2011-09-26 13:22:57.646137470,8.700390662
49.05385659100407,8.416936802020503,108.60479919575242,-0.014194512777847834,-0.01623251924017876,1.8685143795800943,18.041922904366785,-17.019366450166338,25.388170535711332,0.2469035452531317,-0.09187470079215228,-0.5580276172490249,0.8125390298996089,9.356633361937241,0.4732018360974714,1.8773397413545434,10.09713694904279,-0.00013837589378435516,-0.021963810421579015,-0.07179204224870364,0.023252170024583057,0.015049408119754651,0.0500473366460273,2011-09-26 13:22:57.756218372,8.810471564
49.04894427139585,8.446877126112382,108.11441841149338,0.01418008980900537,-0.024691089299563207,-0.49936535469032295,52.69161539253768,-50.17358953711626,17.95204903001609,0.18580232607668776,-0.06334568604917815,0.5521435604679114,-0.1588605010700436,9.67280388560685,0.22402387562866954,-0.1432001870098415,10.452388808425866,-0.04539418291237762,0.11286553638099409,0.11557532680506637,-0.044613515893990575,-0.002121818110607701,0.041697001174395454,2011-09-26 13:22:57.856139373,8.910392565
49.04660769918404,8.417371695385564,109.43395313219102,-0.0011147787157103628,0.02166579936278404,2.031355358083199,4.510584087934692,-3.7998440878971795,17.056044582261485,-0.09455171680899928,-0.2171718180492091,-0.43189043851937325,0.04113005999186849,9.122671192574652,-0.05628959825757368,-1.6456988000223638,9.282957921631533,0.005482743921004112,0.036336833272814464,-0.10589095255571909,-0.07855689280320054,0.024684219880999125,0.390522989922417,2011-09-26 13:22:57.966119654,9.020372846
49.047357070301,8.419246135248011,109.36351421282737,-0.0028123202210414908,0.016523668785824522,1.9533379097509693,40.163670654573636,-16.124999420739808,17.299276916846797,0.29494533636184694,0.22216856079976255,0.08058031639529295,-3.9964128199396765,9.641551682315663,-0.8726237430109398,-1.6006659327948611,9.656754918250709,0.003548905144400813,-0.004839483100110297,0.01929694706043554,0.05247247056570986,-0.04967537835566696,-0.021241067214318697,2011-09-26 13:22:58.066142767,9.120395959
49.05793459619759,8.447972534743457,109.36781292115431,-0.22788919332129465,0.013778548960265908,2.6103789880538235,11.593575615633174,-14.052892761110183,18.858527244387727,1.049520344391283,0.9215607164668919,-0.526820898395288,0.2904541648017905,10.46071749278473,3.3107804342768326,0.2133055879246003,10.568053532635567,-0.02216264264771491,0.007950087528714917,-0.13901621117882673,-0.022038803973783352,-0.014421771479839373,-0.018948141498167575,2011-09-26 13:22:58.166149619,9.220402811
49.057197584693675,8.424081685763081,108.50716092225599,0.007984962313658642,0.019908307054810732,2.3085805940412136,25.788873735562362,-10.042759225847563,17.784952436977857,0.07561601135951627,0.16357798188610026,0.21578290659522542,-0.5416208774594097,9.448566500466695,-0.18501225695979948,-2.209971603591539,9.939198131003602,0.020946643529988332,0.008105582285755687,-0.09510305904133881,0.3738963954515422,-0.008047220505276675,-0.07749356424429582,2011-09-26 13:22:58.276332531,9.330585723
49.057053749853054,8.416305971161846,109.984738418213,0.07169288779227176,0.020066810497230893,2.1729269048249473,5.9843520028100095,0.6596615410429596,18.079603288565487,0.1462070372593265,0.27500221408893993,-0.46342959215931845,4.4961393953658035,10.04349041799101,-0.3430117340876926,0.32220991895747536,10.028953882701048,0.01939693800268537,-0.000818851845472052,0.1006664509289172,-0.025326116743379447,-0.001851062800063384,-0.05636522630786819,2011-09-26 13:22:58.376147206,9.430400398
49.04827756965245,8.417809420836395,108.67225903030716,-0.0016711499708955205,-0.0013611292396644974,2.114142999442998,22.544280462880746,-7.5149418343938414,17.638573469128445,0.20574573170743743,0.10990466725660827,-1.0323730653560355,0.9372050000644964,10.311334535347045,-0.07388107104953934,2.8137407720422902,10.455126066301716,0.010601402732193732,-0.02372560845412776,0.06876088789769176,0.022683349618407626,-0.007177299782529048,0.02337202222207284,2011-09-26 13:22:58.476199006,9.530452198
49.04948820235509,8.42521604581026,109.65572820035224,0.030807949834137597,0.03626069205894313,1.3772916882489155,3.2064112708092516,-11.027448257711718,17.82414914445522,0.2523207783951723,0.011996472130430758,-0.11298184413747114,-1.013490989436262,9.799543576103835,-0.6975137162873145,0.34072926156097355,9.56628132426996,-0.3738500036238168,0.024749577482818384,0.35578562643789896,0.1919220098936632,-0.010216217588497011,0.06155469462484578,2011-09-26 13:22:58.586188367,9.640441559
49.03247413313988,8.403825411090189,109.44038898607441,0.04971670701312091,0.026549151055757975,2.322181108988037,18.665362219705422,0.9470375768997084,17.56448348747759,-0.07778754619086525,-0.18447973202641227,-1.010441379820227,1.6792161488336466,9.240507696294138,-0.612857482738292,-1.7005087163373995,9.99622545022261,0.022723799587918238,-0.05400567931097476,0.07595341514925542,0.029364662730988776,0.014743143542470326,0.047831588819482754,2011-09-26 13:22:58.686183992,9.740437184
49.05531937765105,8.427142426707242,108.25354750707805,0.0073712046812178245,0.0027631293282221027,1.09982562199252,9.072386039085297,-10.517023602027928,17.568891881822356,0.057578453136967966,0.19559445706732426,0.8001450909112413,1.4786462516488492,10.657197894413894,3.8522514391132523,-1.653278398574915,8.854851389440032,0.03823735795219083,0.04615682013490605,-0.037113808031623854,0.1268686004963775,0.02759867885861541,-0.14267021889143866,2011-09-26 13:22:58.786201232,9.840454424
49.058491348838274,8.421962059233605,109.82394801819895,0.011614935762992967,0.013617529890539382,1.8262893202573964,24.040438802844445,-17.0094746965975,17.3153740022681,0.047778642383843786,0.013455290040519211,-0.29104729354547587,-0.9228007660751758,10.075934401939358,-0.1726755566018564,-1.4998029985802654,12.325149068215591,0.2062513503804405,-0.008230511584240888,0.032264299514457216,0.07815416020683752,0.055597745682748896,0.17813422347877178,2011-09-26 13:22:58.896214025,9.950467217
49.05773370194008,8.422666568889623,109.74268765182406,0.11097525853439683,0.016253041510447857,3.0793535271415475,20.904494752155983,-9.087826284197723,18.051925092975694,0.09728682728226046,-0.0787118342558038,0.6107723412411891,-0.38262545929928454,9.338425206367921,-0.03134042853241463,0.6431831916225145,9.159634890665728,0.02794972374430328,0.017340114123819774,0.17400479421676454,0.06683905165255757,-0.023008061357605164,0.053326852553253895,2011-09-26 13:22:58.996215051,10.050468243
49.05623373892884,8.40694695149673,106.93741400147528,0.0610733393194301,0.010981380101344912,1.7050317567909892,18.703244787546673,-11.890299500052695,17.529405779635614,0.03444359010682643,-0.01102888988263892,-1.1186591739255394,2.7398752566721307,9.881716199996006,-2.406884370689722,0.5584609279970892,9.673082700718387,-0.07665408894640266,0.06964095732042588,-0.10302695796630679,-0.1301238180620155,-0.030833358518898814,0.0323593486555625,2011-09-26 13:22:59.096201767,10.150454959
49.0391849937221,8.42504590112075,109.80216165420069,0.08044220458213874,-0.019605943538327758,1.6051429131475548,25.33349217741499,-9.058253925768627,17.71450648154358,0.05585580929986614,-0.2063291623260487,0.0857173917303029,1.2399505514331728,10.873857982047923,-0.10632434680813818,1.1077845799454626,10.11411865543008,-0.06992348308384778,-0.4050527418782283,-0.06243869240870045,-0.05206391622721036,-0.03435335788273944,-0.06715216813771986,2011-09-26 13:22:59.206318561,10.260571753
49.05603391322433,8.4239190123929,109.87260188964702,0.018041540884651285,0.03332284918499636,2.3005686944839785,-0.4486617514320894,-18.630749601264842,16.793935888336843,0.02683634130409108,0.1244352586589437,1.252294463864281,1.0909090803188397,9.552667271090671,-0.16702393906951624,-0.839109066591679,9.490955629615987,0.03717925114154921,-0.025069591264315898,0.1517785641783121,0.08071574218746508,-0.0017362881923273735,0.19269419673796084,2011-09-26 13:22:59.306244990,10.360498182
49.05397172762111,8.420539707057474,108.52866563945722,0.01351417562537845,0.004503615150374264,4.046280821212568,5.979489156555097,-9.42711097174098,18.45225951176226,0.03798588371190123,0.06812506323347639,-0.016475241959907072,0.4243379397722645,14.108470903994588,-0.4624175679403864,-5.784369300497898,10.048842401389239,-0.030739088228209636,-0.0011352297687482623,0.018383465377711884,-0.0381259948988068,0.025675077786980513,0.5397559297940746,2011-09-26 13:22:59.416185645,10.470438837
49.05804098780606,8.418351271778949,110.07146966428682,0.17402214263533822,0.009087540745659844,1.8470223535256742,-4.487627896993985,-8.635669093335029,17.484976087545398,0.13219678796019207,-0.008605610456615849,-0.8115751857945783,0.7932457194473437,9.674651914886148,-0.07118692137136831,-0.6101661856438684,9.856051885726993,-0.04193678130729919,0.020819446844259976,0.019810393545894776,-0.08302202544378202,0.029653033704368968,-0.12843179825213624,2011-09-26 13:22:59.516209899,10.570463091
49.064556937318436,8.423711783271083,108.46277211418649,0.47088704742003834,0.013071464449484847,1.673289004874783,29.76827870548663,-43.907358764041604,17.870577900513965,-0.011963297724163893,-0.022437120826675712,-0.5001618611659151,13.298329397053527,10.191459915150578,-0.45608961379460583,1.266332532638847,12.616235547105095,-0.02220798094685332,0.01890979448008032,-0.10999774900820114,-0.03621513257884057,0.03070339255103276,-0.18491930524750325,2011-09-26 13:22:59.616219366,10.670472558
49.05986553402309,8.433998017405516,109.54549434336064,-0.04025665417255743,0.003263069130196591,3.1423722925393958,17.002871529616407,-3.028430537543752,16.905700385604188,0.14233680230230322,0.11948997712930085,0.970766578136708,0.16074093839779505,9.811255837384369,-1.912802688794321,0.8643258413962669,9.468811859412448,-0.05910377726639332,0.004910169418598007,0.21642015328380174,0.05279793603076193,0.01782854777129176,0.012720641112128667,2011-09-26 13:22:59.726444753,10.780697945
49.0605462068685,8.424369126335169,110.37902532291668,-0.019284329353792807,0.001476603358274176,2.5608579858114764,11.277566212041101,-5.686235919693793,17.606869471064723,0.2764960889227196,0.1903843646760381,-0.525887625419889,-3.61950257277502,10.197846340187432,-0.42000661026597746,0.6126514036441905,10.288609310141924,0.03414722606863134,-0.02117776267171718,-0.07756133388443458,0.05131205902229187,-0.008902717624398464,-0.07130076814580333,2011-09-26 13:22:59.826224857,10.880478049
49.056815618576564,8.365532298566327,108.53840599331633,0.04087560081299951,0.02035525490291773,1.9559023470131778,12.512478715627616,-9.18102328865288,17.333250208495432,-0.8510216831074002,-0.12266104847654186,0.6002452370786682,1.1876604765441172,10.482521383475051,0.6337503913499101,0.6590260556542821,10.156864155284849,0.0013513824599628251,-0.014694387410249464,-0.019909817990009855,0.020843471446277035,0.032876424524522926,-0.027664774038260495,2011-09-26 13:22:59.926198554,10.980451746
49.04949971030881,8.48685355973649,108.99359981942187,0.08941860905150283,-0.0029242329266751755,1.7556154811017777,13.714141356209561,-72.52298786155512,16.129018731569435,-0.1107179689210431,-0.13771827362998432,-0.17846982890741156,2.201446982568542,9.449592759918286,0.22750586261394867,-0.07313870927615983,9.809358119404504,-0.0063806704578592745,-0.005816985560990128,0.004121729889419478,-0.036221759473520694,-0.039847301444408505,0.007665860859783623,2011-09-26 13:23:00.036230466,11.090483658
49.05854570958331,8.428654070614142,111.26802822403626,0.014890484770997761,0.009351429923275626,0.928496182397172,37.135110546305256,-11.40935751356335,18.435182697861723,0.17827369742581922,-0.06575870546478729,-0.21634070613024936,0.8313649826990241,7.536918332245998,-0.08828071784435498,1.2817599931551555,9.604451994498234,0.02532944503191986,0.021983734703285376,0.4789327007504545,-0.03046211349067505,0.05171733254506544,-3.205024712514895e-05,2011-09-26 13:23:00.136245194,11.190498386
49.05329971355623,8.42303926789288,109.98958179211577,0.03310129956959522,0.005383210896480925,2.3659296113030255,5.847948745102345,-23.515296955922388,16.4731302217325,0.11048201153769815,0.0888250270964549,-0.1477448353900766,1.7096152343541282,9.64230327364604,-0.3517305872071618,0.8033539801354586,9.640309006861873,0.07683952681770838,0.0011841034780506457,0.0409527859791391,-0.14194070474046458,0.0026348349246849857,0.1372712278207603,2011-09-26 13:23:00.236444661,11.290697853
49.053522233112375,8.396073382824781,109.15364693216198,0.05580341161637002,0.00806340622733047,1.7164562612668086,4.322241818448104,-13.88055709593808,17.25190305792929,0.15822531679670265,0.3490637030698863,-1.0487273399399435,-0.2784970151505496,10.015117714238338,-1.5139037550084702,-1.17300321500729,13.317529359052838,0.10243970796582655,-0.06678156857709831,0.027036334012703667,0.012738881095426549,-0.027562506424264804,0.05852891973840561,2011-09-26 13:23:00.346222050,11.400475242
49.050891325984054,8.419153242885399,109.21304534924799,0.0012780631238558833,0.01592662613721778,1.2253825094400432,13.022013148601777,-12.6296353487195,18.654345467601257,0.1644907537064254,-0.12493842252032526,-0.05341958668229629,1.8873177969074373,9.780442225853275,0.430767187405675,-2.4061043404593843,10.809686357540372,-0.017056981614471136,0.09027878312067798,0.021081033132349852,-0.09573392563988566,0.014288275037242516,0.2280644560388652,2011-09-26 13:23:00.446240396,11.500493588
49.04874113322352,8.413367169213101,112.85266847388128,0.009205049652707926,-0.026252806554068156,1.9791209573054196,11.776288047001529,-5.084072234928532,17.582990702912834,0.03725757955667045,-0.6207373877815128,0.9052298727039486,1.1307125372167959,9.246588378622242,0.6644382165800363,3.0280178675242873,10.653934902148686,-0.035350075764195764,-0.03721605434591174,0.08900217387931784,-0.0439361189858232,-0.021222582660714025,0.010006070728338472,2011-09-26 13:23:00.546249290,11.600502482
49.05990472089065,8.427785652228003,109.4069239132874,0.038248625223713355,0.006034200742164277,2.088402097012971,17.301731374803982,-16.392215371109543,17.75272817870505,0.40284545469002964,-0.1298003354583723,0.20195992077238506,-2.980961692661746,9.22119980036865,0.3701209923708212,5.474262582631736,9.435458273360531,0.015461277427338384,0.029420799526372075,0.054779579870496836,-0.05259497017293955,-0.02102870748618311,-0.017733095331245827,2011-09-26 13:23:00.656287871,11.710541063
49.05175762797143,8.424691756796403,110.30038226279756,-0.02958672635364133,0.0008541673700187564,3.353143505027357,12.216257580895356,-9.895739663454327,17.554597580412313,-0.10584162114709773,0.02763284263861552,0.3262224774456629,1.0753199884583071,10.098221100688095,0.39452153955848235,-1.5730002488134325,10.50165367360789,-0.011567496898306138,0.02492296074757731,-0.013465069629085403,0.059697820976073554,0.03176907438952724,0.021964413461788287,2011-09-26 13:23:00.756303818,11.810557010
49.05622219729758,8.411748556475859,108.50173149905876,0.06864305776599701,0.002828150331201206,1.5921866688248238,22.665830965712807,-20.395203847282612,18.18446381048164,0.40611233868039176,-0.07968415564070455,0.5165355505865172,-0.38078424697357854,9.175979924448743,0.06263665574247845,-1.4103173300595682,9.6266050335287,-0.010150874895310368,0.03226555325699934,-0.12474956189053565,0.022692441825544783,-0.027973389418364303,-0.18439413424042067,2011-09-26 13:23:00.866280155,11.920533347
49.057829343820515,8.431934492508955,111.30687064941948,-0.04579972478165227,0.00788193307279706,1.7892219580433912,25.966846023720887,-8.5658925674994,18.340228349799855,0.21289771405307273,0.2841986616879537,0.11021688837521987,-1.6837888739775213,9.850595913912844,-0.2935442199405512,0.6826296202955624,9.605281509724309,0.040658235562085115,-0.004900672926705298,-0.05710502664848525,-0.02309490206093666,0.00048057313764559727,-0.29240097511846086,2011-09-26 13:23:00.966262653,12.020515845
49.082292032651715,8.43458146250151,109.9300986056433,0.05956328840365255,0.012557199028819153,2.546243183293466,23.65613635292211,-8.000811577885457,17.149218436946228,0.0018126833896013467,0.5968729704726667,-0.39379392921078005,-1.8442198362269664,9.167602912272235,-0.08402181321147016,-17.769880132400214,11.030501229716055,0.019363468828672008,0.020979933464085308,-0.0442829459515192,0.2944646954078039,0.02355909244812994,-0.1642700192776237,2011-09-26 13:23:01.066261781,12.120514973
49.05659031240715,8.413628321806385,109.05588889579919,0.014835113891389968,0.00484759970189413,2.1293759257152534,16.409036376937742,-17.50817098466314,20.994544325430077,-0.20760008890418424,0.17625918594935067,0.5338260183480275,2.463058102605952,10.792964247438869,-0.2212184366457602,-2.826167158896735,9.792828277628725,0.03474849391346951,-0.000708372734491108,0.052442940794647695,0.3944841514007054,0.029672724010567763,-0.07537483361706232,2011-09-26 13:23:01.176270403,12.230523595
49.0465273731093,8.418672109695576,106.58744963916698,0.35169524008449043,0.005411173137498585,2.401634523538706,6.55375175864048,-18.054487353326444,16.757525800288008,-0.17219642422523002,-0.048830815958489725,-0.16510450145194586,0.49456209168222054,9.96624661638608,-0.06239473745685431,-0.1457180220112929,9.70690147223209,0.05641108779544471,0.004129249771153795,-0.028112758953486444,-0.1597321519952589,0.050547412313276474,-0.048561457606244474,2011-09-26 13:23:01.276545569,12.330798761
49.04503281933234,8.42036589374948,105.84883450684998,-0.19472191956611615,0.0075155461387933,2.9521098189783426,7.340775431734467,-0.9926192633705746,17.656042767839708,0.2224369837123798,-0.06942659342758298,-0.6383347147653311,3.6383667796501906,9.833051283902755,0.4603576102400772,0.07068398122985488,9.407364159087312,-0.015035604834623737,0.04711308173314885,0.02787356143515958,-0.0561364478062867,-0.014445668258697211,-0.027005118068799436,2011-09-26 13:23:01.376266303,12.430519495
