lat,lon,alt,roll,pitch,yaw,vn,ve,vf,vl,vu,ax,ay,az,af,al,au,wx,wy,wz,wf,wl,wu,timestamp,rel_time
49.02711991224048,8.44852728478898,114.37103784846595,-0.01142059095873272,0.017500241807892596,2.5783744363378442,-8.000001270128875,-31.666830369192983,15.011369043080347,0.7493948865439699,0.07066724389055805,-2.250366381024138,-3.6967677287787715,9.450846129165203,-3.0123516538923587,1.124392300133344,9.532682290258297,-0.03222439003679585,0.023559875180604678,0.20645148555331813,-0.015662384083131024,0.027273431305980034,0.20764834661479634,2011-09-26 13:13:32.212564044,0.000000000
49.02516859719414,8.448613628914657,113.99634162763422,-0.3355572354995534,0.03252452583813277,0.626361170782395,1.9821467114891982,-0.9781975475966908,-5.191342838545279,0.18813677682390736,-0.060181246356650356,-1.8999736320476521,-17.068854886837116,8.499167919370104,4.1600194494994165,-2.3176093346056623,10.331649379164206,-0.03928526143169794,-0.024196274834821,0.8932290343383174,0.016570174032477843,0.004728226120635094,0.16649579721602237,2011-09-26 13:13:32.322364840,0.109800796
49.02470778834047,8.448660342589667,113.75325229769055,-0.01052395493561766,0.03685646849332576,1.9967761821988328,-7.174674262303188,5.911460546764057,-8.195879371094557,-0.2032872777027275,-0.09756903690583942,3.536626609431907,3.686145973228181,9.31628671749194,-1.4365152775396017,-4.660913863289672,9.456471503946622,0.02138466105048755,-0.01432049844004078,-0.2354856285118401,0.03789317862579487,0.013735386171802108,0.060817030835076925,2011-09-26 13:13:32.422405664,0.209841620
49.02604865999979,8.448562180981725,114.01839651138813,0.000995841385506912,-0.0027860389910099436,2.7756243502516487,-2.438065811488059,-5.135215095726333,1.1303905526604296,0.017847886055379483,-0.10621789824006857,-2.2971513445693748,-1.986681757894857,10.04336380106357,-1.6828499454028787,1.5282142033537898,10.03975235321855,-0.011614597853004793,-0.04164033028799179,-0.06952818882524929,-0.015700446316916104,-0.00933187165143481,0.5891827852919369,2011-09-26 13:13:32.522396024,0.309831980
49.02503720382206,8.448304454947486,113.43106958508986,-0.06081088400056189,0.02211823205217564,1.195163215353254,3.2123268813607577,-2.279151237266071,-5.417817297032744,0.13290871312425104,-0.062325194630681924,4.341324061075817,2.5106821855604093,9.98285134783085,0.40653501576654566,-2.558875203732087,8.123749835710342,0.006837683440634704,0.06306209209177299,-0.005615801480878613,0.026744583205822615,0.014050228237896575,0.25414016425085145,2011-09-26 13:13:32.632434672,0.419870628
49.0257821254213,8.448455782615442,114.25488095077499,0.0362254988210783,0.03893522761389624,0.38051713195946846,-12.819531942668997,7.352794734396509,-0.8985632065428533,0.39426352021856703,0.5732763023445966,-0.15390964995123102,-8.730996585003533,8.96143724911267,-1.7873555599699806,3.4717992367647557,9.336764061757815,0.00044130331201457063,-0.0547594894233885,-0.09824558958249187,-0.01763420841092731,0.022075022823022688,0.29667673894583246,2011-09-26 13:13:32.732619806,0.520055762
49.02548226481563,8.44882347966565,114.31504245793904,0.0003203035486983412,0.03451897094836412,-5.22860982945687,1.9251155211110673,4.358995583328402,-19.26389609755676,0.09508644896916436,0.00022554162718896233,-0.4895542479351922,-21.4924904726573,9.832279632500589,0.4264510683379939,-1.2547405648505423,10.227166947916869,0.04698052493042089,-0.04008282732822238,0.09169480203019235,-0.04257094040225264,-0.009023602511166157,-0.2643998727904728,2011-09-26 13:13:32.832405355,0.619841311
49.02508209337345,8.448744559900183,113.08155902298344,0.04988702625874965,0.03061267465106374,3.358107629337294,-1.2214978690220366,26.662305358735736,41.12376119485659,0.17543757050046832,-0.3729791878479701,6.180483444448481,1.625107807375863,10.225637244603446,-0.07398062757007348,2.371303951113623,10.132271909813536,0.014069015436654961,-0.0535320930029874,3.5229618594191754,-0.005019807784472349,0.03950723637269351,0.16133387583825387,2011-09-26 13:13:32.942409752,0.729845708
49.025325076417545,8.448536753864227,115.86999387504362,0.08081199477191613,0.02681996352546672,-0.272803889124543,12.951909971370743,2.9521750023343247,-3.366122641594334,-0.3486928536060819,0.030434836408119448,0.33987566288495996,2.6297779473684972,9.466588196899822,-4.796066971020099,-0.6453537033580607,9.73536172362994,0.06023061852851598,7.672682159448908e-05,0.4041100007315537,0.34717338285559574,-0.042029037814265764,-0.24255219550973767,2011-09-26 13:13:33.042470256,0.829906212
49.02533541522566,8.448291749408817,113.85668483616024,-0.06322828351569014,0.0462271010916027,0.8346710714805603,7.4860763161991075,5.904130378092773,6.936434235161139,-0.07020162460698524,-0.04438963266130749,1.4532497403122868,-11.110443105342249,9.71731015881707,-4.965793565098311,0.8344584508486804,9.363821622523151,-0.015988853944932536,-0.02471812468983013,0.18605608880512903,-0.05802077364858385,-0.20753769076022385,0.3476861452500803,2011-09-26 13:13:33.142436718,0.929872674
49.02782728672646,8.448828731024369,113.8682250796782,0.01868058530195711,-0.007115154598043176,-0.5110745112456838,-2.4178067661561515,-2.560696159911346,-23.90555619832843,1.5107276637301168,-0.4218132862201862,1.2685235582247674,-5.044599728823828,11.435953658116613,-0.8308579235764927,1.3136064392744102,10.486066825153479,0.24921473301276859,-0.20465726269041498,-0.6480305383634212,-0.022710428238891717,-0.04075924083166971,0.0914509093565921,2011-09-26 13:13:33.252493591,1.039929547
49.025422337321515,8.448369149156486,113.93090240337573,0.03291005307758014,0.014854440015560784,3.051537897773671,-9.88663163048864,-19.802374483024433,1.7717551534232743,-0.15612907141017773,0.3771375014262648,-0.7572823364478316,-1.5813586392432804,10.073992160969993,-0.2549798560460143,4.072465756530407,9.664414232159539,0.025896924811087775,-0.07160823764668828,-0.08100184085222051,-0.17342004859860308,0.03282510025712228,0.3481340078426219,2011-09-26 13:13:33.352433806,1.139869762
49.02556185142772,8.448674928007495,113.90336143246878,-0.021580949343620367,0.005740095424252156,2.0482556387264976,11.650824154887976,-8.211293581175337,5.5322601897345525,0.11207267844782497,0.1902464801814415,-0.161934959660761,-0.009349629775954382,9.479551775064703,2.088127424975803,-0.904087367819748,9.45605258595686,0.013716066038520193,0.0567846391439058,0.24066543888316105,0.019605487625363953,0.0044025811507546996,0.2622979487114469,2011-09-26 13:13:33.462447872,1.249883828
49.02603725478905,8.44865540819674,113.9267636421242,0.034411219475151834,0.029117708410170327,0.6988597413999166,14.057558821046236,-7.905596305222156,9.879310896652374,-0.11193873522675338,-0.23635956800052413,-17.369365842347435,0.4163546010451228,9.494062453967409,1.3984087439225767,0.964642321983599,9.231380491342824,0.035197407278814194,-0.02136290285172436,1.1922618541871974,0.022196440425946245,-0.06300236394678169,0.7675862994844403,2011-09-26 13:13:33.562436506,1.349872462
49.02545976113775,8.44879521803003,113.6150705404445,0.0777953074769946,0.018640891490413872,2.3140934426414503,1.271070502487265,-3.2550031172587635,5.809663889721056,-0.18040966211778714,-0.038343105223115403,3.435170666141088,-5.105685073878115,9.83760581139857,8.583101905867013,0.7244117099204401,10.157793266543065,0.07964516661796554,-0.013870856024606856,0.477509685446255,0.0003644044385685446,-0.011115457637346463,0.3760763683020609,2011-09-26 13:13:33.662499467,1.449935423
49.02595808677009,8.448415192138693,114.07940445219127,-0.012592107853077539,-0.0035622438399907468,1.1899459247896669,56.57249616374862,-5.298416931556493,18.994239719596028,-0.047157755272207745,-0.3788443818415198,-0.5646048693735748,-7.016118730882016,10.644814186904059,1.7024597430141315,-2.2167400068883283,10.29961151415532,0.006369721117840944,0.0032497335471584504,0.710672763467943,0.009367525229805006,-0.005651907877490973,-1.0150865632580088,2011-09-26 13:13:33.772559236,1.559995192
49.025723439461004,8.448589008822806,113.34525585154982,-0.061626829172470185,0.027442894906663046,2.333765230595814,5.35108649205822,-19.827643074481553,-18.688927418821926,-0.20749944894327343,0.09033010187793386,2.1866888060932976,-5.927390617835082,8.7653673105924,0.6623209504031062,-0.17208248094041767,8.01588183180468,0.011592459915979179,0.04566903596059698,0.24520620098596135,-0.0024039716204144906,-0.10618443518560863,-1.7377827587182197,2011-09-26 13:13:33.872509404,1.659945360
49.02593609118075,8.449513234183335,113.65811144936899,-0.04749270321862871,0.014745725609494663,0.9738461014107764,-9.738113826115637,-10.539915973631151,-13.250526421485832,-0.1278335132386402,0.8394788222016394,-2.2475220943162713,-2.485648420009204,10.807638820645023,1.2162734300438565,3.752458203719748,10.180353539675545,-0.016630160193651877,-0.1191194295629352,0.6331513832625856,0.043987812046727526,-0.05943431481000954,-0.34215262955975195,2011-09-26 13:13:33.972504422,1.759940378
49.027074905062996,8.448690816304284,113.26421514201503,-0.005069411814000779,0.019374294188475617,-10.051263047910746,1.8146004507892606,-5.50907552607237,1.4277425902822718,-0.05260831591121391,-0.016284957185190366,-2.0180540609694138,-2.6593201685103947,10.10466683716043,-0.5155506481289457,-3.0344144128579913,9.410633998318357,0.004333483427105266,0.16401195529582302,0.9274475563664729,-0.04657544758296401,-0.2996906079198751,-0.40503432261738215,2011-09-26 13:13:34.082470790,1.869906746
49.025091780396295,8.448389876495622,113.67258592468116,-0.0071021595748600504,0.03112084293003073,1.09270176974582,4.903492333455035,3.206681134986157,-10.105636042089541,-0.06709388904128566,0.19884065257877187,0.4128421625759328,7.06867153185223,9.040028680551977,-0.35506441320989235,-0.5662379577074721,9.69247741436111,-0.030416181514158792,0.005951663377670459,-0.3801520341041706,-0.10334356002500346,-0.03260277616775511,0.34773430417672563,2011-09-26 13:13:34.182636414,1.970072370
49.023228076728515,8.448578724277104,113.94053957089868,-0.015507363965560086,-0.15041884678118558,-3.8074013285621904,-11.330021895265924,-0.11001110567075013,11.009928242251771,0.0531137407045439,0.02999749602769741,-1.2430758420040107,-10.843791801696671,4.459751620269991,4.326157267870237,1.7978453526447689,9.641103403600207,-0.0019893661460816804,0.015458190131921406,0.16633423140803427,0.021992670796091057,0.0021703492291187316,-0.028122928910776966,2011-09-26 13:13:34.282528541,2.069964497
49.0254855616677,8.448614469562456,114.06823006454289,-0.05764283915137243,0.018771371501059744,0.3439345334599292,1.094636302987753,3.3461320677033033,12.287704097958624,-0.014130232468533621,-0.519187375050164,0.6286535017043454,3.309009855587366,10.00463521818492,-0.8145976290347552,0.6671292815400234,9.428745936527536,0.03007430720575742,0.03918839682935873,-0.15772454914060724,0.0378612830667243,0.03067461039019277,0.04098469273662805,2011-09-26 13:13:34.392480359,2.179916315
49.0253825433097,8.448975158022666,113.68890097937043,-0.014817280719838044,0.006133215832282349,6.679258151163193,6.393122639348966,-6.901388592433838,8.65869276255144,0.01145342882279288,0.12249704336370315,2.5939989364350264,-10.756567494404935,12.43600999552504,-0.9330675574520533,2.6615188429888006,9.5110352130432,0.03422674681034824,0.02584067496894669,0.44714931693813686,0.059028251371996125,0.011565292260711253,0.07680536771329938,2011-09-26 13:13:34.492492635,2.279928591
49.025157278723384,8.44838681169095,113.39885443084219,-0.01197683191514725,0.05634300500813772,0.5985201441584354,1.005692571270441,7.019858991115577,1.9282664764136304,-0.13891016840305756,-0.08369130036474655,-1.1406468043356033,-0.016335361126456935,9.412876318222313,-1.5919279863460112,4.776721124327599,9.735428620434455,0.021285848220660944,-0.05102857976414532,0.3708600079486119,-0.4366843168676233,0.0435308228095112,0.9549389748775825,2011-09-26 13:13:34.602490365,2.389926321
49.02493460509854,8.448421842543363,114.81624887176423,-0.03845874882773426,0.019160496034102487,1.652072539075725,-4.869441370119612,3.7830482750770664,-3.938274079736626,0.14443740284506856,0.038958209121267975,-6.843386376284967,7.786783185286234,9.364273135368693,-1.4792970532843552,-2.177031923454248,10.726678029483741,0.06481682664859671,0.07485324096463729,-0.08799048769158126,0.18369479624295382,-0.004796023649443881,0.030211331194777005,2011-09-26 13:13:34.702539028,2.489974984
49.02501803729336,8.448610676016193,113.87441767922945,0.012955665512970825,0.003483168039474606,0.823487425935067,10.989206671032905,4.79617373241466,-3.2285484307378023,0.5939410281906724,-0.05661209630813697,-1.524445698648055,0.08286123601291241,9.866905537895265,-2.890506674108605,1.0991833150387151,10.230261792121656,0.04005661703347703,-0.026063078872456423,3.0971922783998136,-0.008608960268294358,0.01555117327384583,-0.23843333930769814,2011-09-26 13:13:34.802517705,2.589953661
49.02552949449201,8.448506071720415,113.06862983543881,-0.051825661928253,0.018438771807348115,1.0623550179784926,-3.203802899097219,-7.950990358525949,-52.59446754999949,-0.045959841652520574,-0.13856799092274105,0.3971037022421896,-1.0623964240585375,9.728925897594769,-3.2919840311697977,-0.9200504005133017,9.595629170382185,-0.03248173241605849,-0.00030877776974348953,-0.5315388902480094,-0.014124904069679459,0.0765392442508073,0.08307972210126689,2011-09-26 13:13:34.912507696,2.699943652
49.025068079746696,8.448446996568338,114.174635129013,-0.0031297199867993414,-0.10690257963445189,2.1749612030123786,-3.4352564136866297,-32.55795319910717,-7.641315318555305,0.05201080860740096,-0.017261209873302173,-0.6069539834590676,1.9642661083016346,9.566547148861984,0.9165011059901176,4.338999041649188,8.818449265238014,-0.001704591093515314,0.15453238724961968,-0.07464049202095291,-0.01619433130565418,-0.010874071827626192,2.8562964863431874,2011-09-26 13:13:35.012496520,2.799932476
49.02599870072226,8.448435373020478,114.10884263946635,-0.03479742748926227,0.015755173212609427,2.0289443677784895,5.620581184587573,10.139539295321423,1.2691107526608318,-0.05504689101550396,0.08362870226510319,-1.0569188612892602,5.9449939132922855,9.621702858384687,-1.518113234831206,-6.92631884508568,9.815680276876105,0.02933253208285718,-0.009184076628071967,-0.48678576319804984,-0.040113921351871806,0.17573308336717175,-0.22956041581333012,2011-09-26 13:13:35.112515234,2.899951190
49.02527091999981,8.448528862615127,114.38936587794366,-0.022061047835862126,-0.14158067099016267,1.5107148399735708,-10.011967017179252,-10.849058405466684,-6.199418600469608,0.13790688021385733,-0.05032442783592241,-0.41234811629986406,-6.655636916969893,9.704405185431774,1.8092904409232986,1.3625867758133432,9.226265970273552,0.015809993891281324,0.0029170404671472533,0.2975732871580588,-0.09856117221825862,0.05053888630579356,-0.8084335030587945,2011-09-26 13:13:35.222620158,3.010056114
49.02624090515559,8.448590455066174,113.80701594075528,0.047062807420363964,0.017576686615837694,4.022272151479753,24.887150926102912,17.860265641522076,-3.0474502457042716,0.07168173344406596,0.10234518302076166,-0.16313076529945333,-0.29959714724719455,10.289189288240657,1.8542680891692573,4.831442778684344,8.891642945854588,0.03782706522301635,0.03506219807751481,0.3070271443099752,-0.001510945604075368,0.01384491554807844,-0.3010676526510676,2011-09-26 13:13:35.322516916,3.109952872
49.02571808871545,8.448213291992209,113.89469309016799,-0.04061243448205779,-0.028778293705531716,-0.4214994520553672,1.885175026827384,16.832874867288428,8.297236269529138,0.053331035537579424,-0.14392136112238976,-1.4325490946012467,-2.0711027836541924,9.975205512046875,-0.6515115857239121,-0.5602537521724571,10.507269539637328,-0.10636635871273228,-0.024410266067163455,0.22935377210744995,0.037103134695961125,0.05329277822168337,0.027633632029650607,2011-09-26 13:13:35.422469245,3.209905201
49.02529228925696,8.448740618238482,114.00498856274915,-0.03812891588301555,0.004931163355793121,6.95785401133159,-1.0430984122619114,1.7704586159212992,1.727091730222835,0.11017134887111847,0.08547873569528593,-0.7745206766228352,15.99811736250876,9.866153012897776,-1.0506405089242061,3.893852240816962,10.1982458203408,0.01553189419173339,-0.021982219484123138,0.3147614985577683,0.0450185244933422,-0.010439231087086285,0.3223210130100444,2011-09-26 13:13:35.532520714,3.319956670
49.02573945809123,8.448671910813665,113.98388844886182,0.22040047274382832,0.015403935157734744,3.7868262235316537,-5.746972434881091,-5.112575216480808,0.9477283682668649,0.014955877752216271,-0.07990728463578263,-0.8771493656211053,3.6668530355444187,9.804058083425813,0.07313623231921086,1.8968181452908544,10.502664630591607,0.00883704986942835,0.017331187978888087,0.09985059499174573,-0.01988297451865717,0.014817401044616308,-0.6448440524163712,2011-09-26 13:13:35.632557554,3.419993510
49.025704775455196,8.448672467053479,111.66712869043809,0.0013545487503001455,-0.0030317116255204595,0.925240672394427,-9.923714615466045,4.467518542973284,4.468963069695693,0.1008390909051405,-0.034123336357168764,0.08791128150200095,-3.860944188920892,7.719885153235335,3.672718496864445,-0.9015163062840963,9.876065075583092,-0.02984854822364918,0.030322616044851407,0.7071023224026665,0.022619957344251127,-0.00917571153398912,0.1846266772519105,2011-09-26 13:13:35.742763578,3.530199534
49.02552465545291,8.44883860709357,113.69929941968932,0.038683871649406794,-0.005211948203965536,1.3393944007565346,2.3877748833365504,-1.902983888626814,6.047810791982336,-0.00538470351169067,-0.03119658434913593,0.3879451629803178,-16.05238890907852,9.49870937115159,-4.0278178604987325,-1.155154412505868,9.84186965524534,-0.004180870870921536,0.0025613353114770014,0.2824481576997864,0.02153869866245221,0.009045920489344854,2.031841602723063,2011-09-26 13:13:35.842530901,3.629966857
49.02569769225166,8.448684724060039,113.20228674180265,0.015600394572310623,0.015354260202428877,-0.6755982336990414,-1.4296660411768343,0.5690495591074453,9.754555508343085,0.0952920060816635,-0.2209680591988119,0.3727859768949195,0.6423468336126975,9.98407599810588,0.8388312916900247,0.2912738439395663,9.805030823755091,0.033554140038506486,-0.018768251476383592,0.3480070133644361,0.012688028002467412,0.025067182443928075,0.4871434937775814,2011-09-26 13:13:35.942513375,3.729949331
49.0256610396388,8.448687876203572,112.49299737302367,0.003394471007783475,0.023684743719890978,11.28802916708595,-1.8911114020449837,-7.901809100819401,-10.673725179036612,0.14567950657071854,0.17743714425562415,-2.19389865896336,-2.1405980871581485,9.226511366858402,-0.09378105180127656,0.7477826194348894,9.88221810294899,-0.00888681073241204,-0.010447096713761005,-0.10550266036034611,0.03490305641472368,0.03269058712872638,-0.12885068278368078,2011-09-26 13:13:36.042540656,3.829976612
49.0257926998166,8.448413943048742,116.90128627661919,-0.010030436284420248,0.025216438742562533,0.28287752342994854,-3.7085717425477727,9.891118774924967,-8.940144510924922,0.32092375054669076,-0.156010394661129,2.242051112244703,4.218811190098646,12.40381861924635,-4.108417908040735,-0.7818909373896551,9.873844302214628,0.034538414555105264,-0.031388609898854745,0.35150681151073115,-0.03076691175890362,-0.028550038573224402,-0.7131331040927907,2011-09-26 13:13:36.152567958,3.940003914
49.02503384300559,8.448664414227453,114.11756820068805,-0.03738713755915934,0.015254396949017,-5.259027355450213,-5.892503729245063,10.763856362307372,-6.870360797868775,0.14907665881507828,-0.32003007673652034,-10.949521003588906,-3.801025061164935,9.775245514823837,-0.16664991040988164,3.552398878656274,9.968345913468609,-0.02314400564057141,-0.003092054380655058,-0.053602646845998456,0.05320715885987845,0.035525890328675175,0.16690075857833353,2011-09-26 13:13:36.252663804,4.040099760
49.02565853866419,8.447780755336087,113.95905525699138,0.006945133353162719,-0.08281418694658604,0.1463435986736321,4.175941721806328,6.142256477434471,-14.821437132979026,1.3415286450005754,-0.09929788190911366,-1.240673283061738,4.652558439621553,10.121440915898962,-1.3530858979501454,-1.3415960960205309,10.824219740886637,-0.01510365620939068,-0.031402448828234404,-0.15553869679457022,-0.05156481965098044,0.01475853259936393,-2.2556624386562136,2011-09-26 13:13:36.362574078,4.150010034
49.02540509422683,8.448400922396175,113.56058475104948,0.1877397087386029,0.0455025134789669,1.0796975807745972,7.0905872755892805,2.3099064012382726,5.72478359675063,0.11919390044819278,0.03177521074263917,-0.9306643708943243,-0.5527764699189257,10.946318843313504,1.2254059265573918,-3.222567545484492,8.617703757417376,-0.005361455460037964,-0.0674345534830731,2.2939443591801543,-0.022005541296315184,0.02420949039082396,0.3732174966917607,2011-09-26 13:13:36.462559687,4.249995643
49.02508617775017,8.44845041737464,113.31951716031843,0.004583175857394378,0.038264635653493466,0.14324601489280742,4.667805264407597,-8.30125043948424,-2.4541062871878854,0.2783450646343938,0.8194211389460899,0.11687146840711007,-0.870193140206182,10.086372047292214,0.7652799475830441,-2.609082258962178,14.351625246243152,0.024064995756745453,0.19605064907103584,0.2525337077524733,-0.032454444663066864,0.023923569065111682,-5.044938648507009,2011-09-26 13:13:36.562562932,4.349998888
49.02598009553448,8.448561677348946,114.32555869677037,0.03226010867256901,0.004034196855969202,2.1242035021971573,-0.44569191362327387,-0.9089459996887216,-4.98866459218358,0.04275348065417796,0.08913847168716096,-0.66909752493475,7.483968503420807,10.085348038833844,1.4689298537528184,-0.8625682199773037,9.424361615288197,0.22948772724578667,-0.08181226797517008,0.262636055516807,0.06180236813513644,0.04623626373497634,-0.15665310328452664,2011-09-26 13:13:36.672596448,4.460032404
49.025274920511954,8.448351269992608,114.06757543043877,0.005797888196358779,0.029147493892946783,9.107529584568265,5.0301935735882,9.499739244246213,4.4343850893405445,1.2068755679260157,0.08070485500926518,-0.014787173131150105,-48.87157239457816,9.752329939729096,0.11575025366493852,-1.6531427934059257,10.098084977941436,0.027167657609084864,-0.009437510343813373,0.19545070912632498,0.007801089086226292,-0.05150230043076827,-0.38781541876083553,2011-09-26 13:13:36.772662981,4.560098937
49.025532101502186,8.448626589887628,113.42182875784712,0.0013340244019175579,0.01251638513705295,3.409940145221124,3.1017950791123137,-15.741889290838968,-13.433158646191735,0.04396028671417709,0.11001581189868001,1.8005665680097707,0.1380061674320812,9.463740495410333,-17.448924695269753,-1.233404779861318,9.132128708036966,0.014707965555137025,0.0072327350606606325,0.1156548337460241,0.3036780655926328,-0.00355191217423286,-0.181141487058125,2011-09-26 13:13:36.872584268,4.660020224
49.026059965010006,8.448322067635022,113.96463297091556,0.028745534772749614,0.024007021091354212,0.71541744970224,11.467541533726136,12.409634474100656,-57.86055901530107,0.2575658752593135,0.18323252325672343,-0.9955053054219034,-8.729359358471104,9.838637349516912,0.0846033068120126,2.460483202743579,9.119087566030013,-0.006939006685732127,0.01432970600500497,-0.5743580202308981,-0.04180632907638349,-0.0265980845890739,0.27668167201641797,2011-09-26 13:13:36.982581005,4.770016961
49.02461368957052,8.448603438623284,114.26232645979044,0.06275666291757867,-0.014492038099462258,-0.16338922113685728,5.9684917793734655,11.705101610299092,-55.60575189106556,-0.0035790723313973358,0.4657322794123533,12.128262485790588,-2.769327693100339,7.911441212497926,2.6632197167284137,-15.104648770237171,9.717730914647793,-0.03331384638869053,-0.18056948244484006,-0.11331821858555609,0.06615619807278615,-0.029237286776237173,0.3063922710165652,2011-09-26 13:13:37.082740896,4.870176852
49.025727982881904,8.448558141734402,114.16846788525633,0.024964303068798703,0.01870564073120482,0.2723830855976963,17.533810244016667,-38.77160446508027,-18.53125714185201,-0.08609837281109559,-0.06372388438240192,0.0052085183807109026,-3.379062399056904,10.535440587278096,-3.2294261776088913,-0.09547272041350076,10.153495642301666,0.004879168263814133,-0.09356930402257572,-0.0862835068277045,-0.005229020551536739,0.00016933851006142197,0.19707661641279056,2011-09-26 13:13:37.192618899,4.980054855
49.02537264009471,8.448624222951405,113.84665392077822,0.027507921410123308,0.020805071014256108,2.5007663911979217,-1.766234959979011,17.08445513500144,-4.164918559837995,-0.09659175131895192,-0.022585409056421295,0.13816003491598858,-0.13996637476887003,10.222748145441294,-2.310047727795715,-1.4077956134970795,9.558276524132426,0.018891043354497167,0.31766337338676887,-0.48070821032866773,-0.003337639836519557,0.003984392574474918,0.3383728239534738,2011-09-26 13:13:37.292630976,5.080066932
49.02547081741375,8.448343255849295,113.76111035189417,0.0018727883245994639,0.005929824043060066,2.3488653503925274,7.829222795668583,-2.461032351648363,-2.4678025509804384,-0.20997761475082113,1.1436643591858449,-1.4098449778851228,-1.4548154431187776,9.412742676486886,0.9674109599607466,3.518553089158541,12.357012669042353,0.029680259961120215,0.0254376525855721,0.1111592321324217,-0.009864108831518363,0.013854529946273737,-0.126339205485407,2011-09-26 13:13:37.392608503,5.180044459
49.025574003186335,8.449728318084649,114.31522325153334,0.023163680805758938,0.02823226606334412,7.436122980197238,-11.782026375220022,-4.083464583805384,0.11913699381951641,0.3691189141920057,0.16797314951233863,-0.495765469307442,-1.0397720540597812,9.597583770161998,-1.7082198262649195,-0.5965094418293573,9.644446454923303,-0.0357674946548533,-0.02784095664819409,-0.3467833546771171,0.017196236486799975,0.044002156433444434,0.24108620944966044,2011-09-26 13:13:37.502617417,5.290053373
49.02520108238572,8.44842859891592,113.7084957883461,-0.029681316869554063,0.023209919202368406,0.7837459896296702,5.681046197454546,6.547702911900171,-85.63467577457139,-0.6946967806340378,-0.08456381179989546,1.8345995883543182,-1.2825803219028409,9.401668986759306,12.164502633105588,24.655194703756592,10.369446332115519,-0.037240282210225475,0.00915603732144901,0.5527023227274909,0.0373361863830078,-0.12132350420067255,0.5805424091023306,2011-09-26 13:13:37.602605564,5.390041520
49.02601081736845,8.448338961592635,114.07673204489288,-0.06382000843448085,0.00047355353014772415,1.6405129820396271,-5.911366166945747,6.990766641893784,-13.309363413914824,-0.03239536117322733,0.002028518718721911,1.5478412244958075,-3.140729155799075,9.76804934212946,0.7221638179624293,2.377865528841955,9.447975356627534,0.0032152103067067186,-0.11976914537319719,0.1035951284177498,0.01485665958581041,-0.008427934966898124,0.08005435976010279,2011-09-26 13:13:37.702714426,5.490150382
49.02565313596631,8.448304083203576,113.76846355018645,-0.029656623688794573,-0.005462857120751979,2.9457948350935856,-1.9623096251602141,13.38330704665367,-3.13757128619602,-0.32471418750044084,-0.10510884096712136,3.6002895919433344,-2.0599876769969168,9.848535668911438,1.0809440313715735,6.709443616232115,9.832763631858734,-0.018414616519226115,0.006311997658602936,-0.22762880062097746,-0.23179345323845185,0.007283383844785422,0.4554143107428158,2011-09-26 13:13:37.812631116,5.600067072
49.02563539785717,8.44862219493484,114.23297816802337,-0.13502834286187454,0.04077532265743316,1.9386705389309076,3.0033267461446926,-16.594463787409712,-27.299713872312363,0.015961169456047676,0.09141999209304008,1.1560526029575124,-0.36150061044589576,10.457496368775184,-1.8683210211045003,-1.4408263950442692,10.048041500506283,-0.0024484611082149824,0.001892811441528378,0.9933560165665486,-0.018593765975648838,-0.011122840038406695,-0.7078973498930434,2011-09-26 13:13:37.912619660,5.700055616
49.02567638348744,8.44844619381819,113.57819047322666,-0.03136013232303374,0.0018143488315148226,-4.950990825813046,-8.198431587575326,-6.1973882701957095,3.9026454991457817,-0.09141319998224239,0.2990627728295779,-0.2419228015803069,-18.50516008111035,9.707142063939163,9.406867847390776,0.6371604421441335,11.68323685209014,0.01927421286513587,0.07230979195011876,-0.41333939018062604,0.00949186853234743,-0.033640086106167755,0.5025122896434034,2011-09-26 13:13:38.017633280,5.805069236
49.02556599665229,8.44879778938538,113.97805042209367,-0.05027843553080967,0.03559725683855754,2.224629908810314,-8.781234429742392,-14.447822368506042,-3.3771879241407254,0.09568087858968202,-0.051335534649971176,1.4697021244061603,-2.0341376082208864,10.227912677355707,0.5169653322888708,-0.21252837624818416,9.922655356765555,-0.008553902910916254,0.0010918869167816634,-0.7681608734399903,-0.021949904785625206,-0.05770756664346184,0.5338089987300881,2011-09-26 13:13:38.122646446,5.910082402
49.025297714593,8.44849329088853,114.03420997870832,-0.01712832773402923,0.027242521566592667,2.274418104919299,-9.047035505482995,0.6686769418958732,-3.517622218387613,-0.7619055419689396,-0.056371676517770475,-1.3261178968194334,1.0240881551301417,10.061164310039624,1.7980049906913809,-2.2031106369355857,9.429188248917633,0.0010733710983091462,-0.016706280033498812,0.054278588100624615,-0.03789939170274638,-0.0259616057594831,0.21091269692307207,2011-09-26 13:13:38.222796995,6.010232951
49.025729064987026,8.448991043786053,113.60656370989639,-0.182049882697872,-0.0003637160687352606,3.654391953816313,25.823243867550687,9.713622377572504,-3.73128272225778,-0.08694156469172551,0.007616337655372917,-0.09368926310533515,-3.533575582353511,8.961283024688662,1.3009125492859686,3.5468401208118716,11.524863800463548,-0.028507941824441458,-0.036250912913317494,-0.06643246470377778,0.01293089199197398,0.038516651814637676,-0.3780766991145024,2011-09-26 13:13:38.322662614,6.110098570
49.02530413624126,8.448670501292893,113.9205141238775,-0.047137081605772374,0.02836662840209255,2.7745155638136136,9.72679900028207,14.975506255360578,36.53825954063944,0.22449021458186094,0.02769535243366639,0.7725639981089011,-4.191233025955924,9.52080967878537,3.5927811056192596,2.4680820876115,8.128124270496595,0.0017463708980143054,0.08702752391681955,-0.05047317638358306,1.9600218022708172e-05,0.017923060039469637,0.1367667273450163,2011-09-26 13:13:38.432657811,6.220093767
49.025490392534884,8.448743892538037,113.92565698944382,-0.05462639396041649,0.011177260310470012,2.214615460180438,24.810933581027708,73.25013920175175,-6.0429278573103735,-0.0718839995777183,0.05797981637118586,0.375884562763297,18.95217323222023,8.87687258890493,-0.8334094478261141,14.85735286525415,10.514527483239664,-0.016785766087799574,-0.0278887337515469,0.554159590428959,0.014374222166265948,-0.0018152585732304901,0.017554977140134282,2011-09-26 13:13:38.532673503,6.320109459
49.025543160872346,8.448452257687615,113.77939167673573,-0.005333217970390823,0.013169043795437386,0.9343885946781382,-16.04478872476752,-1.7705773078800875,-4.530576742371485,0.16488549879721115,-0.12257290823366668,-0.9757289789141333,-1.1765901678808801,10.119154422086323,-2.0367960840552417,-1.2458697199509254,11.780238018080432,-0.03461486700431356,0.037428989995887355,-0.19180949131523292,-0.027882523396724614,-0.02546575734397971,-1.4548793516419878,2011-09-26 13:13:38.642671312,6.430107268
49.025158582191786,8.448224840454769,114.35052293634702,-0.08669200714030187,0.024146422542364324,-0.34380191400667437,-8.885922096129185,-13.947110064669033,11.904157454033335,0.15377187530577272,-0.24309807265452063,4.55621053120993,2.3081897337120396,9.761580066822924,0.9686698240962344,-20.655905334707814,10.188416464986885,0.016986974890402656,0.15867391464512978,-0.6398147659500815,0.0024663919695700936,0.18344919780756086,0.8068925731969689,2011-09-26 13:13:38.742850791,6.530286747
49.02612014881291,8.448651492094262,114.0386836908773,0.017600581312230308,0.028660841879190664,-2.2874864461867945,-2.6582774414716943,-30.68433486858145,6.4014259242342755,0.17120303874361295,0.1102432565934017,0.005453275966866844,-0.11405719661248535,8.207422898530847,1.182909570924614,0.6538720292726666,9.792622041628539,-0.03387440463772497,-0.0007442790763199754,-0.295022792952971,-0.01022796388222928,0.02683692570942894,-1.0542939921989223,2011-09-26 13:13:38.842672026,6.630107982
49.02542028977172,8.44825027936228,114.0039141130243,-0.008931708519380705,-0.0239405009790149,-0.4440675273207333,10.307893105873163,-2.8696153974608896,-7.585628784880454,0.6546100558644109,0.24089233509663685,1.871562595960388,-0.11354039817209412,9.69833309032233,0.023883802605839256,0.5756750433783058,10.044196344838916,-0.021230310573427308,-0.05194604506330903,-0.5376735065259252,-0.019415320326061556,0.010509793066635756,-0.2842336177116104,2011-09-26 13:13:38.952712250,6.740148206
49.02501949720904,8.448586484795126,114.13365052013732,-0.00909988131998585,-0.022715411858836992,1.7215092920783106,6.662802302361188,-5.761268734318135,2.742161855567132,0.06183607899197025,0.2068170490341573,-1.4767915198485446,1.1800548764802576,9.567779300724712,-1.3664602136561446,-1.1368604182396567,7.1185924619341545,0.22908390742633036,-0.0012198822508846011,0.32356946010573784,0.015405048977939281,0.08416852417527489,0.45727986825430206,2011-09-26 13:13:39.052749493,6.840185449
49.024917275357815,8.448739512643467,114.01277582300112,-0.017751171990097684,0.0552504986218012,2.4363991610226017,-1.2176227655651741,-16.918684139994856,7.369037571988606,-0.2959424506755976,0.1879659772165175,-2.0188946822055107,1.8546294186401513,10.034041076019937,-2.582355656814195,-19.387974291438336,10.03621767853848,0.17091624886902113,-0.019078313711517435,2.6941028255769353,0.03751976907153387,0.1990349279241584,-0.10719393488470433,2011-09-26 13:13:39.152720056,6.940156012
49.02164539852175,8.448642871962745,113.99911978576075,0.06306278157072666,0.020745003005420207,1.4652267848722886,1.993127875936768,-7.756877940868018,-19.531760598144714,-0.035285225039442945,0.051009316429587045,0.003685226862725044,2.34174316515429,9.90341616046705,-0.5674876348513669,-0.35247788800154684,9.859745210976316,0.034682885427919204,-0.036504509850379785,-0.7618163616087452,-0.025543215937968242,0.039039668638657724,-0.41927887113652257,2011-09-26 13:13:39.262850256,7.050286212
49.025769865010254,8.448664964411831,113.59191910421707,0.2778066606663003,0.0026712319285598102,2.295318068412098,65.05653324115015,-48.634945420016045,21.66909042209584,0.1702237521357825,0.03550742633290454,0.5641252728555799,-3.246853205454853,9.913207473085444,7.393602320384232,1.1648353754370566,10.756175932361828,0.010806902577814722,-0.010503673238376155,0.13161225257480666,0.08488009086950965,-0.027262747666986296,-0.16023459695883693,2011-09-26 13:13:39.362716966,7.150152922
49.02554384015477,8.448509237064822,113.4586262513223,-0.04332430991056474,0.03942739740804622,1.9681074417851772,-1.0239533781044226,4.725758110015289,-15.524708937157,0.065284788842325,0.5977628873522208,3.2298624576297095,5.381098665010731,13.228263867510073,-0.5828664860761295,-5.75666670058828,9.464464302021511,-0.011272694708805174,-0.023355724478973612,0.21827933713085362,-0.07481248644570802,0.02115854251478267,0.2486421773573258,2011-09-26 13:13:39.462700689,7.250136645
49.02562359773891,8.448444605158254,113.81236884015142,0.02749873510541884,0.005339137607610197,2.3220154268390862,0.3286511954888594,2.1524475640901413,21.865202789745044,0.048000147457099115,0.2163952055537062,-1.0806482792495435,-3.9884063470173152,9.988406256055402,0.3622276225746762,-11.074510879321014,9.809941448362181,-0.017085642294181854,-0.022995508395466012,-0.024169414188116398,0.025987011105803825,0.02849778791482597,-0.18492428613773984,2011-09-26 13:13:39.572704973,7.360140929
49.02548953058919,8.44880697188674,114.23803167777139,-0.07344134866781199,0.04521168566985808,0.665738673675555,-10.103282995325321,-5.903450448219747,-4.669337739939644,-0.3839662778585588,-0.23069410150920616,0.4012557529031044,-1.058535833810928,10.283363673748626,3.32902854885639,-0.5557781953013153,9.794258991674502,-0.03458818493171651,-0.014424219935724476,1.8160757589306218,0.001292407029286377,-0.0036009706068986444,0.3457177849129694,2011-09-26 13:13:39.672766599,7.460202555
49.025640968175665,8.44847224613022,115.14333021572001,-0.03911674530660225,0.042169371210524574,2.814838740386695,1.906090099692616,3.260880917557417,-17.65923539227394,-0.0006067697867729012,-0.0185389934431926,-3.5255024498385357,-0.15342266407379962,8.872788491892766,4.1970791331420525,12.217779841354469,9.846403737284582,0.024332049228397847,-0.02410628387956867,0.7610608666048193,-0.027419133062956656,0.0046580200720493055,-0.48454966797937454,2011-09-26 13:13:39.772785700,7.560221656
49.02586204978734,8.448674512754597,115.61046709997632,-0.052197713399621946,-0.007283245475867343,1.0029136433085633,-7.642178859597099,-4.422617326262715,5.506203452124678,-0.018986401965206307,0.2564161526236283,2.0257686552501926,-3.088656160167875,8.775874060388896,1.3122190570607264,1.745466358965866,8.98131171727908,-0.03656911110652569,-0.2715402856174669,0.5648264256757661,0.020547944376778843,0.15720354744196618,0.13902079349223834,2011-09-26 13:13:39.882866482,7.670302438
49.02321622569816,8.448537861607182,112.27603856406053,0.031555909835053644,-0.01836845208932566,0.18333888446060564,-5.250797054392085,1.1568306836317122,0.232318116169905,-0.14412842699856948,-0.14168275721923151,-2.0492680282436644,-3.796564070741361,11.611663120252066,1.7722520019567893,-2.0958008678013433,10.64297853018673,0.04487923203363635,-0.007721621950299941,0.2182475170184763,-0.2032950473290321,-0.18527238004278135,-1.4363690373361389,2011-09-26 13:13:39.982719390,7.770155346
49.02669200546197,8.449966803693254,113.91083705578939,0.07399345527305422,0.04004876686602828,8.523449185416368,-67.62239104317193,-7.900715470699004,4.921074487764618,0.1302965975931424,-0.034789803788372355,1.772647811660033,-1.6586948074421184,14.749071698016628,1.4691595518904235,0.8354832964159989,9.99749865303855,-0.008676661663033257,0.012716615037424656,0.1420029707980607,0.03448782537290898,-0.159401894329666,0.21603936203203244,2011-09-26 13:13:40.092740574,7.880176530
49.02539615292325,8.448538060932297,114.06395166977248,-0.00010341027338468985,0.007675263386945669,1.558456498469944,-0.7399334706334814,44.3499167444645,-1.7681778857878878,-0.10177989783331133,0.12929041932021634,-1.4794363614477635,-4.141002595917712,10.358092132044032,-0.9148323598477631,5.200865258854118,10.359260388327646,0.06728570554357978,0.01904570309449562,-0.8297302686809748,0.012617874884828094,0.0014223219960185869,-0.33535608386360594,2011-09-26 13:13:40.192983413,7.980419369
49.025215680693485,8.44947563110413,113.5223135376364,0.15363947699925573,-0.01520787728324168,2.961343095262561,-3.0822508609528385,3.6926879727869504,-2.9738881798327337,-0.5942321234761265,0.041884916587300924,-0.7956026557128774,-2.3817852537967537,9.757331327489824,-10.319384765878025,3.0473926351127774,9.780043225328077,0.029085760931258108,0.03580194695766162,0.28849947467250403,-0.01970989912096464,-0.008215059514101168,-0.45486381104471224,2011-09-26 13:13:40.292791010,8.080226966
49.025499675833544,8.44875045562817,113.76826220640692,-0.11036391886400637,-0.0010465847887374067,-0.5773276727358319,-4.816681288765672,6.202044301047345,-6.390350564898312,0.09378380436137167,-0.015400842837464894,1.8950543036033416,-13.25966453240235,9.085206696930046,-0.3934081781336461,-9.407103876250568,9.94916652392811,-0.0010893228785227918,-0.0719695963373685,0.07464529236253259,0.008423977105035533,0.0232552944579408,-0.041725261847020495,2011-09-26 13:13:40.402742558,8.190178514
49.02604747669989,8.4486944953285,113.72231289698374,-0.024365787635236315,0.016692533695038238,0.48292889542334616,1.9606288087983395,-4.183969359730354,6.572936057376221,-0.136270546020179,0.6790180478670755,-0.867646987565083,2.129723478225897,10.118143132228736,-0.6425419194683937,1.865540364234853,10.871733843414967,0.007590534568105263,0.012790674845232832,0.08555498250235558,-0.03059480658674556,-0.08591970964990668,1.3341043567702393,2011-09-26 13:13:40.502746571,8.290182527
49.02572296941585,8.44869167424794,113.71747166085012,0.0016003239123144816,-0.00646578108450244,1.1868503373609691,-4.211847800130926,39.87203604769833,15.203973636456793,-0.027247633283088234,0.030618130037506953,5.556222427820748,1.469598492094022,9.788197408585923,-1.5630796180014304,-0.9190522350297523,10.137230639249491,0.034438961133402266,0.1424412904097838,-0.3874615618504067,-0.018002374848385086,0.025642861562355308,-0.030821244848245718,2011-09-26 13:13:40.602762592,8.390198548
49.02520970911112,8.448813437240748,113.29290603506352,0.035630911134938305,0.1328400991359188,0.3286508006584622,8.753810392515426,2.0516995013933705,41.44296471490059,0.09138737448129544,-0.07605332182251522,-1.5194181347089115,-0.8527881058239682,9.07063515221646,0.9098362942552061,-2.319320507817699,9.927854017773909,0.015541725043735476,-0.022190988549810532,0.43104860310075566,0.00252655312783675,0.07362575658706694,-0.5600653228040023,2011-09-26 13:13:40.712917440,8.500353396
49.02538579195386,8.448351662323388,114.58410892703591,-0.3519617034562434,-0.06974130898248548,0.9182515663088395,18.532565481160955,7.919607407426149,0.9865507594204912,0.1339577029268339,0.0899027279766534,12.956682913996913,-3.6465028381207247,10.127044689435447,-8.855186098049035,-5.371535273925339,8.84734199240568,0.11502894642306263,-0.0479535118952912,-1.9872414577530884,0.011809268606532326,-0.01423459895195384,0.47186241993515793,2011-09-26 13:13:40.812794778,8.600230734
49.02569912856571,8.44873744745582,113.60279327212307,-0.04122615751989704,0.0383855043031132,2.1858209607964834,-45.141190365718295,-0.3826738000926349,7.538605157206711,-0.0740516944910671,0.30315834381078977,0.9833852036915594,-2.106999200228003,9.490207034185167,0.1376487508971917,0.02427251539265112,10.170108445317569,0.0010179364877261022,-0.006570807802958813,0.08056320844285847,-0.006454124578299585,-0.0368907409094358,2.128959939861962,2011-09-26 13:13:40.922776405,8.710212361
49.0256621393797,8.4486987696034,113.93114688678253,0.48687730796476114,-0.2015184440105487,2.698097970823757,-1.905663450021508,-2.4091135709167233,0.5578785549291323,0.17412264893501006,-0.12994106020202648,-0.9541502624580482,7.65319218970898,10.717074218206717,1.002108420332357,2.2334048045307497,9.634302072268579,0.01874498865165524,-0.024337489658676603,0.381990702806015,-0.007425949164091689,0.01983672057016929,-0.5475006920627078,2011-09-26 13:13:41.022717289,8.810153245
49.02602991900933,8.4485152336023,112.74672833029756,-0.04986787841704322,0.014399428631954335,-0.4470790561327995,-10.64997332778248,-0.18038628010035462,-30.184396802908957,0.045637938263911285,-0.13549762998363957,6.35861318896863,-1.1371972378614728,8.811742938236783,-13.737754832340626,-6.966961701577732,9.700979889773105,0.05684720371576257,-0.032577773790407855,-0.11705495577024239,0.004863752712834331,-0.06497241066278507,-0.36614158688063647,2011-09-26 13:13:41.122706004,8.910141960
49.02549319708547,8.448795348995782,112.83390312804474,0.059826216895588896,0.0024568381359523304,-0.5129931496186186,-9.943676449426903,1.4630031130281345,7.385945780867254,-0.20193252057342084,0.2331285591028691,-0.6445608570538566,-1.117254935108344,9.63266311752264,-1.9440766220031427,-1.5934331555198888,10.304728576923837,-0.00525544963235047,0.025618686972413925,-0.24377447411097836,-0.048729723295170654,0.09493691058560158,-0.15304566349889387,2011-09-26 13:13:41.222882917,9.010318873
49.02600517308086,8.448401969822733,113.4822421884287,-0.014988898295857202,0.029286694392065653,2.252810142792623,2.2460764504903485,32.92304614016418,-4.805624880250969,0.3389962779120648,-0.02781540260050702,-0.5247042525341636,-5.621282804404659,10.131399854192862,-1.4394420986874592,1.5497822946426614,10.22565118886508,-0.013263471071856941,0.35288116974519884,0.12578450051413786,0.009213773465616816,-0.01822523413636243,-0.35522360246815243,2011-09-26 13:13:41.332776464,9.120212420
49.02574015767666,8.448600485374545,113.92071346465022,0.05533687312452806,0.029432058606340704,-10.363071335947676,9.318393152747948,-7.241917716257793,15.037391919066344,-0.15238951909185067,-0.03730042791702602,0.5725764258399701,-5.112318557110458,15.425179822756867,-0.4302744638373562,-17.329841190366018,9.841495480151227,0.019528377051739782,0.016706964049516784,0.11649536248991112,-0.029129164468412964,0.0003893989400048798,-0.23355808995153496,2011-09-26 13:13:41.432761572,9.220197528
49.02305436557867,8.448523091186617,113.68189287601567,-0.03028986702216606,0.0025875708488172985,0.9491694280430921,-2.3296015694740753,13.407132072017058,-9.00189024218169,0.02887749187649463,0.020312515296737062,3.951027570344124,0.8704975825635377,9.977406086891678,0.8049259831940084,3.674229081833698,9.32018698641247,-0.032026406716059316,0.003920948677510893,0.4360431891843337,-0.021892509172296903,-0.007381860906951564,-0.005926165082584001,2011-09-26 13:13:41.542790312,9.330226268
49.025633921431556,8.448646716831776,113.80918042756103,-0.02685174021015265,-0.01658769995673988,0.7014912465232568,4.59816239743236,-5.377655847533778,1.9779846226063293,0.06851197661059892,0.11920606473750149,0.3947791649646928,-2.053706800608474,9.213671752795033,-0.24371430031366983,2.9477208552536838,9.953033182110548,0.025384646313512477,-0.0032927053242488968,0.16121474343524891,0.07921033908858435,-0.020512976875374875,-0.3486632525189718,2011-09-26 13:13:41.642810139,9.430246095
49.02562065228206,8.448500685726914,112.05347702691192,-0.03886057524223358,-0.002816008528288937,2.056321461699972,-3.9706832288821636,-3.799998990687502,0.05877061232346222,-0.48631094963676064,-0.06735690719623169,-0.8886227811312765,3.4795195937007146,10.21252758273829,0.8944711084773105,3.7344418583060293,10.654369186875869,0.02449977394920013,-0.029571790388419415,-0.05885915580088783,0.00426771667218309,-0.023099890311712914,-0.6496680527961733,2011-09-26 13:13:41.743009667,9.530445623
49.026439178276185,8.448429913448797,114.22705324464448,0.012171997084411718,0.0009082154980551982,0.4043842872235567,0.19681498192632516,1.8395824315207727,6.1664209348936385,-0.017697981648575622,0.06435622884016604,-2.7265190721422243,-1.0379248018510479,9.819552246299676,1.2976173467977767,2.13137054036449,9.444504957494336,0.013015834953495788,-0.0023059787060864365,0.12977771310021147,-0.004940907013195897,0.007329291662641754,0.10214071871678028,2011-09-26 13:13:41.852815064,9.640251020
49.025169948709646,8.448289560540479,113.30371321538459,0.0092532867751136,0.028655323872302324,2.483404151073586,0.23804330565018678,-6.402633083848657,-9.65081869119968,-0.14674450138904038,0.024652483745459468,7.808572297237179,5.44416570770389,9.702605290326769,-0.8822489842464247,-6.826732180452582,10.58451034716629,0.03075810791769196,0.010668516661424517,-0.3031293749980713,-0.0411261280593635,-0.039204719943457124,-0.021700323507649763,2011-09-26 13:13:41.952793495,9.740229451
49.02560650821661,8.448629066275638,114.09070579634479,-0.046557173920998715,0.0238939442366883,3.499716192089376,-2.453629661826711,0.1868594022224226,10.381882152493302,0.0014258456698160935,0.04158545459861249,-1.9103004481257007,-2.629947862976135,8.854311141485066,4.697983243153513,-1.858063238519667,10.343667941410605,0.03444200710888179,-0.13631169884846497,-0.5983188725731355,0.004768259967177519,0.04419910593298062,-0.4731264555243518,2011-09-26 13:13:42.062786845,9.850222801
49.02504136111897,8.448134843617538,113.90122330458263,-0.08135702733453853,-0.005868817469720868,1.8802219655418275,-7.140898032081556,-10.283112305292933,0.4513837196518383,-0.4972479342127606,0.46819558521054244,-2.5992349068605716,2.3229012394698265,9.507735091589531,-0.14848809072687683,-2.6274652533939395,9.720761030731586,0.049612010380532014,0.014139643202517644,1.7523578337530057,-0.0227258540822858,-0.010793027882726923,0.7728842153321728,2011-09-26 13:13:42.162937807,9.950373763
49.02577377756376,8.448573499377574,113.74993708101951,0.027821020432483013,0.009085906617997155,-1.8964532892594295,2.212969389642957,2.0750295911803134,-13.135169870430202,-0.05225660401930667,-0.08379364923617134,3.1213682203330717,22.35314696827602,9.10192913708559,-0.9203809415092754,0.7648199104125956,9.490061751296183,0.01615144131448752,0.0053066735288693455,0.32666932520083697,0.07133314521950347,-0.2627213998483748,-0.09380376370502044,2011-09-26 13:13:42.262904066,10.050340022
49.02566822430075,8.448660477965245,113.90359472000416,-0.05950389005733606,0.009921880535615664,0.5725027312339599,8.206761896378726,4.701835045711289,13.805780515081242,-0.11264321791180744,0.08900376755960174,11.54948133131255,0.9127965734708062,10.165048632104725,2.540434319337974,13.232923015442735,9.68217182449398,-0.0008448091674260594,0.031817408028941646,-0.21511479596186153,-0.02807449729275826,0.02266055281755175,-0.572137488245319,2011-09-26 13:13:42.362837059,10.150273015
49.02421935288607,8.448574803618373,113.36537548346988,-0.02406964234231953,0.019740876117812972,0.7219701710893386,-0.3337765097624818,3.2075645822069574,-8.87480765804127,-0.11867077227504554,-0.13225053961424804,2.4564083765104505,-0.1478455621590532,10.337176838183153,0.3211966020453649,-2.866138000143979,9.529450409783992,0.09225629449582347,-0.04977048544890583,-1.5330814232445202,0.10086034866751777,0.008009447863788459,0.26079730801019013,2011-09-26 13:13:42.472833084,10.260269040
49.025877871875636,8.448631308219776,113.85741737256191,-0.018830523005583938,0.04734854239398551,2.5435754678752276,1.827363996221108,9.451790453599786,-26.115300549041574,0.013657553655303061,-0.4458291389124208,-1.1116330837742394,-3.106929383173947,9.280893071367824,-0.3178364268869733,2.191644619887982,10.434490529652365,-0.004986430981466503,0.06254824292877814,0.4394851379147584,0.06179866438480334,0.028643766988477214,-0.09580338880517163,2011-09-26 13:13:42.572865417,10.360301373
49.025490773002254,8.450596098066429,111.9741710881927,0.04095826733228323,0.04105787774246862,1.22282487959049,12.378962174818799,11.562429817467878,-6.555667918520789,-0.4616430893555046,-0.07559989525163001,-0.9372910929266497,-8.891055722512673,10.24306706816663,-1.683629231449385,1.3170865798068743,10.583836636179116,0.009712105272579234,0.17961903744721958,-0.159525550330361,0.06405624650813836,0.04438814540804954,3.10981931055832,2011-09-26 13:13:42.682948060,10.470384016
49.02558851816622,8.448676924356198,114.03480948293122,-0.31458624332623886,-0.0008505702964391251,-0.36864789907562767,-7.562908718078052,0.5983636255653716,16.737344575005284,-0.2283888206946623,-0.13912926034043702,-3.5697985387480657,-4.183095356593504,10.464433120990142,-1.2504589391103227,0.4362425374154045,10.067291367266273,0.004191696000834146,0.03668504377226294,-0.0016837153533824064,0.048070654497082,-0.04182783345702218,0.3222391390737816,2011-09-26 13:13:42.782891050,10.570327006
49.025275194274336,8.448373315986233,113.67692250505576,0.01576288553243031,0.013721115696572361,2.3509639038658667,-0.5909534205481815,4.106797666338379,-3.9184158210064264,0.9752063401314264,0.04031712540331729,3.556233965525723,-3.8351244640368587,9.586585250545285,0.8673085528600366,-7.316718946784875,5.645357076542119,-0.032954769776075386,-0.047331165655843006,0.5896555509894449,0.0019103586136882315,-0.025789585583134867,0.3709707850914864,2011-09-26 13:13:42.882886093,10.670322049
49.02552424114312,8.448728645125502,113.00210571339247,-0.03714386556146839,-0.008408016308427517,1.6185530405356856,4.768788144311582,-2.028900638381476,-4.720928335267339,0.0498892116075136,-0.46357118170267975,-3.079644513775011,0.39926241969781756,9.345533002552783,-1.3703872232477672,-2.00786220204143,12.59132026053269,-0.012855390005444419,-0.06867941659115934,0.37626275891361033,-0.007567481699842321,-0.05601536548405248,-0.12350802963860621,2011-09-26 13:13:42.992862614,10.780298570
49.0276900645621,8.448345411528027,114.01611956545457,-0.057306324570357926,0.02229624085516843,5.870446054572049,2.2610427611935733,-6.886267311165079,-2.7354911532689905,0.08370069166399101,-0.06384971996344128,1.7927874051568633,0.7466490394749226,9.739829753462388,0.1314921201595938,2.2910933744246798,14.394713267044477,-0.021441765211600322,-0.02839102686324212,-0.1543809096455317,0.09258008868255099,-0.011514677182098781,-0.4839944887927632,2011-09-26 13:13:43.092865279,10.880301235
49.025842682819906,8.448342610464106,113.12360750837007,-0.007551888900484704,0.0282177995328566,1.6825210074298946,2.6568881828715596,-28.193586010371984,73.49808407436066,0.3593479202761737,-0.029027773552053316,0.39908071069442536,-1.453897570060994,9.092079833934886,-0.6239301163033606,-0.27466566492674166,6.747096398751999,0.07539191811026885,0.022286334529750044,0.06161347755111056,0.03782838992855472,0.008132909763850294,0.5123792379840273,2011-09-26 13:13:43.192998035,10.980433991
49.02622783711286,8.448486924241994,113.91604385702831,-0.032233294681019604,0.015608978255895342,2.2187411628732585,7.001125319498474,-0.6765947002340515,-0.46174736311690506,0.15342800634192327,0.08175823205895684,1.7757809475628559,2.4020615356478894,9.258542675666448,2.452210791013468,-1.8331681471502976,9.167592782965922,0.02005015385473647,0.10989011097588954,-0.36812228899299715,0.10572401467987537,-0.018905384243987224,-0.3756557355929875,2011-09-26 13:13:43.302844329,11.090280285
49.02550090717316,8.448588345964806,113.12336274795602,0.009762182488458233,0.011441407204318702,1.1138559142560513,-10.104345001589436,11.07562720149378,-94.44699957607541,0.21599682265818343,-0.11568658708698099,4.301753472211982,-7.015672675129611,10.239945834647445,-0.04271360954595879,-0.3942357804720107,10.10647780487823,-0.009682163663145494,-0.0035061050185897394,0.4685694298682378,-0.03390861482834391,0.17915282529691923,0.055856107621589365,2011-09-26 13:13:43.402849809,11.190285765
49.025370740955346,8.448550489014472,113.54051276312659,-0.07829407601566046,0.010449480076288969,4.020422986981979,-3.3906402810537415,-7.3681357574111965,10.881426170015489,-0.2515623048835381,0.19246369338336883,-4.361620428731511,0.73599691896244,11.028422363078178,24.637679098686075,2.7460167817349945,9.952091242161183,0.010414476709102215,-0.03660844155870733,0.2625797185857636,-0.01002513062258755,0.002658827322825294,0.23480383083220127,2011-09-26 13:13:43.502868608,11.290304564
49.02550586469733,8.448780241251006,114.39485481910093,-0.013238750544266676,0.011210581457788573,2.25257953362164,31.32551494712488,-6.450991806647476,-16.69581585690305,0.03711130832759198,0.020816959163066764,18.657428946798884,2.141027504168791,9.221609722306129,-2.7656757616800034,-2.6024372486516145,9.057679306686591,0.2522947853504969,-0.010619321774328791,0.4462484491978058,-0.0037473415288098817,-0.006605771620595785,0.5292410097392892,2011-09-26 13:13:43.612874251,11.400310207
49.02564136023973,8.448364326578123,114.15138928368157,-0.0805507635914445,0.009655057994202737,-1.9655271590705599,5.0152701696793045,-0.8246263354300789,54.76669400328734,0.7552593815595998,-0.03500115562168994,-1.5689259560004678,2.632250531889564,9.355810775717075,0.679391959585433,0.7613153941341306,11.52016906925313,0.009387751265401133,-0.0015120525749511334,0.7413597195911958,0.006617928448575751,0.009151440661918525,-0.08144833042016547,2011-09-26 13:13:43.713050193,11.500486149
49.02526213613922,8.448502793140282,113.83983269163211,-0.19369007956030712,0.1250936803191117,2.1861440112344073,-28.178366995272874,5.504302515057051,4.808042091996972,-0.656002636199639,-0.06921412955774292,-14.2416601816467,-0.412475892927228,10.723036713690512,1.5564885842765366,-11.842589607663397,9.231143006111303,-0.05915480468875275,0.02779802706524966,-0.07130479783110291,-0.031004850834522882,-0.013170373036753088,0.11130626860375527,2011-09-26 13:13:43.822878853,11.610314809
49.02571988101431,8.448539291960646,113.57532266878366,0.05531831099445163,0.04235555442196454,2.1861396583628894,-11.343125892381638,-5.2084436681800526,3.777383002358936,-0.11213347901624175,-0.037477983144425915,-1.5260380113866683,13.173311023494527,9.67756255855265,-1.2421418415312324,5.640034542550197,9.63146704188177,0.04534043863215172,0.024879877239968085,0.2502443696603352,-0.02210537586437954,-0.015593570528551743,0.5989099750502545,2011-09-26 13:13:43.922884998,11.710320954
49.02553812048152,8.448452562326334,113.88009866931228,0.028666662970229337,-0.004889363621980475,0.7434055923655646,-2.8578122503572994,-7.196225004295397,-12.253455758661897,-0.03283678602380032,0.10252475131420975,-1.1465234821202586,0.9917410258002769,9.306042005899323,-11.318755293295006,-29.903268120504475,9.394850576901446,0.013856993294272542,0.052073283808937235,-0.8360647787650417,-0.009432489173426942,-0.010996478105415151,0.27938470759962963,2011-09-26 13:13:44.022842114,11.810278070
49.02615176845416,8.448220925397582,114.11426611851543,-0.08239964008657366,0.020377774981079864,2.5017794170767185,-17.673583994207593,-0.6892358728931698,-1.2341751239990284,-1.0094518813356532,0.09848883157837596,-2.2365296669166814,-2.932728630976213,10.186695028252302,4.772309557339232,11.28480979985594,9.725729863838067,0.028783512344375643,0.01726368665819349,0.13646677683213126,-0.04711355152645002,0.017488875970232298,-0.3989517669661815,2011-09-26 13:13:44.132916202,11.920352158
49.02548239396191,8.448561552203115,114.059202513574,-0.010533022413237728,0.033035036307301854,3.1620839818021653,-35.7887123190355,9.22874053923057,4.218947354540582,-0.2398174179372178,0.20033975110889696,0.2255262731437198,1.6050228443407195,10.460856475325018,0.4218406886803116,-0.07727771797238811,9.657471193192638,-0.08596439577968829,0.18475997798380786,2.049892925496987,-0.036111260701306415,-0.006110033140747786,0.4034644367989762,2011-09-26 13:13:44.232985197,12.020421153
49.02658095695012,8.448689467786858,114.28888334571276,-0.02692911402263891,-0.008951789197914915,1.976291987133002,-15.100668686310273,3.287378412365655,4.704401740684916,-0.9277163889531743,0.12687381580127668,-0.5199881718050577,-0.5050848022419725,10.445042957769605,3.2390961386227217,-1.7170723832885817,9.459619924541983,0.01671292161906176,-0.04657663255723229,0.32701182631340725,-0.03909532069018294,-0.027018632748987803,-1.1980920417482186,2011-09-26 13:13:44.332879777,12.120315733
49.02608451707899,8.44880607807635,112.22274165202701,0.03845383272565873,0.0446102619906068,2.1859775580093697,-22.507556165836856,1.0916360637699363,18.552722601190673,0.08805989634505892,0.20742883930035622,-11.83297144314552,0.9665041066173529,9.206724509053055,0.534420779736489,-2.7491959978038554,10.924560174639,0.05411263465201809,0.022523169939993204,0.06174778693440187,-0.00191100717298755,-0.032333693493773956,-0.26608150839825456,2011-09-26 13:13:44.442907864,12.230343820
49.02513765793705,8.448608198006614,113.5438176410196,0.004459604041716905,0.03667653937372457,2.9799466426925667,1.1972717159509907,25.671276426522773,-22.551126759973354,-0.29429918502211583,0.1831858379476278,0.06153905106688001,-3.6251781747545153,9.760199029785053,1.0965245094031593,0.3278542172611563,10.02055825564814,0.014544497474435083,-0.025561632204079282,0.028849021757167994,0.004271188334783366,0.22609247830941162,-0.6839685746511464,2011-09-26 13:13:44.542883812,12.330319768
49.02556269188867,8.448569468267781,114.4968334582588,-0.019017377190263564,-0.009709452079076777,-0.384238514487681,1.906288357540796,0.14331138195642218,5.09061888822866,-0.13226281300281756,0.0942960883145409,-4.408719514721942,3.843545379282114,8.731060502991317,2.333362067893678,0.2633166199134918,7.844926946737453,-0.005706221391985847,-0.012760942248907912,-0.1045371340566776,-0.21148211493064262,-0.030223866863287537,-0.6564933897513955,2011-09-26 13:13:44.642919908,12.430355864
