lat,lon,alt,roll,pitch,yaw,vn,ve,vf,vl,vu,ax,ay,az,af,al,au,wx,wy,wz,wf,wl,wu,timestamp,rel_time
49.02602810455056,8.4483044137191,114.1088690576258,-0.04099451523984896,0.04854235528699221,2.870463357730667,-6.449817177901334,5.6154001684353005,13.160817481844061,0.15956903905763914,0.022410276263025858,-4.357111810394013,-3.1061852019302445,10.404455651191867,-2.828467327049821,-8.442091913878013,10.203246112383752,0.014056951307603129,-0.026419730555295288,0.2258504721331102,0.00963506830656195,-0.3195876105371172,-0.7300476343379615,2011-09-26 13:13:32.212564044,0.000000000
49.02575014386524,8.448555141709711,114.19805064069863,-0.07236018777370776,0.02757486994205098,0.09381518681263845,3.8710238139746456,-7.370894297598871,-62.68319733158621,-0.14040778340470908,-0.07219401906398355,-1.371573618973065,4.039424984003392,9.483268720460826,1.208891762630082,-1.2815507686056684,10.42678691969911,-0.01328526756841431,-0.02681529459303225,0.228391310653688,-0.01792952068113567,0.020754003846988677,0.18860957249049748,2011-09-26 13:13:32.322364840,0.109800796
49.025237440579836,8.448429455197212,114.28597415148212,0.373198446825114,0.03866296885781316,2.356507834923485,-2.6848904804861218,-11.480523682830118,0.47740813054877396,-0.09726589301195186,-0.05125431873180537,0.8064711112192351,4.328067577274032,9.948299754044065,-18.419300698285575,-0.28040106902078565,9.677561767556227,0.03797886576306188,-0.33849992382324123,-0.27247296605426224,-0.02641841330838086,-0.013714056113169715,0.5623596497472599,2011-09-26 13:13:32.422405664,0.209841620
49.02618264184751,8.448413591749029,113.71195034117915,-0.012124654441319545,0.0030158474068092706,-2.5907817338657875,-16.264994847837908,-4.88410061587196,-12.260160755877708,-0.05014136614076485,-0.06961197614865765,-9.764299509262173,1.8769289088705465,9.776409176096324,0.09023805277173991,-1.792244365105028,9.235061344909377,0.036300407172805416,0.19349590679417072,-0.8954342671346489,0.06928369741493935,-0.004600487938950132,-0.3557116766713205,2011-09-26 13:13:32.522396024,0.309831980
49.02323394375588,8.448326725111702,114.21626382851515,0.013879256211967662,0.01003208761023847,2.4885043139003407,-61.19276587110846,5.089340906008298,-6.42427174430803,-0.060563922331278074,0.08042597310439022,5.687920041624867,4.755585783263862,8.829321152245146,5.100400874761958,-6.321001153334317,9.485984363222244,-0.006484842773135195,-0.035739647563589334,-0.15600141072642112,0.004711242804759078,0.0029631494152794376,0.6928637156189127,2011-09-26 13:13:32.632434672,0.419870628
49.0254672533324,8.44877680245284,113.34018247759585,0.015248667193858319,0.15424421015602158,2.990390754895343,2.7159331057486926,47.200021825276046,14.647778990013592,0.38431960922001174,-1.8588458533544898,-1.0491954217750181,-3.0683890415023876,10.317110735379465,2.8245309335045157,2.3310666476728397,9.834173516022156,-0.010976915569953435,-0.018427775412666377,0.475993441370054,-0.0052759926998805365,-0.029374284013212733,0.13861281364480801,2011-09-26 13:13:32.732619806,0.520055762
49.02624305407989,8.448366000687193,113.77500939833493,0.04159121707172354,0.029927115933807855,2.8897128163168864,-2.0502997224179436,-4.779591552978531,-74.779413501392,-0.38051107719439686,-0.2146645507856678,-1.0566141836696104,2.3347530119115874,9.717157168001078,-2.974113560705744,0.8932352083317739,9.643844323765219,-0.0391517481398559,0.04454420783847063,0.5230062143767678,0.0108981431095696,-0.020134848892798558,0.762603365156491,2011-09-26 13:13:32.832405355,0.619841311
49.02518169717607,8.448388480716412,115.98936593122778,-0.02657581400830746,0.04584137011432461,1.3358587264634054,-4.570870545454465,-10.712929494019349,-13.963496701088408,-0.18376858220857045,0.1060503464850436,-1.4078031205902959,-2.0559345637812383,9.270110592941373,0.2143195039385254,-1.2110497612676216,10.0341496578942,0.005607671333460147,-0.012270825508823814,-1.164274382571443,-0.03538528870967325,-0.22463284859472127,-0.48879314669140994,2011-09-26 13:13:32.942409752,0.729845708
49.026073936001545,8.447881861454839,114.56193422664707,-0.18479475803513168,0.01419881087124857,-0.7865297593940641,6.064148885764346,-12.693140384065948,-1.8284293940675997,0.14961836099284517,0.07229885706053253,-5.861999691426056,-0.562655719511809,9.876300964927706,-3.785432329804828,0.5716184272258803,10.562516962070545,-0.00014333374302504345,-0.0024984429623551778,0.4471042473300981,-0.030029918549219933,0.058493705345112175,0.6145881512008651,2011-09-26 13:13:33.042470256,0.829906212
49.02624213476422,8.448198180790026,112.45764695375641,-0.03381660286297673,0.017816880742269028,-3.8816143175102855,-5.87864889413678,-5.860411863437655,-3.745401069521524,0.16077442959637614,-0.13328481941887876,-1.9607154756433296,21.77358007353925,15.144795355412143,0.41575123895763294,3.93654307715348,9.902227546632968,-0.025589656491422377,0.0899981871985999,0.3074766909036239,-0.00822026212155876,-0.08785074307652245,0.09814241234978449,2011-09-26 13:13:33.142436718,0.929872674
49.02553892454845,8.448670731950852,113.90225336673092,-0.17398188840861623,-0.0028771395681560542,2.1837541723294605,12.673949068352135,-4.87618670164749,-12.68793121816195,-0.14597636439859102,0.07289176566158408,-4.530594604342503,1.068158765286037,8.710009647474738,-11.058215119251349,15.267157519958076,9.684255158537319,0.0638695462341033,-0.00802294027598553,-0.07636316816315183,0.008614963101955498,-0.3860891613525551,0.40217097994599754,2011-09-26 13:13:33.252493591,1.039929547
49.02577239458648,8.44883848693119,115.00751557506568,0.06491033208424846,0.04671564057740289,0.7812575487834647,-0.6876960904705153,-5.869075982413868,12.831879523108356,0.13505182729235388,0.018634697899104147,-4.062125882932897,-3.60696077592315,9.623977137871355,-0.13925848861027887,2.1449848086504884,10.49406379926737,0.014899733323795773,-0.03637667772094496,-0.1140426560281237,-0.03172747480746655,0.03572348767286023,-0.5651685436157861,2011-09-26 13:13:33.352433806,1.139869762
49.025403507816804,8.448586197480848,114.05370637269881,-0.07208080730262087,0.02322273979373974,8.691780651015778,0.664573779283784,2.3705742633325824,18.32470730962247,1.1566643247072508,-0.136546731163364,-0.5880287392294226,4.279263871789874,10.400417178975536,0.24454440650931009,-38.56765517313564,10.268901137966369,-0.006705135350323291,-0.05314429353937914,-0.09258207920951249,0.004374521455682875,-0.004711633073708222,0.049412144245380894,2011-09-26 13:13:33.462447872,1.249883828
49.02572935549513,8.448559823900867,113.87913872327023,-0.05667410223933582,0.008126844490833538,-0.3271456308475711,-8.49705409357875,-8.170870380655163,-117.20079554862954,0.20079138102294128,-0.16934542472878483,-2.802226711545032,2.2479874460798,8.747429303408852,1.1988148547808017,-5.4266183470414635,9.43274196288101,0.02712513130390689,-0.04923374297151865,-0.2180482709691548,-0.06878123285769248,-0.011874440110455306,0.25654700187768226,2011-09-26 13:13:33.562436506,1.349872462
49.025418607609815,8.448538231914606,114.41190696582379,-0.001578620324437948,0.03106509793168389,1.3002992360934875,-2.160615214937392,5.720610320487735,46.67520517578904,-0.23440313112996194,-0.06569529575738207,-2.9601528253267775,1.3648570487871852,9.071232444345346,1.9340458051329221,1.8820217336268192,7.1569665583443305,0.019391419493661466,0.011121386164413462,-0.0037927702847333324,-0.2508121183672673,-0.06884304229169293,-0.26154294668360245,2011-09-26 13:13:33.662499467,1.449935423
49.02531208868247,8.448479936868617,113.74171169636494,-0.03112535493406906,0.02930588854524597,1.003453701676301,8.304938082680092,-3.1448283953642475,65.18203032947464,-0.013076045861206696,0.0024709170423751177,-1.9607847107978649,-5.453548565806892,9.505989638487957,1.330513245414401,-0.18237915106627822,9.926154723022798,0.002048506456178281,-0.003854039274462464,-0.6761100698176483,-0.0028313837422368066,-0.044049405502781656,1.9723649263670564,2011-09-26 13:13:33.772559236,1.559995192
49.02594635793524,8.448439153428318,114.20194117133309,-0.025059408610107775,0.0036441479297939575,1.7622609928420694,9.20855657990489,14.835205700534997,13.834477386336228,-0.0164361431668898,-0.07895876444866282,-1.9869344540450289,0.48484355486795244,9.022451858379938,-2.111600317044644,-1.7731114178579235,9.521337346100758,0.03383983037621092,-0.0025932313393579303,0.059711924388443076,-0.08025664555642571,-0.033851253138423236,1.745952778844629,2011-09-26 13:13:33.872509404,1.659945360
49.02555541171515,8.44842431400419,114.240464085854,-0.04197868501989363,0.029378594522755423,3.1898359428517282,3.840094085368023,39.68562025833675,4.5013774034738,0.0202991120506173,-0.003415881556208611,2.1288433621428227,0.7664846277722625,11.095592298064235,0.9874432800439329,2.425635736651917,11.101663789804352,-0.012679233846836694,0.2512113374825943,0.1537593384717555,-0.02571950208491324,-0.001040351655192788,1.255709832197257,2011-09-26 13:13:33.972504422,1.759940378
49.025292237853016,8.448700154772883,113.75870471485412,-0.037920656442341535,0.023116317968100805,-3.358228353994723,3.2493109580148993,2.8807798770216797,-16.703913469040025,-0.046636156961603496,-0.20978687032225551,-1.415351989897124,0.8824043948042062,9.875353472789573,0.2196534239810464,-2.275940864102903,7.094507767879138,0.007647955050906118,0.3633956314809158,-0.015614294904827183,-0.01030384496016324,0.005394992861116017,-3.729428709253419,2011-09-26 13:13:34.082470790,1.869906746
49.02560276492301,8.448214997796518,113.559657855457,-0.04626516536006403,0.026206815039544952,-4.29195434485227,-4.359894407582895,1.8305051891076607,-0.63996247751249,0.10503579463200421,0.313542909004234,-0.8251675070251874,-2.9767553484802862,8.66197670884029,-1.7641790970685298,0.01305968650146583,9.417025621149696,-0.0418790144868191,-0.11642753944017276,-0.32703399950253814,-0.027973914768317863,0.06668846980558377,-0.7395297645721606,2011-09-26 13:13:34.182636414,1.970072370
49.02574787514161,8.448411033464344,114.2307842530486,-0.0160724946371268,0.007256055765183488,2.104817606401926,-3.4314567928619044,-21.318980119607097,-6.805686486754385,-0.11504223027088574,0.18329233397749956,1.642769161402335,-2.872455815758551,9.391451945112484,-1.714883732540341,-3.913093298560305,16.706251964272305,0.008979341584145348,-0.06906956133937679,0.24961836620603595,0.0007488247793195838,0.010377736898292345,0.17450911129123334,2011-09-26 13:13:34.282528541,2.069964497
49.025564700540286,8.448479947810513,113.76915977391513,0.34405951122881673,0.01435922771729582,-1.2114928711352524,-9.340598106739797,-12.3528151573628,-6.799360811219333,0.34656925005923134,0.016851095531073543,4.247479501412679,-1.0425987183245624,9.0453184117549,-2.028563115596633,-1.7897759549380519,9.7258397522376,0.03833763379183991,-0.13606734897823436,0.1802769501854857,-0.0193807962856395,0.04917366352534154,0.46552272961584396,2011-09-26 13:13:34.392480359,2.179916315
49.02553499829271,8.448694255485428,113.5342450736225,0.002851550526554591,0.003718837747644971,1.03925761575647,-2.450291830893006,13.745492097727624,9.833309042410372,0.18312378853122246,0.2389101440573003,0.8007713779348558,-0.30277239011880813,9.212944638296548,-11.688797974301755,1.3644428702007902,10.092135774676313,-0.007195418171278485,0.051120790558136786,-0.3173139805235423,-0.057142937626219914,-0.06749340486109495,-0.5289991952357553,2011-09-26 13:13:34.492492635,2.279928591
49.02536446937301,8.448886935012762,113.32728841574036,-0.07633693037438936,0.0034876575509475115,2.0767995966570516,2.244661501856152,2.236539804776155,-1.3037800959439276,-0.07251560074860569,0.23181282193684935,-16.83193266883588,7.916374693201167,9.186199991556308,-10.52315613183778,4.118251972771427,9.514633520819517,-0.014671441607041764,-0.14721093880839842,0.8051391632234123,-0.01320084520562244,-0.0324024287089734,0.23172341708849473,2011-09-26 13:13:34.602490365,2.389926321
49.02502133665981,8.44864193582127,114.95970071202825,0.14418354753349918,0.024114728496706483,2.939476458308418,-9.927693711055836,0.6683159879222376,-12.491483894419956,-0.05081374490762778,0.2664917623775676,-1.2344893221110138,4.501507528788721,10.175575148053296,-1.3952974382875272,-1.0939177974924492,9.942249880621773,-0.043318910458459335,-0.06707655274093408,0.0019563126070766827,-0.017018900928316545,0.02971602786287133,-0.2976413044735837,2011-09-26 13:13:34.702539028,2.489974984
49.02549781024379,8.448499770874523,113.39833526331452,-0.04097735793464498,0.015671382972983695,0.6717264740479924,-4.535031451597893,-9.643045723531088,15.396435448790376,0.13637563699357425,0.17237407330015478,-2.378375181757904,3.0187809944497532,9.654745604929929,-0.2795997656454529,-2.106562084396564,9.353187579136065,0.06507444918237554,-0.010399604001403454,0.6952760449039418,0.31340287074974105,-0.06421798187207245,0.8242316012087564,2011-09-26 13:13:34.802517705,2.589953661
49.0253839652019,8.448785636852016,113.43474848404435,-0.01694531215361511,0.029352666220135052,1.1119031188943365,29.74483406885296,2.670310958595122,9.320024206109872,-0.029132055601964357,-0.04717512535524927,-14.761716216130663,38.313524160818844,9.993739097645223,0.9990732649839983,-1.011829042317312,10.94081002964768,-0.0054908761593402645,-0.027987069965221323,-0.06804228466603222,-0.02736691464291994,0.03124437822235999,-1.7415207617486748,2011-09-26 13:13:34.912507696,2.699943652
49.02528151451806,8.44845459089142,113.5271356926972,0.03971860038398427,-0.10692146344114571,0.7812343420368203,-4.259913450119952,-12.602168441911417,13.896096098334096,-0.13667186852003307,0.07545430574225366,2.2084607289117146,-4.55302212411573,9.393057935849765,0.059838894049979725,-3.5243995564964172,9.855722880691161,-0.21883751253333356,0.0322787234926477,1.1847386083262752,-0.0007303544088492449,-0.02279414990389547,-0.10596516662043289,2011-09-26 13:13:35.012496520,2.799932476
49.02600290403473,8.448275373111926,113.81840572348804,-0.07047674801410408,0.005981679967544871,2.938004394278904,-11.735281893280511,-1.6771521340870938,-8.784438295585522,0.11859865208368321,-0.01515656946193254,7.362580037307181,0.31989145636671146,10.091927951696118,-12.570313867117482,-19.269920428241708,9.16934906332392,-0.017959636965267388,-0.008229008319513086,-0.09686479923597846,-0.026073337709437542,-0.07533143509815636,-0.45681644358537,2011-09-26 13:13:35.112515234,2.899951190
49.025457366760165,8.448620581003471,113.45033822910415,0.001807338972229712,-0.09769222306134236,3.2956032716405925,-9.564672369693591,-1.275748375021581,-19.03008069683989,-0.08349734161902632,0.0731397613255671,-13.245592704800323,-6.5681548031141,11.06947565582077,-1.957446421676072,6.343040172138812,8.938470693582639,-0.01068651387853859,0.04830551854070814,-0.15098747949859992,-0.0024876780501344783,0.008851944205468159,2.062913574056591,2011-09-26 13:13:35.222620158,3.010056114
49.02511535784032,8.448276887958782,114.04679179767531,0.01635255476426784,-0.020552149000072604,1.2069255390150881,-0.6388727393459489,3.510912042705,9.26355859800384,-0.1067291409004388,0.09429864309707901,-1.6822840021698262,1.3330646347438828,9.160351161353823,0.7433440031395334,6.097181964910213,10.404868677725139,-0.022387483326958574,-0.015817916048386654,-0.3858538614351115,-0.013308782363706457,-0.032399639295659824,-0.17281206753842956,2011-09-26 13:13:35.322516916,3.109952872
49.02535560564959,8.448584631010124,113.98599475968682,0.011966537794032664,-0.025044045729511733,1.700971772257439,-11.79280348549839,-2.4995482945533998,0.18834860535498965,-0.09685453275832372,0.19260744740037408,-3.3016309738459007,-0.7399687508812414,8.963228998927462,4.660676955723787,8.229770176291874,9.943690009886511,-0.012348802429499608,0.1302327068910979,-0.024430564542090808,-0.013839666193547567,-0.03866976438279623,-0.18964986250104457,2011-09-26 13:13:35.422469245,3.209905201
49.02615213365881,8.448615472788335,113.94795755358578,0.0003125632973610855,0.008572522029075899,0.5674208060640453,12.121372337556032,-0.4107590861284659,1.808069611893632,0.0168028519275532,0.020392631558333988,12.924548363522232,-2.2819432850550547,9.751827524711963,-1.1747405299087275,-3.0692333236978158,9.775032026607006,-0.08716071010423265,-0.0024227142636037056,-0.4302986545257651,0.07604050342208041,-0.023188124259833423,-0.37192221206899634,2011-09-26 13:13:35.532520714,3.319956670
49.02542394119786,8.448458896650818,114.09317558860704,0.02158953958537984,0.0016595361689734946,1.5024591217154248,13.476330113745755,-0.2532684872234742,2.450699987777534,0.17662045899010886,-0.12180140053532501,1.873534831096973,6.179594260952176,7.808046017854858,0.047559289343110066,-0.6842424223809331,10.27766344691329,-0.00349340427963165,0.3325465800862387,1.5583194596741377,0.0010845238180577522,-0.12697209713722082,-0.20173407697499893,2011-09-26 13:13:35.632557554,3.419993510
49.02494312159484,8.448576942370833,113.85873392039612,-0.32722612215423175,0.026955645467861306,2.1587441549564956,36.53802324206531,2.6106840581117643,-27.49079549242863,-0.16304396808682392,0.07508272034855945,2.9329787512328096,0.539263605930791,9.787871750347582,2.082054582319087,-5.80495218949574,9.566918202146626,0.04394430953441276,0.06877825263469754,0.9492852832743579,-0.2687257460432053,0.012687850596331051,-0.16515670582354056,2011-09-26 13:13:35.742763578,3.530199534
49.025345550549524,8.44884593951398,113.21517131237155,0.03522840837571792,0.034340668905728775,1.6111453298227707,-7.8714184116627735,1.2203893964823833,3.270738401728662,0.2270442815470608,0.04844379495586387,0.7174748108559841,0.5358148836437631,11.38281432717654,1.2507846558746067,1.904040956714129,10.086410371359113,-0.023546246018715904,-0.02990340123326758,-0.13799831955034025,-0.012028468654427214,-0.1190006325192507,1.2804831361406048,2011-09-26 13:13:35.842530901,3.629966857
49.02562745300039,8.450870905829301,114.09705432044288,-0.04178826223498523,-0.0034101073574860537,0.9314252973684166,18.130081763090708,4.630326492717565,1.4483878452735732,-0.04349523958622187,-0.11571272852822567,8.486235809722032,0.39094127349200225,7.494497953276095,6.936157955532897,4.2483768107598445,9.811928731864962,0.039417180160406136,-0.04623369151770399,0.23244746116325252,0.01293347457745774,-0.012736196341369273,-0.40307014569728455,2011-09-26 13:13:35.942513375,3.729949331
49.02555975636927,8.448591808963094,113.8681375679908,0.017399274108703802,0.013974718863727103,-0.13910775779741513,-3.3096406762209623,-3.3318824415601473,1.2907759900660014,0.21436090197112162,0.18072852966053654,1.6725600592108572,-2.957423049049031,8.91940462319246,-0.2865165893016243,0.5571577804079164,9.929834105791539,0.028232297781782385,0.01016909219199858,1.5205077236241584,-0.02302106208609321,-0.050085871825711,0.46049565647615465,2011-09-26 13:13:36.042540656,3.829976612
49.0278612708944,8.448704186115403,114.93999124835246,-0.05109705062639667,0.005014671858196401,2.840694239765004,10.910143980906264,4.993284445788511,-21.237783473734762,0.0838846126224424,0.03947704161859478,-4.333949502965231,-4.0742175471377005,11.065599265649126,0.7646377504207151,-0.20371370034815542,9.873623420758893,0.06342357955528,-0.0121769388894826,-0.3413711826349364,0.016206239145373166,-0.01760554353264225,-0.5800476168135472,2011-09-26 13:13:36.152567958,3.940003914
49.02573263305645,8.44879499718378,113.47259007009755,0.03641460408055755,0.013596169686036481,0.20718486217723164,9.448660111612705,9.51431438499508,1.4019056493529012,0.0013249117056603364,0.8600545074473273,0.021683938057592583,0.7120500587352969,10.709661543619642,-0.3097120074431858,5.01504084844114,6.551574022910216,0.029700297750776802,-0.011257116910440759,1.2572341361012238,0.008365082208822486,-0.02133970245924938,0.43498972463806684,2011-09-26 13:13:36.252663804,4.040099760
49.024956024764265,8.448746544391128,113.91283377302179,-0.05143595638899244,0.009694116867856968,2.669669846912016,6.4277290588365,-5.11266332164715,5.272231653253718,0.10806561253531621,-0.1015559317254562,2.5288122918726854,11.276608292701638,10.499238539876101,-1.1398296336977727,1.6543402640308975,9.188338033941061,-0.010474566937948009,0.0026141290740306455,-2.414088927000231,-0.027131553284082264,0.021729865425752174,0.24838755072687096,2011-09-26 13:13:36.362574078,4.150010034
49.025669745534906,8.448712192779059,114.24573585974561,0.026900645888046,0.11362961503044176,-1.0731177924619422,9.391793586838064,22.94188111278146,12.694100403209918,-0.1235072859645293,0.09033701059612118,-1.0047307546815325,-0.5824278194742039,8.979589148865424,-0.36790616174907265,-1.5187213026599105,12.607649677494802,0.013158386809493447,0.008659869200232392,0.3886531500493524,0.010422703242761292,-0.011661601065846782,-0.2595325868506203,2011-09-26 13:13:36.462559687,4.249995643
49.02580946861432,8.450143491078666,113.63781333067098,0.036543892876514,-0.017161196766566463,2.676765880887795,25.712179738874973,12.817534357613544,-0.21406813348967743,-0.5999887239948503,-0.1036921595901283,1.1009700468539856,-7.624227569951645,8.756972023449347,11.804523316825412,3.521403455138756,9.689734889189955,-0.030467236507316368,-0.0006020750603062245,0.20819173319938716,0.12120683280205961,0.013745681893437852,-0.47192251512852673,2011-09-26 13:13:36.562562932,4.349998888
49.02585408300239,8.448657793573137,113.86775664995584,-0.04058922782515826,0.011444644655749268,-0.4308983849991823,-16.97999950316393,1.5733705313992166,-1.6985756360934392,0.005703162185424772,0.5618004164999102,-2.854435780574875,-1.8107721169020699,10.002938049478994,1.6339606673590443,15.800911186620285,9.852099004462932,-0.17106864210294712,-0.018050090574555068,-0.06048651415003788,-0.0014816913747327093,0.04277828396014804,1.9385195540300448,2011-09-26 13:13:36.672596448,4.460032404
49.02551136470365,8.448678978224526,113.73032434934267,0.07845170757550655,0.00941143464520762,0.9866569599727975,-3.9763309889355414,8.449568844542942,11.716444147084406,0.03871346440423863,-0.14133558874560573,1.5034166519811827,-1.7663840869252867,10.36016970357323,-0.8724072125794086,-11.075067792396052,9.569037853327819,-0.01200696986996202,0.05008006936019112,-0.1640890915659885,0.034512779139510646,0.019232471368358033,0.32467067635330293,2011-09-26 13:13:36.772662981,4.560098937
49.02540599134583,8.448586974685904,112.26067538908748,-0.04061487702832422,0.01074922976316079,1.8536770304843349,1.002459052413797,47.587463896950595,5.024717678869618,0.10478043108517808,-0.010596923431524113,2.2778529696713705,18.672020949170303,9.704398319607828,-1.3670019482334845,-4.107867176899343,10.922650435107427,0.24538908725438577,-0.042947693758206285,-1.5032968922587475,0.037031613971974194,0.023470875324326304,-0.05335861533369122,2011-09-26 13:13:36.872584268,4.660020224
49.02569599157193,8.448460208421944,115.01061564549039,0.020054538877815758,0.033340339888615754,3.1079714927331725,15.483781617034923,-54.19051741448126,10.775601616644277,0.5666433280935729,0.0494543671162493,0.17500061956528715,0.5421130094644954,12.482963447794178,-0.27742817976738177,-4.568645295095613,9.068496685421351,0.01923947009940116,-0.37228783011351657,-0.17343095576402578,-0.07540699132579194,-0.004468699782962394,-0.11012246047970252,2011-09-26 13:13:36.982581005,4.770016961
49.027209769802155,8.44834080752334,113.78629910400278,0.04323609702826481,0.01695587632273353,9.674227396841182,3.056643012223117,-0.6963364491128679,5.939261254483277,0.028803795957605176,0.45262041919374846,2.1481645463678474,-2.9368882104627536,9.84780471307789,-1.1314787888302873,0.1933304676501593,10.054213088847968,-0.012645234076874628,-0.0027679526965308362,-0.3172407005249967,0.015499501940897914,0.0038572037421438854,-0.06496297288336113,2011-09-26 13:13:37.082740896,4.870176852
49.02572439345767,8.448327965311627,112.31371992805838,-0.013996551514427349,-0.00440618457846477,8.807721481473157,2.8061786813916787,-4.44183550797215,7.700231085381163,-0.14999990408817518,0.001456879054370517,-4.4235035159900065,-0.9670403786502749,10.418469004817071,-1.1455299055900665,-0.10252462065440743,10.299856389705571,-0.11953739089408771,-0.19728932156531273,0.3863615296172158,-0.014095641551817062,0.04556311562465653,0.22243978595893996,2011-09-26 13:13:37.192618899,4.980054855
49.02503168176283,8.448139680904315,113.67470035874251,0.0019547646516246565,-0.0015625620859708311,0.07887494983079435,5.6825136350347245,11.801883925063102,-1.3869491208947438,0.025218180392508893,0.1849202681260346,-0.7391810527938433,-2.327594454202986,9.272189444040979,1.3855303442482954,-19.92952991599422,9.929483654971495,-0.009962150948547552,0.05802999023737549,-0.13806219390893826,-0.02553410692079811,0.036752491933059024,0.0364353474384808,2011-09-26 13:13:37.292630976,5.080066932
49.02499313793832,8.448469790835446,111.3158261188074,0.03903136130830461,0.0024941119360932414,1.251892195803004,-3.2329534203801207,-9.928514872877424,-13.545911263415952,-0.07775404525961954,-0.400194086805829,0.592734743606802,-1.2471358563025943,10.066816370768231,-1.7925323788639596,4.508677663822336,9.892904731553937,-0.008137517624704745,0.1698866494536079,0.39946879131900903,-0.007963330763107986,0.035584256184208046,-0.2746624997603739,2011-09-26 13:13:37.392608503,5.180044459
49.025186178290866,8.44851988043884,113.88094290645581,-0.014812864359393175,0.061797831102045446,1.1197363144042771,2.0989848019643143,0.06347570821312581,12.493491241451068,-0.2542126431292748,-0.12520745360616034,-1.1572188575922957,-2.667639645185663,9.647741776150472,1.3674500438216508,-0.25771517077345696,9.06152988188341,-0.02231485177503472,0.025666770771694963,0.2059615690036973,-0.010575062899351046,0.1313478618065371,4.14674744739983,2011-09-26 13:13:37.502617417,5.290053373
49.02610306374708,8.44863548710431,111.76190713623112,0.05781527094279731,0.03204386616726806,-1.6933998811428226,1.1176128426160499,7.063609300101779,-16.56256164402785,0.1563412757863302,-0.12449952214478367,3.8879349827442313,-1.6496865130216272,6.933064479208113,-4.000416505511054,2.286476959101978,9.771799042112052,0.000786147084440022,0.061987514068893496,0.09249400326228743,0.003656422112143568,0.014046015959337991,-0.28497293064428,2011-09-26 13:13:37.602605564,5.390041520
49.025450401105985,8.448632178445775,113.58698432256202,-0.04272963002711049,-0.008973137039709101,0.6691063489037289,-3.25752431285327,0.9118184793643062,-0.2090107616785663,-0.10710611117140637,-0.2615451614952981,0.5605489897223944,-0.48777174373123583,9.181640180474254,2.277585074660049,-0.40029652341453187,9.785433052336657,0.0007279072590979073,0.052539556315788535,0.10466233832179828,0.022039890455331133,0.010882658399795367,-0.2590359148438524,2011-09-26 13:13:37.702714426,5.490150382
49.02517982112137,8.448529209281435,114.46404465154573,0.05992011361077402,0.0050453198923958616,0.8757064438910951,22.93878891978138,-43.620607454164684,-4.11985306910249,0.1664520496241612,-0.012776726017723113,1.0860747493499674,1.4950143681453696,9.770521884097667,-3.1379496739753545,-0.0010601276727834497,8.457174015740168,-0.04995370516133167,-0.021461219967779922,0.05254548410995542,0.029896960457957266,0.10661551859246514,0.11515228400943532,2011-09-26 13:13:37.812631116,5.600067072
49.02556813519421,8.448493621703228,113.50525050268004,-0.0668910898530151,-0.011747436329206449,1.4296866007222686,-1.1202347069104177,1.12836041421188,5.555492568409111,-0.142438162566793,0.10988061643534744,-4.9448707880310145,-0.9735917885365001,9.701370873489982,-1.2098129409766663,-1.962526996330577,9.585697762264534,0.021623643889374065,-0.01943601058111099,-0.18138445292457794,0.09278875087655943,-0.10945769202018836,0.03592876550130241,2011-09-26 13:13:37.912619660,5.700055616
49.02554559513366,8.448771470323454,114.02349278633422,0.03249276798106489,0.017981639363101903,1.29451719971453,26.94714029670214,7.622323561395382,19.37953506551359,-0.08581659414480555,-1.0109939153275234,0.5856025644731055,-0.6572562732397846,9.021353773735001,-1.7496189543072331,-0.7262940239042562,9.036577491284143,-0.0009932680392449624,-0.34506243830140976,-0.005094693959467335,-0.053023269330485526,0.021124197446859515,0.3317219713265793,2011-09-26 13:13:38.017633280,5.805069236
49.025787935860045,8.447702767776578,113.71692730861879,-0.052514152977903794,0.03574791088960078,0.8107540608516846,-10.923456599214932,-1.5778784646170683,-5.849770727001522,-0.01783997950278708,-0.08982293097166885,0.7249185293759512,-3.4419915698080077,13.622081639134148,-2.9945090096316496,1.146184241232001,9.964653599753747,-0.024263689247850318,0.1374078143845715,-0.22862948846261194,-0.02629882522176203,0.028877134072373387,-0.20048476994106154,2011-09-26 13:13:38.122646446,5.910082402
49.02513312697707,8.448822407646173,116.52100442728086,-0.10875763314153941,-0.036411894241588,1.3656105642065994,11.859969289364058,11.91119376771126,9.361484809292774,0.0004937466637689459,-0.06392526747061995,-6.897584814672873,4.977405571830952,12.330363925880354,-1.0793436623510515,-6.703690613504789,10.419066977086075,0.011876468676153353,-0.008214837094417195,0.04277122385869,0.03646054001186306,0.011805811264548407,-0.23597864637350044,2011-09-26 13:13:38.222796995,6.010232951
49.02515478442525,8.448619679402084,113.68522368465597,0.026793712148285655,0.014374138207321039,7.078352258363738,-31.914111749978073,-12.917737505760915,-4.02083696230176,-0.06257362286579886,-0.05334851331234786,0.45378484428021487,2.2505279419901685,9.720305997869145,8.88214263714715,1.4025767710806447,10.114184156855316,-0.060780033708165045,0.042984386583200127,-0.15670149185731524,-0.05434892985225524,-0.009560452914675402,-0.670014679129728,2011-09-26 13:13:38.322662614,6.110098570
49.02506150184658,8.448631088015167,113.94087597705824,-0.04442537842470518,0.03104311747025979,3.5803472571952795,3.0598691157435374,-2.3159407438066912,-1.802142494211153,0.07755106318085163,-0.1950089573300984,0.3431329094828048,-2.488690974952372,10.662720602937629,1.649073572054594,4.266946743321649,9.613090847110035,-0.009755345475330905,-0.013368633302189256,0.027212761719639083,-0.016803834015947247,-0.029124916947022787,-0.034599643509743275,2011-09-26 13:13:38.432657811,6.220093767
49.02559931370926,8.448423953357377,113.28194217090845,-0.06912346572542424,0.010926074048826562,1.1586333056160023,4.382342628792481,-3.912797705974016,1.6911419148994347,-0.13628922845567504,-0.031089816601165346,0.6045229341464841,2.665292539203677,10.124161086788632,1.264218966737032,1.2907774644700776,10.034922851755333,-0.026093154612699832,0.010041592924382295,0.7455840765262132,0.012690089687985153,-0.000479231060062894,-1.9807644019496526,2011-09-26 13:13:38.532673503,6.320109459
49.025449598522144,8.448621434190187,113.44721928467276,-0.06993668871832512,0.0019265642826712375,-0.08273458252190458,-3.428197224779017,19.456339185839862,0.7100291945194324,-1.0957898328609075,0.10565106234930294,-6.575080631190869,0.5222914879034627,10.32666480365497,2.3825450926295155,0.870914829319771,8.576431334148008,0.0960014551755472,-0.011442190990554055,0.19368246082275764,-0.013493264418749878,0.01520120437766264,0.2602293903340684,2011-09-26 13:13:38.642671312,6.430107268
49.02534180785826,8.448592306583125,113.67662421222553,-0.09832427216091648,0.013779217278593853,0.7816349060320217,-3.0730277220277773,-14.712992988937573,13.48124496627124,0.07237801244522538,-0.3370041210389285,-2.436639049630921,-0.14067957466553133,9.788198508192277,-9.70932869784665,2.0944274742890134,9.896368408265527,-0.01986723317172691,-0.08717125719963623,-0.47505266838185817,0.06970214932584905,0.024477749775174116,0.17253099769454538,2011-09-26 13:13:38.742850791,6.530286747
49.02567023914718,8.44899739692043,113.74939980668577,-0.028664054514720504,-0.024620729396299588,1.0972120410790325,16.250224432814353,-4.455889754509411,6.106718471721609,0.054240126631661584,-0.13893746296706042,1.4236350503709623,-3.012011153733883,9.93303342954469,-0.13540289219248222,-1.1922116525046542,9.23047677351134,0.045099057081152055,-0.04012444805287747,0.3443152113631266,-0.05511167015272618,0.0032674970333708485,0.8057144922562245,2011-09-26 13:13:38.842672026,6.630107982
49.025813608927834,8.44863381489523,113.87175129419627,0.26808356712336034,0.025592474436212508,0.6386733578544066,-7.331791357516652,-33.41107469604973,75.11713047358812,0.024525091958184884,0.10118501923813111,-1.3706818620799628,-11.642069886972598,7.237169253249833,2.1865556521874967,-21.225719982295214,11.179982660142336,0.027270369102337697,-0.18567258660099756,-0.01984397134815651,0.05483490547795707,-0.0188959275316946,0.4483464974773041,2011-09-26 13:13:38.952712250,6.740148206
49.022928099077895,8.448346137152587,113.91868168298048,-0.003567908641719804,0.13819435787734152,0.5285976051298401,0.5670774121960536,2.037371204958737,-2.5575831460625222,-0.07627751297468666,-0.09152619017866209,-0.3186043099948841,-4.315957167605279,9.69171367660505,-0.1969527058341514,-0.7131215762949793,9.618014804174145,-0.0073100926749722845,-0.033877002974225065,0.2562153731454724,-0.12249785181653618,-0.02578227117705685,-0.07228928889942826,2011-09-26 13:13:39.052749493,6.840185449
49.02556729968704,8.448850329055004,113.18353774666218,-0.024546436066335144,-0.011795876501489699,1.89395159130468,-3.6712106132759557,-5.171677952274726,-6.497058530360612,0.04512876209761442,0.05336457910293649,2.2590259120428793,-6.113110632907544,9.265591022032998,-1.4854622761884049,1.0200610559970862,9.539968004514577,0.03405293828810524,-0.02560419676273796,0.09616054965941022,-0.0243859097001186,-0.001419488701685936,0.22480259873625713,2011-09-26 13:13:39.152720056,6.940156012
49.02570743403189,8.448369946811171,113.32143302179199,-0.041424659463077,0.03842153088650868,5.333357922864246,-0.4303089121655408,-2.365097712208232,0.7947501672610081,-0.04999770183076037,-0.786100922979856,1.417418173496233,4.003891154458388,7.338976224912914,1.617484878402456,-1.8923683482620037,9.882814437791898,0.02687390822274151,-0.025096770996840698,0.6723049852124058,0.005441398506406484,0.021639222904204815,-0.3043531329627364,2011-09-26 13:13:39.262850256,7.050286212
49.02537009996035,8.448588986193686,114.11452374932965,0.004602358295482613,0.05241130985287533,0.3965131589824755,-0.7520821146409712,-4.677092754774492,5.239936346954266,0.27700195711256126,-0.04216072360614457,-0.13863557989647735,-0.654351060336575,9.218701863852765,2.405720630325338,7.883228398556612,9.666810036321131,0.039952021534297,-0.05266786701166387,-0.9486535512083796,-0.003210984869610713,-0.025178055109743303,0.8560088823413844,2011-09-26 13:13:39.362716966,7.150152922
49.02352104032347,8.449502312770917,113.86847352643316,0.002629527676986791,0.03889372978355374,2.2264520984000646,-47.321701839695585,1.3343792137440544,-0.17046728582784004,-0.0482103523162606,0.03357138395250996,-9.534383229116003,4.977851791940132,9.787896000534083,-1.6322934920434715,0.8598190944580888,9.749372707339097,-0.011754267370895882,-0.024206460113877212,-2.0098516296833617,-0.04680787825356612,0.043544298533105465,0.8847503967045218,2011-09-26 13:13:39.462700689,7.250136645
49.02656079256223,8.449202543451085,114.25556247681097,-0.04719327846163551,-0.0055597904886365655,1.3631079861875224,-4.583378578756254,-54.286424736000335,-35.81331549820233,0.006781851880952739,0.16807406912961026,0.6536351855387506,-0.7779073805942254,9.893428519989893,-1.7797938074870725,-0.8897044556438699,9.626653458306972,-0.008412146793676282,-0.03486113493398647,-0.03814424075123591,0.12102966653213648,-0.039300688428264376,-0.6365725055497691,2011-09-26 13:13:39.572704973,7.360140929
49.02609185004022,8.448850609849918,113.66160100436083,-0.07170045361591924,0.11284915931492953,0.21900429948333944,-37.228500364268164,-11.93606578681216,0.4367009188587472,-0.02270778284330468,-0.09332190082856359,-2.3718413491957233,-0.226891300070033,9.427470537987851,-0.5643545474206665,0.8726498702765804,8.166331960379244,-0.005384424372521892,-0.05261695013469658,0.010516114465182724,0.013002374474553267,-0.02121167206156557,-0.017413717850634638,2011-09-26 13:13:39.672766599,7.460202555
49.025509969221105,8.448965282305968,114.25021288110129,-0.057967056966067146,0.03351825704832863,5.033456656853525,-7.339920678412981,5.137979656445838,-4.208463514043785,0.2596682797421927,0.06760204561403012,1.3950479939550657,3.14099161675373,9.647167348174067,-1.8629209499986226,2.6830040689434504,12.963306488959946,-0.011877746052930314,-0.08601789076744001,0.5944275657484647,-0.025176386209218853,-0.03324831604006082,-0.24450263957539536,2011-09-26 13:13:39.772785700,7.560221656
49.02583255392013,8.44880387527908,114.08976885250055,-0.001188429082809736,0.03201309687597989,2.7256794117195104,4.77258832523062,-3.398374963217435,18.153602392306055,-0.07207957603948378,0.007949549349061873,-2.882859908508862,8.962462749912799,8.70158847243072,-0.4786988145619323,-0.782444316050711,9.785742529866912,-0.009106074401432254,0.05692765834072127,-0.3178638529278046,0.006729209017861511,-0.060808093181630406,0.2832788401277667,2011-09-26 13:13:39.882866482,7.670302438
49.02542790235338,8.448319977660784,113.94464575407636,-0.055993075246400514,0.002139759218629555,0.6659766656672453,3.260945396208489,-14.255363618579198,-17.022901551934677,-0.18375271136752988,-0.16684599295210786,-2.452558658868652,4.324632009485636,9.481860538876102,-1.3269878591010091,-1.2827524630621954,9.493897644879505,0.021512134774477047,-0.031752686916615216,-0.3222205402417806,0.015360606361240372,0.07903586198466941,0.5811465118822284,2011-09-26 13:13:39.982719390,7.770155346
49.025508707519016,8.448538486272007,113.95679562811617,0.010519979798143451,-0.01192055908942751,0.6515009874676061,0.681469962802268,-5.480525251239235,-5.562407929974984,-0.23384168735847644,-0.02637275880568356,1.2616224275159487,-2.002994352668078,10.476084864255595,-11.752869808049093,4.3296158538471365,10.259988140082896,-0.012462616118993542,-0.16759913394826534,-0.06294709031223567,0.03118161540724196,0.006398081615260671,0.24970659718629604,2011-09-26 13:13:40.092740574,7.880176530
49.02524735674807,8.448437502888043,113.10635127883086,0.015291338151701375,0.00488772691702475,0.4884346613584527,-11.268809392857671,-4.046513595454074,9.908778257557257,-0.06837805357932938,-0.03923654619480478,0.9478886573337335,-1.9969233120880459,9.929910231900859,1.1198590309112448,31.63452004600378,10.749372295244653,-0.009138513820530693,-0.03289027643798349,0.3070951746719922,-0.0034998013220517354,0.3218574602209809,0.05452942030553247,2011-09-26 13:13:40.192983413,7.980419369
49.02400925717263,8.448653955227176,113.98253442572089,-0.06761987617813522,0.012761494651190558,0.23184271093138653,-5.4080390871079915,11.23516607938839,3.1635734722778808,0.055984072938116525,0.3199004019578865,-1.7805702743841154,2.0534305093393908,9.973700325748183,0.44934822711819183,5.3846396966883745,10.407630290240437,-0.009056118634352918,0.36457866193969596,-0.0728029332592992,0.1537390726703331,-0.0034916360997672056,0.4852043892915082,2011-09-26 13:13:40.292791010,8.080226966
49.02563225618648,8.448498883920127,114.33746488211905,0.03271352750292741,0.0030614653278201766,0.3368898884564624,6.557404449618538,1.5608968463317747,-2.1736157764082162,-1.7400863094178214,0.04920493496305711,0.7585732433148753,-1.7053797462446574,10.614318362711032,-1.4920287125684952,-2.868946573855281,9.883746234220514,0.020966422332938196,0.011640643972700943,0.035355235331867275,0.19368278473325742,0.02923213620926141,-0.0007284854770521719,2011-09-26 13:13:40.402742558,8.190178514
49.02529678905921,8.448317211677464,114.32543544049251,-0.011865215404579523,0.004944348342235503,1.3366627126795698,-8.795201280055865,3.907392548183547,1.2841569585603438,0.04235232703995178,-0.07898074303764328,0.08246220327031967,-11.377855312284241,9.968369477535353,0.9229530383362019,3.648392309611033,10.513639233170268,0.023286204005504144,0.0585622876895333,0.7668935019124297,-0.029353277201689034,0.02767470888648338,0.17952594698842028,2011-09-26 13:13:40.502746571,8.290182527
49.02568190998936,8.448456062070218,113.21703415972114,-0.07537354155272422,-0.001782243896206218,-0.5777807024900754,-4.368228228862231,-3.667671672666223,-6.5221753909749705,0.029682786384537696,-0.583095970159365,0.8461512170686429,-10.821355574474026,10.054177199082796,-1.027981252248625,-6.132607680659135,11.393615590156942,0.007991308903826317,-0.039614716816191095,-4.512254818849426,-0.013345464159043863,0.005309593862841491,0.16087015005236738,2011-09-26 13:13:40.602762592,8.390198548
49.02496931164525,8.44687057904948,114.05295904374118,0.04251434302824732,0.012980805058219748,3.6554700600805314,-7.560855807373741,-2.244203337578719,-13.701719910757628,0.2621957427578016,-0.01946691869129598,1.6099767358686237,0.4683635755832378,9.842208749835917,1.0899431410225688,-1.919651920501294,10.523860773082678,-0.014350273780775465,0.23925545121246036,0.6162276437397731,-0.021214384493317074,-0.05864521781249455,0.6565366094570164,2011-09-26 13:13:40.712917440,8.500353396
49.025497957228716,8.44753076695945,111.23874872170062,-0.006579225253653081,-0.01253597382978749,2.047674002269974,-3.9949910048758035,12.772314222089992,0.33976733460385244,0.09944421239534615,-0.7649909800557645,-0.1340708365204422,1.016218160227294,9.13657444181007,9.606888994109177,-2.6706284611832443,10.607999859896104,0.00527539871828389,0.024815808457694412,-0.3534365702313032,0.001846360319292419,-0.003430695923642619,-0.04066680360069868,2011-09-26 13:13:40.812794778,8.600230734
49.02556768433424,8.448435622192811,114.1993644618141,0.037004357018028344,-0.13088723786731873,0.046627908402152585,5.3810116648621555,-6.514379569516258,-12.711025608480341,-0.010739107739006437,-0.1409489642350282,-1.508149459715709,-0.5919250596377589,9.564827633223924,-0.4004513662962646,5.179140420856305,9.413331932859986,-0.08833779772161225,-0.0013634603432933147,-0.6063116173753079,-0.0136223834367479,0.0514934332890789,0.262132217334947,2011-09-26 13:13:40.922776405,8.710212361
49.02569373273253,8.448659978979137,114.41651176243631,0.039802674255108236,0.04030102677494843,2.6798975686028776,31.253382017321645,9.325504333894097,5.654122058513387,0.08084275500686937,-0.04653944736198208,-0.620930081218565,1.8892982764381678,9.863320044997455,-1.1106163211828202,-3.686234659425784,10.44224200127483,-0.002168096914686539,0.022447449320961415,-0.19063244095073473,-0.010388621905430601,-0.02723867450499125,0.33889280027774776,2011-09-26 13:13:41.022717289,8.810153245
49.02547508878602,8.448743710364853,113.73654316484138,-0.017640626661433085,0.08193936028284132,-1.35772652799011,9.454014995706132,-1.981445493935818,0.25169161145188607,-0.6660603345069683,0.03774416606222084,-1.1625877365198323,1.3500347858470745,10.564763833136286,3.6570896065235465,1.0946541203456108,9.153161935360636,-0.04030194610627913,0.0942159941684747,-0.13885078175649226,0.032973690235969084,0.003951076964804246,0.24700836317920657,2011-09-26 13:13:41.122706004,8.910141960
49.025723638151,8.448553570397324,114.32513398470319,-0.20464881632028578,-0.012806659073998018,2.4329616521683155,6.967433946922588,-7.565623253023211,-5.456960438443294,0.03720096935607346,0.16683047633428247,-1.1911387301874503,-3.342246576561074,10.391626280740542,2.240950077005451,-11.271904330771523,8.410312859760158,-0.005379608472769889,-0.07736289815103818,0.39812677158511917,0.040440556117293316,0.021053244696667014,-1.5549286191915426,2011-09-26 13:13:41.222882917,9.010318873
49.02612200848417,8.448654121509781,113.57254872544091,-0.0174070650448989,-0.1236982290886916,1.5460747379683524,-4.2721090379773194,-9.663349115193025,29.50704271704349,0.03554218291501711,0.11205868262635121,-4.684168954575886,-2.0254641513282525,9.477580474956488,-2.6045111877656937,-1.503166692676166,10.196307828202434,-0.05421524720907668,0.2121178014655171,0.17713924899350988,-0.03767738732656309,-0.05342087926140056,0.3646732140521278,2011-09-26 13:13:41.332776464,9.120212420
49.02540768454307,8.448462727867982,114.16827265299725,0.014351985051332214,0.038395149649645556,2.183402948304678,-1.180039452593588,5.385943500674779,2.8304008105811262,0.05968386688372329,-0.15359809665359875,9.470833717670688,-1.8246986667031497,11.485426315062284,2.808853274752582,-4.223387063406371,8.925850105446232,-0.014990995181457719,0.016415963291317715,0.03924222433967926,-0.0018303831781861018,0.05094992725633122,0.4249263164375087,2011-09-26 13:13:41.432761572,9.220197528
49.0218553474684,8.448599178669804,115.21276482499201,0.049771152851588,-0.005646991888928084,-6.7611413182512,5.921376400625496,6.229117789631507,-73.16760874696901,0.01194295573902766,0.09216199612490344,0.06769023684388331,0.6753115114839935,10.027765793443576,-0.2526906996839146,3.5501963201755364,9.30219378529563,0.04601502479102497,-0.03791262567798357,0.4234178382412988,0.03694943657883379,0.047885015228886885,-0.025623175044800127,2011-09-26 13:13:41.542790312,9.330226268
49.02563319370556,8.447125307246765,113.73616241035698,-0.05870633021648672,0.013450098804114572,0.9563271049839355,-20.207504886080425,57.429481267270496,-1.1284605693486995,0.025077299153947366,1.372932593185935,-1.6707315867856358,0.608764753197926,9.005988450200233,-0.19153797653344648,-2.2796602082958035,9.484417476794327,-0.05065514147636338,-0.035244451532401536,-2.5456775412890216,0.007984766774955836,-0.029611592619561707,-0.494589381839844,2011-09-26 13:13:41.642810139,9.430246095
49.02538494503345,8.44828284804701,113.82998691801481,-0.01610043482600647,0.0019264744320135734,0.648756140768868,-6.167167275382451,-3.209267972948778,-0.11475022843377562,-0.02775606873359179,-0.1280279027903706,1.655045297153087,-0.6151895079020652,9.724748335662145,0.5655940353135248,1.823414799376709,10.270290423283878,-0.12542035204381294,-0.14941340634500738,0.47763467158727324,-0.02404482702783291,-0.0003040400704915891,-3.0228333909732825,2011-09-26 13:13:41.743009667,9.530445623
49.02559384379374,8.448777110486743,113.4647394967862,-0.09212825829670784,0.015861346293831673,0.6266912071362145,13.499983249099643,-0.785644198850378,-7.895419643208959,-0.17021513255086068,0.03355723766312477,-7.917278583874327,-19.454531898434695,10.388716966366708,0.9480393496752968,-2.5826350717759534,9.730042333278599,-0.0011488105842758609,0.009699392349698887,2.7603728710466786,0.02275318099663577,0.04358079984045673,0.22647286820715515,2011-09-26 13:13:41.852815064,9.640251020
49.025641403827144,8.448470689729298,112.42446282893388,0.004299910285231219,-0.0008350718956209938,0.8209830531353849,-2.7773662598280975,-4.519936003441166,-4.306984620078372,0.10365390633559005,0.06535828019365687,-0.060335388123623705,8.603322361962745,7.651289164672706,0.12094800494791354,-8.520566483751193,9.929704151240763,-0.028626856559879073,-0.047687685507984655,-0.5799755471305185,0.11885068922007117,-0.035387173210148046,0.061098011482338184,2011-09-26 13:13:41.952793495,9.740229451
49.025164752828815,8.448443248385793,113.86137229120487,0.002860146386038003,0.0037528441021808957,0.8579283672853517,-1.2238319202056387,20.05869391029552,3.085593087341235,0.07754306330728104,0.02911570624545019,0.4666788030503799,0.7660349399236128,5.470782158223374,-9.753442192340362,-1.0595033534872806,7.7888206267852444,0.0017130880204496812,0.020070747372084148,0.08689094372115655,0.00885215531601544,-0.011731911441553373,-0.7707883240623165,2011-09-26 13:13:42.062786845,9.850222801
49.025976055261644,8.448878575091689,113.71226589041117,0.012185556659271707,-0.0529979393657799,-0.9080674867634113,-12.423816772024713,-17.147062362192006,7.943921669974909,-0.04702553887490116,0.06147583957865952,2.6720991915965624,6.405533301602267,14.781822379761863,0.48972740604014275,-3.690934455670956,10.256895584341887,0.011173514613613725,0.04057850517468836,-0.5267178243993463,0.03597738458656475,0.03514400646672194,0.10823517172547913,2011-09-26 13:13:42.162937807,9.950373763
49.02546889548637,8.448575332544834,114.35562993699813,-0.04191459514107926,0.046753260303686914,-1.3127176767741555,2.888215367386048,2.5813004111028084,-0.255496562637742,0.9669975434217253,-0.0008151454382254561,-1.1435416824435733,-1.507444152493128,9.314017809089847,-2.9590514743397005,-11.678476568368245,8.950827048708183,0.022172225660436137,0.013176749392724204,-0.333704709418681,0.002867636892264233,-0.040412416673419264,-0.09152259888637913,2011-09-26 13:13:42.262904066,10.050340022
49.02536968476184,8.448628614748932,113.62595434902704,-0.04769572982054225,0.033265287063921775,0.4824614277329953,-1.4450001150990852,1.87831102744967,28.20802494739405,-0.16992840409379753,-0.18595255475055086,-1.4545462011868608,4.616761853489389,11.8725872745122,-1.5620899949079972,-0.5619021072207309,9.379578211368122,0.061175982274872504,0.02344946303574638,0.3266604101957391,-0.1264048785592104,-0.04797195575706265,0.4234472555899737,2011-09-26 13:13:42.362837059,10.150273015
49.02533689722734,8.448552436829253,112.96068568651728,-0.017921370534376063,0.02182819834205213,2.781432304119023,8.114743360266019,47.651165876555794,-3.964274380069173,-0.12950909930394772,-0.20837181622503,0.25832177879926027,-4.535723139250106,10.079797639249845,0.6509881926638362,2.5943735254233897,9.64522297811321,0.035221889963273946,-0.16481632549077216,1.6519272047331555,-0.017525248540491534,0.03223642618192814,-0.2363498879533802,2011-09-26 13:13:42.472833084,10.260269040
49.0256334738087,8.44934273238243,112.89086387924768,-0.004126200823703777,0.0037123587865096046,-0.07339054567750325,6.503532459012836,-0.15605170489157796,12.964013660092228,0.03981031024572226,-0.049548681903951265,0.8750769586680185,3.1231393086007713,13.38453798513195,-0.313568002984865,2.484578719477771,9.707145373272018,0.009645953305541083,0.051944312296742935,-1.6748167277084391,-0.027627039763565953,7.515243159084183e-05,0.2898867722169388,2011-09-26 13:13:42.572865417,10.360301373
49.02550691716764,8.448044885374541,113.12676433197608,-0.02328945986657028,0.010082039089160258,-1.3205262871947758,6.29764264479083,22.773047765218298,13.466296414427813,-0.14668545132652114,-0.14083016342314864,-3.435923421563835,-6.229661073013058,15.402206179542603,6.788054278952799,1.8086153401507252,9.655561048074434,-0.01601083244672683,0.011289527552197408,-0.11377764794164799,-0.003163798994037992,0.018403900051979602,-2.7890111168641805,2011-09-26 13:13:42.682948060,10.470384016
49.02607239522759,8.448505533408445,115.587714771358,0.00028097996097014265,-0.02486316572817865,1.908507179377498,40.12926355326158,-3.724995799788174,-37.22056215419128,-0.32791782047166457,0.02822544122429605,0.3638287996042121,2.4171193914369526,9.305266319294084,0.1340157352374791,-0.1616238953492898,9.733050034817081,0.03482136854004818,-0.0018956269378254333,-0.20358360517776206,0.0593130168321842,-0.02257200675237069,-0.13079605199696995,2011-09-26 13:13:42.782891050,10.570327006
49.02575524305162,8.449084204796664,113.84136699509915,-0.014813717288276034,0.10778954861874838,2.882467491136656,-4.565007847528789,-2.292583455797095,-7.900265921251924,1.2262774762863202,-0.2064353070130827,-1.5171431996883638,-3.2929074394385465,9.008603976467569,-2.3007559187890005,-3.2310838728105113,9.755971214571854,0.016681447060240127,-0.04404178476621183,0.18842170622552826,0.04954494249688917,-0.08483817757630455,0.6845069893196458,2011-09-26 13:13:42.882886093,10.670322049
49.025547514879946,8.448340236674134,113.56646144138325,-0.3426223653666314,0.023117457320926287,-0.2666497509434882,6.20659907276047,4.972779186815434,4.793667407902951,0.0030797673519548296,-0.041806803491634806,2.577884777049738,-2.1557361573183647,9.686799029461865,1.9272040604136331,-0.34529589234021385,9.5483544938802,0.012329761791485068,-0.023777853640771267,-0.2903371327443942,0.008916658860215695,-0.06648969111076271,1.7991563918263456,2011-09-26 13:13:42.992862614,10.780298570
49.025623496785386,8.448400799599213,114.07199653397959,-0.014291562419032572,0.0063395958518788435,1.8962207744738895,-2.4354123054359644,-9.400245479322185,8.679157949536343,0.2733373746254738,0.1468697280292988,-1.6898701523514452,2.7436077252878843,9.401816787956983,-4.245734805432961,-1.2091759136109481,10.866755599143538,-0.033080743789797674,0.07598241391602127,-0.09361091781493075,0.003302813782097984,-0.03981362233198659,-0.09928592198380927,2011-09-26 13:13:43.092865279,10.880301235
49.02531173362284,8.448158107508938,113.96116659692115,-0.0517982373180448,0.030711320148057518,2.6753761349077783,-5.98729187347091,-8.91452352533673,-19.370009786276757,-0.07219026479415964,0.11130819810430932,-1.4182683675459034,2.7257124137659514,9.572941161263978,-2.569327468198836,3.883633016698834,10.06398116885211,0.040989830040784526,0.0013926839921775645,-0.05415190876407227,-0.06174046126888651,0.015455408054125791,-0.09732597098290945,2011-09-26 13:13:43.192998035,10.980433991
49.02529956133692,8.448842499021568,113.87115404231558,0.03853117028620894,0.01682315351097275,0.7799647612753533,2.4281734758060267,2.3407110864013694,-8.355667505032232,-0.08520245806192234,0.8622698105144434,0.10853022228299354,2.3200629681576834,9.57179589854659,1.0948423334272248,-0.13604421427270158,9.919274247279624,0.017174880262439473,-0.028726513840325586,-0.20093673063891584,-0.017830279233791647,-0.0011415368533993944,0.4250094758146282,2011-09-26 13:13:43.302844329,11.090280285
49.02547231729039,8.448364852494855,113.6956473637941,-0.039240991899650295,0.016556154583415916,0.9386960527351018,-41.17708696727242,0.8687022661452245,2.214797966030583,0.38201217620864636,-0.21070167487282304,-8.998136947995075,1.046168767837975,10.073337187450022,-2.480179941993563,0.8873885073389949,13.770872950697612,-0.006356078941514123,-0.05047845211210916,0.8023389641412132,-0.04567238870967061,0.02961884229387973,-0.370903678835977,2011-09-26 13:13:43.402849809,11.190285765
49.0255303011665,8.448241473593695,113.51768964734157,-0.014737251033945705,-0.010396925257343622,2.8875051975405213,17.797299800859097,-3.9014686876664366,-1.4508744679122398,-0.027849505505573552,0.11329911455025707,-6.080902940473522,-6.172264574053109,9.194664848231529,-2.373462250744728,-0.004057733043094835,7.401488023947174,0.0005811348941967126,-0.04985127622073394,-0.3478259102090469,-4.6512421292723246e-05,0.02081746337222181,-0.1675499504205164,2011-09-26 13:13:43.502868608,11.290304564
49.0257009878895,8.448372962602496,113.79828171998471,-0.22595253229329235,0.21087869588216004,2.3499648982832673,1.9056525812931047,-46.38411133309207,0.5172774479207308,-0.10119181730406468,-0.7808138305510983,-0.09057751176518766,-2.532328214669552,9.600535529165724,3.162645901315294,6.0814110117286,9.831503846325473,0.21748869649058125,-0.031571031230146956,-0.14018025609812546,0.037784638357527135,-0.0575168654611705,-0.21895580652342148,2011-09-26 13:13:43.612874251,11.400310207
49.024618984559346,8.448694378501106,114.412107738648,-0.08874811423027083,-0.07287293314494347,1.4438889276660825,-7.045240236925337,-8.59536643030048,-6.1267897168402605,0.5165519689568092,-0.21494024512852108,-3.2253011740291924,-5.007559869471749,9.868039380516048,13.187949276570702,-1.759601040881278,8.8733478899088,-0.0023143340181902513,0.043735142156966854,0.34413247692715077,0.11811352274820477,0.003876934762945134,0.05958960219019,2011-09-26 13:13:43.713050193,11.500486149
49.024862857526934,8.448494319895937,113.81558967301277,-0.0854408194946111,-0.019336942541072353,3.3703535083421254,0.9029084422920598,-5.540701594822111,2.2302964196953816,-0.016500861550632587,0.04504215600611838,1.9531690212732755,-2.5649422381483356,8.997649141123974,-1.961727878751181,7.358720176280468,10.626278005170947,0.017139700959931274,-0.03299034034417616,0.23884687008889982,-0.038466273125902554,-0.04122595297484897,0.1293499986541058,2011-09-26 13:13:43.822878853,11.610314809
49.02599036019326,8.44876817733357,113.70731982028363,-0.009265278636918131,-0.015196983987955853,2.050131360620856,8.874298567345413,24.21018886135059,-21.681991947633673,0.12186980532588802,-0.015209704269899534,-1.6281873751673608,2.5327417060331334,10.24310788126825,5.207743080732372,-5.050083448297618,12.723512837549006,-0.005109910849583322,0.00022777327271366666,-1.5354816165257188,-0.014122117078962864,-0.026816694122282374,-0.02042058425044871,2011-09-26 13:13:43.922884998,11.710320954
49.025220725990636,8.448608549371912,114.06342677082621,-0.009742102965968448,0.0055479403437055305,1.6320864133311728,4.504261177159875,4.61609199416523,-9.567208473000338,0.08748185649976412,0.09508589327612652,1.3963225418792486,2.4433705820658993,8.949870507321634,-0.1483626992661749,-0.30848652781839353,12.036831918822111,-0.0028590014239046877,0.021241852803219597,-0.7510176971649565,0.03849290287774206,-0.056633067855068095,-0.07520806838041057,2011-09-26 13:13:44.022842114,11.810278070
49.02523940126508,8.448674672785144,113.4934163010423,0.03991242929471096,0.011574885349412376,0.9911715410629031,0.9962153302617517,6.846076192452892,-6.5798316737197595,0.38476501576055055,0.5775932582631995,-6.1759292542611846,19.487292043953076,9.93356839554224,-7.1871206737738875,-12.636812515321951,10.32268529711694,0.020484430201724853,-0.017622202454227454,-0.19931325037827377,0.022787529674618428,-0.017575423110594953,-0.07628216110398539,2011-09-26 13:13:44.132916202,11.920352158
49.025826402250175,8.448804256714649,114.10337156809446,0.41416662908856844,0.011878429265847408,2.077536029967277,5.5259534917465984,-9.806975293779466,-6.312000536709966,0.03802829458569449,-0.20269012612167706,-2.553717134401887,2.634602821119884,9.384563484791057,4.184091005453604,-4.514102751889772,9.28289889068034,-0.03382081255291634,-0.01933656982398924,0.9649890345032578,0.0021313672068642283,-0.04450660661258441,-0.21352313319124952,2011-09-26 13:13:44.232985197,12.020421153
49.0256910913194,8.448482228704128,112.7443964743094,-0.11210062791104575,0.04054158129808507,1.7100123157371916,87.11302281563651,-1.5650310927611815,3.55556366122672,0.1735269760393485,0.1569189572101682,0.6058516375656029,3.6393030215670175,9.780333649881443,1.410489544416311,0.49232184072472823,9.51090173229077,0.044658339830109556,0.022834500672275843,-0.612753793817444,0.1136023363009321,-0.03261554428124097,-0.06889130546578377,2011-09-26 13:13:44.332879777,12.120315733
49.026007340034305,8.448391608180701,114.31126702826124,0.012096989622738133,0.024357377776278374,1.7036958530137656,-25.512374068358923,-5.783179197580721,6.999344889904311,0.07759966472480856,0.006789253864299212,-0.7541808115751979,-0.6096377911724504,8.974664387573622,-2.988012190384922,-1.4924459565275958,10.401374801519594,-0.021266852232306795,0.0017473206483835338,-0.15487550176972725,-0.020296362476518972,-0.12964950594208163,0.12431581208808029,2011-09-26 13:13:44.442907864,12.230343820
49.02538970439597,8.448603295377373,112.17812122450674,-0.007643721380553884,-0.015619928267547128,1.1345862864909502,1.8783141077700438,8.21227807187372,4.135896151388237,-0.07257786200623814,0.10218732181402243,-0.13911961531594416,-0.06543769815573416,8.709485569331795,-1.703067769989081,3.074395670255214,9.792637608803869,-0.02117876432121532,-0.02450140215468906,-0.051665034446901834,-0.030808573478225427,-0.028979066901059024,0.5613425076543279,2011-09-26 13:13:44.542883812,12.330319768
49.026125275488916,8.448658666393458,113.98358542584576,-0.019625654551617154,0.09401695261690038,1.533554464840262,-29.260925871831834,14.527441956887719,-0.967482659981979,0.3302621502605151,-0.004435017079656757,0.2488035699915142,5.8729892495838705,10.560624807424968,1.6343573580346016,1.7084866347737484,10.215295358762553,-0.008054637335900833,-0.002267356898872452,-0.32018493810963383,-0.018088668327671687,-0.036324838833961384,0.2711008055069855,2011-09-26 13:13:44.642919908,12.430355864
