lat,lon,alt,roll,pitch,yaw,vn,ve,vf,vl,vu,ax,ay,az,af,al,au,wx,wy,wz,wf,wl,wu,timestamp,rel_time
48.94149705067617,8.416102935701145,150.64381293349365,0.020475775804759223,0.32608493298654884,1.0357693260163,2.0195650738065805,1.504426300996819,12.516908980810003,-0.02917162664317055,0.6665593045409891,2.008671814574768,-7.24235096707431,11.43340100816891,-4.051932049873409,17.562343625191993,9.180102776914572,-0.001091019986546135,0.14704201750214416,-0.47252588850038485,0.01518325044099298,-0.06344966892887666,-0.5572657745577678,2011-09-26 14:38:23.992105480,0.000000000
48.94177277259662,8.414185139085982,135.4600213414761,0.023064547912659744,-0.17803388247518565,2.085045667278853,2.649625921024316,-8.182120802470635,-2.385712433700122,-0.04711196426688245,-0.9039351355173799,-6.246723085878556,-3.0426087456836184,9.455980664246402,3.165439794754785,-0.6653669302453401,8.49414210338831,-0.05370959463238267,-0.23045771051986255,-0.7143408221897456,-0.09272619474836828,0.112704919150223,-0.4252651832286579,2011-09-26 14:38:24.092132099,0.100026619
48.94062863835599,8.409853956329787,145.72261763590598,0.08298588594845245,0.0646989861214376,1.4926813011196152,19.533653985939512,-4.89854863664595,1.6730141414745219,-0.29402498577964997,-1.45424040876958,7.047174924587318,-2.8253655406606306,10.1654553031216,-0.9854677300440653,-1.6175693162184523,14.631264483069867,0.007302033875613282,-0.023355670662033604,-0.4254170400363101,0.0339018307078848,-0.07278932548998601,-0.6028064643277569,2011-09-26 14:38:24.201993174,0.209887694
48.940005910972495,8.413447365125311,156.40138741228412,0.1958290819530926,0.07122823989814572,3.3458275380455116,2.8910531283325502,-10.881588410089634,-5.608223923310565,0.5365549017883534,-0.9379940357938196,-0.003528205000190132,6.071826303159532,4.384253424123674,0.1816626072802761,-2.779905562510124,8.274978099741139,0.08674893104708398,0.1257633895457234,-0.4280507724223451,-0.3103265905937234,-0.04395538817195366,-0.2993649659620584,2011-09-26 14:38:24.301963973,0.309858493
48.94474869487712,8.41683556454183,164.38741079250968,-0.10033865832770802,0.15785759121756826,1.8295373176316934,10.043796169868926,-0.9386226440888649,-53.5475941262673,-0.171968334672661,0.12669185862539817,1.237157898850807,-2.854444709143128,11.220118152818577,-1.5635077005485036,-0.32512264057414497,8.719276219845133,0.16505397056209828,-0.05164249767522302,-0.5341608063808049,0.3077697334966536,0.043211085323846085,0.06886925674429267,2011-09-26 14:38:24.411907592,0.419802112
48.941383068533895,8.412504756104411,184.8296795640784,-0.04142530003334613,0.10329932306439527,3.663795531822357,4.49804694457289,-8.48591489813493,6.190907639808519,-0.08719982536752148,1.1772233718403813,-2.8429872460224113,-5.212244039940968,9.337241669569547,-0.46581387291022686,0.7943283633902098,12.221201664118382,-0.22403692135525075,0.06741814539340713,-0.30463527796692247,-0.07030652482033771,0.05424303988427178,0.00044262155309104934,2011-09-26 14:38:24.511869049,0.519763569
48.94277372239855,8.408329038026716,175.7265762537133,-0.14202707757970526,0.47473488599350394,3.8683886518425146,1.8193919154274667,17.351470050383856,-6.006238693560153,-0.30287730249653877,-1.9212051711857816,-0.5050805143638466,0.06206807576126483,10.024964574710275,-0.019564467623733456,1.8860736110583574,10.274161042426739,0.0029002064189537595,-0.20466942526779536,-1.183669234442317,-0.013875838968281786,0.0754796357738661,-0.5591620494543409,2011-09-26 14:38:24.611852864,0.619747384
48.943197911495496,8.429196084453453,201.04057255398862,-0.10065738292937285,0.037712658249187105,0.3017501866571146,15.805784023321582,-2.0036467700139324,-0.12280676560599169,-0.14135733776033527,-3.7395132001183775,1.2156652947975841,-4.922817044678954,9.781685295929881,-3.373252437125935,-6.065956783837149,9.0290598539027,0.025414544432605626,0.05027788781079216,-0.15618076035324663,-0.1926969034247496,-0.1474068170658813,-0.8696269006395136,2011-09-26 14:38:24.711819325,0.719713845
48.9435152445451,8.430408824818352,-51.345122131447965,-0.189806649479915,0.12101709831746366,2.418083978782817,0.16018088176433842,4.371344290365004,8.153614709250277,-0.010192233811744847,2.5412314950759978,17.4369221525695,4.035584708397073,8.818949155902342,3.2514857043195464,-2.2820551835499048,8.951296838287568,0.07701043738612566,0.012060244972500175,-0.4171463361539283,0.1365014577246472,-0.03903866630107834,-1.2453956960860193,2011-09-26 14:38:24.821764302,0.829658822
48.94233175752278,8.410814465136694,176.1002505247904,-0.14894934030488174,0.07512638357058492,2.3556597613651618,-2.1217289030308146,-2.4806744037404815,2.3862448733113277,-0.07278640737662857,0.9270614396454867,2.633565706316152,3.8791875944062024,8.052065197651928,2.760356190292507,1.2505742094195305,9.773277800654338,0.10426626559843344,0.09658914901099842,-0.9318191115852703,-0.04652920489317568,-0.05135462219645757,-0.7280005522670218,2011-09-26 14:38:24.921722394,0.929616914
48.94555443131438,8.414858241079374,163.6547454837752,-0.09361434523473465,-0.123958645119606,-2.3769899502782783,5.054946508610454,11.259309570739195,3.404324014449104,-0.06601579926122822,-0.9015916197951994,0.05019420772178956,-3.210718459527242,1.2296192103051578,7.286128615726085,1.2640839353379774,10.122350358386745,-0.0040620973241589035,-0.019438906785280534,-0.45322663832139953,-0.01478479627245247,-0.08798570130580423,-0.49560581636623313,2011-09-26 14:38:25.021732195,1.029626715
48.946016215712724,8.415027251813221,163.3166618640424,0.05024151028843232,0.14651350759909562,-0.3196697391711776,5.204901557106192,-11.100370331585946,5.439668436797296,-0.12864090185660962,0.4082199016046447,-0.6284252132000159,-1.2612906968460926,9.738530782577877,-0.7427349659037169,0.25150399132900825,9.687647510226912,0.049212831752084116,0.055525548421105464,-0.04042624199527889,0.20068738621003634,-0.11545266024159236,-0.734066235352166,2011-09-26 14:38:25.131664732,1.139559252
48.943632320735226,8.415574561443902,238.9351426460342,-0.4469851597500262,0.028488737699140718,-3.8781175358563504,-6.598294044748016,-11.593264422146275,0.5362107656339812,-0.21615019096493218,-2.0888512161728663,-13.148508650390879,1.1794941846833114,9.753829770017989,2.6786797100385,-7.641051976556068,10.01125653991226,-0.1889112975961755,-0.15499637593813406,-0.627829379648009,-0.0664389496690104,-0.22164314202759805,-0.048863893185721874,2011-09-26 14:38:25.231592022,1.239486542
48.936728573929884,8.423302248050279,144.83819021622654,-0.24020840561611306,0.07811978144253248,2.978173186554094,0.5387017681936368,10.588006583683832,2.6267088355023156,-0.11378141893892602,4.8284351238583865,0.8256611675263522,-5.547238732280617,11.339917521964672,-1.1770660407892404,0.5525936676143659,9.40654481535701,0.018456778699446348,0.05160141151891958,0.43456017928547175,-0.03705866438897825,-0.018881123021711403,-0.257882636027962,2011-09-26 14:38:25.341573173,1.349467693
48.93976676143681,8.41337205013884,172.50452456342128,-0.16387319605574724,0.15715969451216022,1.1209421495482612,2.150849647453244,10.879344606198723,10.748001958068647,-0.2527754803803024,0.339174758308723,-0.4188740287307293,-1.8707189096236894,8.846840182750926,-4.690930162060827,-4.632846962603775,9.899605439910271,-0.04799310266323662,-0.37779943953394,0.039005696934681255,-0.06806865781100102,-0.09836027948913373,-0.6363165265113156,2011-09-26 14:38:25.441598298,1.449492818
48.93943078151178,8.409521380607183,130.20905485401488,0.025718037114613568,0.2577638236435115,2.641747581700959,1.1149561261718963,-17.4031000645211,4.549082979033347,0.03688891442875861,0.31211790029934927,1.1983184778414753,0.8343388481008711,10.226410760310442,-0.44220797074061535,-3.9374225043385143,13.146276809933974,-0.018542801358479737,0.21134547721084945,-0.6382273615995528,0.05200591936285245,0.15985757843467668,-1.9505738874872147,2011-09-26 14:38:25.541583570,1.549478090
48.943356541925986,8.406671013226159,144.85055865436152,-0.04540910599634301,0.6648024423820791,0.8135477530548106,3.2673885616039904,-34.55875772385331,0.9495261311170098,0.15138727135197938,5.303431949489258,2.778322386125319,-1.105966576581087,10.221847589207526,-0.9861876268412725,-4.388196700073087,10.995529786310007,0.05146824503966034,-0.018514712909638385,-0.42079165830074217,-0.06025152898540648,-0.10411913461853693,-0.5871503494843271,2011-09-26 14:38:25.651451544,1.659346064
48.95679454401588,8.413158103050256,180.67412015143412,-0.17319904088523802,-0.8424348648570196,2.394624761487311,2.627879326163573,8.686496878154948,0.6016388398169705,0.06346517883820449,-0.7688762163889353,-3.2648578561261186,-0.22377289858270233,10.859898124122676,3.583541616797577,-11.147926492059351,10.825254060327023,0.15205113886742255,0.09490774691247082,-3.8403024614248373,-0.019234230263158764,0.049690833394375716,-0.9866161722708493,2011-09-26 14:38:25.751314745,1.759209265
48.943941844474374,8.417878775126372,144.72994076842517,0.5729670927876723,0.13077011400638994,-0.6552706959272192,3.0392013218171736,26.813382623143184,-2.8029256555646125,-0.08312962787696666,-4.005586560768613,-1.4310547296891305,-3.371555658489081,7.601546775179018,0.8647117977096496,0.7398414291391548,9.920955856110579,-0.02627695182945087,-0.03977679155836424,-0.10022647303487653,0.0441115954174304,0.037166372275883826,0.6680539315882283,2011-09-26 14:38:25.851277688,1.859172208
48.9432194155534,8.415321256489596,143.17188528936586,-0.2385593590187413,-0.022012850951494172,0.45020397854154215,15.141704899178851,1.051943915198312,6.053958733591276,1.7085280812598815,0.288801407267707,-1.3914534439549584,1.467991684087556,8.73329361201888,-1.6444558450168427,-1.165439801843889,10.731351675837303,0.09201124899328139,-0.01079209554919007,-0.3101480901079545,0.07907401196442213,0.025467886484797416,-0.40992610922953127,2011-09-26 14:38:25.961219815,1.969114335
48.9420389659991,8.395945362467325,162.3639410154904,0.1249542892938402,0.19500692202564093,0.2782727655878803,-2.0019859165256864,-30.036451476942453,3.5398188817310876,-0.0227440901870178,-1.7463827337019402,-6.622827762850717,-12.217790426529222,9.959028817091335,0.961652603988369,11.307560471259226,9.519186699352657,0.00520984891324534,0.10032205765526626,-1.788780545895983,0.08218563972965562,0.009607097645284873,-0.10253207692310579,2011-09-26 14:38:26.061431288,2.069325808
48.9431470965774,8.406480626572895,162.27011622363634,0.009750418551615805,0.11243275726491975,-0.4917619985798787,-6.765888444299521,-110.26130019924132,0.2789620903171435,-0.0907045064718915,0.5605888596403771,-0.8232327733861575,1.5814702405131202,15.90138502428292,2.412490707790087,-5.958147849433197,8.689189428699608,0.39314033633436796,-0.041216788335951875,0.053226268852405556,0.0025532801863890416,0.056427363027519176,2.929533478293955,2011-09-26 14:38:26.161208623,2.169103143
48.94253502869019,8.424594566068665,146.52719279243766,0.0540438211949357,0.10544212768324321,0.05142940532664397,-0.6648585088943229,2.2021033960740555,13.02433430468439,-0.07577148933614826,1.98374629078282,-0.5446397520829863,-1.3278889249425703,9.577035563078745,-8.166017217186278,-0.5574761294223841,10.377779743306778,-0.03675807372611357,0.0977301774209847,-0.334588930792822,-0.05805292451016255,-0.15046988404454176,-0.46776188785701167,2011-09-26 14:38:26.271092476,2.278986996
48.942113400223505,8.418385389237208,152.8481644907962,-0.15750563160304593,1.0795939742631995,5.325067617079488,9.849667865964877,24.867594400583258,-1.2025354983565086,0.04707521338585605,0.9161891865053563,-2.2973779857748062,-1.7426410182219847,10.08718698277448,6.689666617691832,0.6616838240775791,8.906010873266494,0.10502899316469957,-0.1750760672543489,-0.19378520214265085,0.08069115028465232,0.018302824205157383,-0.6970302467209344,2011-09-26 14:38:26.371055389,2.378949909
48.941100670157184,8.402921787468587,136.0065077240237,0.1144524632861799,0.11598774482027391,1.2847889712135934,5.240185945914943,-3.1142294901971495,20.04484250991769,1.3859642508872598,10.036852200491898,0.1108354650201791,-0.6467480685512146,10.186113703233985,-1.6857714497132843,-1.2544790246325315,9.97498559532857,0.12391048949169589,0.04585311557063507,-0.1488937300174975,0.09969087674247865,0.23965415360056852,-0.7480290680831692,2011-09-26 14:38:26.480998144,2.488892664
48.94423958675239,8.38573202857909,146.32939718929887,-0.06257129775704394,0.2221609456907644,-0.09798029716149426,9.512688262720282,-66.54799680735262,-2.113817157647533,-0.13111853574225002,1.8624374057158621,0.1662421339616561,0.05889559098582042,17.34180553684171,-1.6300083032758743,1.3364175016243385,12.077070220759088,-0.03330066046875153,0.04327595880230018,-0.37404848407164226,0.00965036219933307,-0.14318932560422576,-0.32250269270616705,2011-09-26 14:38:26.581055360,2.588949880
48.94228577247471,8.438503423642892,159.78330676249598,-0.1353012916197995,0.039783047701139385,3.4468680060581667,0.7811858248612467,-53.390112117571974,3.497137025959126,-0.030800676515700245,-0.31030262243335055,1.8159105947200773,-2.3479071037891703,9.270651358282315,0.4853812109956006,-0.08398833177770781,8.34127436975841,0.06289969221729683,0.05907200645019834,0.25164494486397343,-0.11590236426712536,0.11789273564484375,-0.4351069214469061,2011-09-26 14:38:26.680894463,2.688788983
48.93963125486249,8.415217706124734,174.22575555587073,-0.16594925968175125,0.28967332510457955,2.3345653096682826,11.577217387052135,17.82338632822128,-0.4917714341255248,0.05363203329068262,-0.3667491814892033,20.08591243139254,13.914867978085812,10.017254256124566,0.7871041935618133,3.1449910698766486,9.28146607809805,0.06096685382865759,-0.12307899397761717,-0.45781125296210057,0.14084820222014655,0.0288198070451162,-0.41269295614840584,2011-09-26 14:38:26.780885160,2.788779680
48.928427199364386,8.4102134064224,213.56001459576868,0.11922684377574123,0.20457486892216264,10.257160302758436,-4.779638435438381,13.797935060499443,1.998910581045604,0.07325877742627279,0.0051572371526389105,0.7660601973739372,-2.0219267524132656,10.19478572367158,-0.6787860987021486,-0.5385605073335384,5.526701548980828,0.0771498560840311,0.7337146628555823,0.06503798607663577,0.010869688506510513,-0.1770629883859532,0.06576419855671137,2011-09-26 14:38:26.890798004,2.898692524
48.94479628320361,8.409181806388874,142.34763157523682,-0.13416645674708244,0.15327630376048057,0.24990768431124,6.070918052563328,17.43782997170023,-8.354495774719357,-0.265563270187672,-3.71436710718919,9.876764116146362,-3.815475155924612,11.394945022562247,3.695570671754413,-4.53800085414238,9.879329789106205,0.013418240170522712,-0.08309665988287467,-0.1612323947089866,0.08374444542248859,-0.06397847392834098,0.17132512694206545,2011-09-26 14:38:26.990730609,2.998625129
48.94315485406665,8.413585807659395,112.52798370228993,-0.06312029699291861,-0.6045458633382402,0.4305234922946405,2.4816181708769935,-0.5758385802164705,3.463835762443978,-0.027190642919440053,3.9358355294912406,4.538669291038085,-2.027026306990282,10.50435134688809,4.260104849920765,0.8475631317154353,9.761410239533522,-0.04502934951186429,-0.36385872451145873,0.071532451920539,0.01945921081659218,0.05823129808812022,-0.24284907752306834,2011-09-26 14:38:27.090816597,3.098711117
48.96031855050206,8.412025390278824,164.51682814662206,0.07661319677630041,-0.047775504716240154,1.7906051121977993,1.8907031771729994,-1.6217582591073039,7.258675814592922,0.09222731157147691,0.5249045518881343,3.115866779202827,-1.1418051173380752,13.747679676176935,-2.768764314765276,-0.9294662067973549,10.688603677483213,0.12098591280309161,-0.08837406418779076,-1.03783371679427,-0.02484048284295666,0.06586514950137486,-0.30291061673412173,2011-09-26 14:38:27.200639982,3.208534502
48.94576731112815,8.416259991909772,166.07337241494872,0.05387747035371043,0.169170980110663,0.9107301197372998,-16.96719656657548,15.171040339385309,11.023628295897888,-0.2652662070844399,0.18353203487486636,1.5567533702130398,-14.822700990050066,9.154660072691415,11.95878395532485,-4.201198467196249,9.275391951464638,-0.12991062977718928,-0.3279185419437209,-0.5869000458933127,0.21645399208264882,0.07416496744283213,-0.8458157720576821,2011-09-26 14:38:27.300614112,3.308508632
48.94616850465581,8.413805637499204,148.51923322258136,-0.11927526756772122,-0.01979214685078908,1.2844561440185225,11.905534976521377,74.19876272604456,2.9643235481391335,-0.08511257812105355,-0.3549845892686993,5.161840189221385,-1.326297928360821,10.785822331077185,-3.115003747483561,-4.524498848231234,9.551603220021184,-0.028211492928018334,0.09131418707383922,-0.894341131729525,-0.04114416368127807,-0.04913953290041612,0.9824261921665158,2011-09-26 14:38:27.400577677,3.408472197
48.94285743287858,8.397591715792979,152.00364925592888,0.16330375083081755,0.12236759969206909,3.260433615760827,3.236971819734917,2.425748264394664,7.192369792374348,-0.050147974247787726,-4.150998065833604,1.9940502465173973,0.5792474776082643,9.65586611226638,0.634216916381919,-4.411100252674981,10.185828152224204,-0.03225683913186647,-0.04665881886703128,0.05443254456793885,0.008995356681722536,0.08486296958785666,0.2206254202656539,2011-09-26 14:38:27.500582473,3.508476993
48.944640943447276,8.405188089000472,152.40185779214423,-0.03241374776611128,0.010808726661478071,2.938320205976068,6.284702590302652,-15.454263077651051,3.0193098129333498,0.01639824586309485,-1.046298427609118,-2.5919060282378625,-3.2405273403802046,9.34575079053843,2.135061222209411,-4.02655136451383,9.18506814325843,0.04016917600120126,0.3770771743106011,-0.09435916469169121,0.07240134678134635,0.08684243314041934,0.12420327125518821,2011-09-26 14:38:27.610549208,3.618443728
48.94602110476068,8.41107834488271,151.15489020620535,-0.23602970324533123,-0.04578690207495317,2.24110466045114,37.69115827451315,21.181472088554003,-17.211469712537376,0.09292987952137188,0.012149520851745851,2.8455484384613854,-0.6697589552293082,11.274460310604502,14.191054416021137,-2.368346555370157,9.988754393443738,0.0912858443813129,-0.0013332557408027267,0.6656002806662914,-0.06363183940986351,0.050475076108424693,-0.4469832836270036,2011-09-26 14:38:27.710452240,3.718346760
48.94187940578534,8.41596175291318,124.16777428287179,-0.01315060783397775,-0.33086643901946133,-0.1391644743716639,7.594226797985298,1.0994847309268105,-5.178255825713217,0.02699149290959207,-1.0475025053155924,2.9903819707816224,1.2027317988514978,9.038420754751629,4.014520290992322,-0.898546992954677,10.321087165421797,0.0437143578665418,-0.01730079697336557,-0.0030614726874571285,-0.027015911098053205,0.19967694527468177,0.09564635790638792,2011-09-26 14:38:27.810402095,3.818296615
48.9398651278509,8.415842425252785,25.4877458374456,-0.1766549401018267,0.43401674997665124,1.677873670226747,7.081543135279578,4.2009721827716415,-0.1359625659002992,0.030205146242259114,1.4220775983878386,-1.5033697295872703,-4.453382367359078,10.085869944052593,-1.710243650391565,0.885810561949651,9.729493836137104,0.011388374385313222,-0.10855582439730967,-0.26381808905403015,-0.04030778040499794,0.06582916215747116,0.5251019013352388,2011-09-26 14:38:27.920349825,3.928244345
48.941684468627486,8.413224268502859,200.86324173479338,0.04723347882822889,-0.08067237877712462,0.6076072414424071,9.393016219299994,-2.2920688464731014,5.217830934751355,0.3200397830582563,0.3459484613235399,-1.9435961363141274,-1.4189523110883657,10.463138403414606,-2.3829742877641764,0.4861753561075408,10.168480030732068,-0.016182837259894712,-0.06724891005090343,0.0065448931321232875,0.022967584855655393,0.7308619961402788,-0.0532930291260566,2011-09-26 14:38:28.020312019,4.028206539
48.95337082689979,8.412269022946353,368.099846443722,0.01960860190178615,-0.009059066529920579,-0.7138633331933948,1.308438100073103,69.22539551451842,1.1896805187344768,-0.5869676045107284,0.5954536930017218,-5.798358584685576,0.184336137771418,2.6497508508493706,-0.539423560808179,-3.336139426550505,-1.9223942389154889,0.10687109733482536,0.012842365947660361,0.367448422118659,-0.015031000759436988,-0.01683434550619481,0.11257630469593724,2011-09-26 14:38:28.120455789,4.128350309
48.94486602474297,8.419877097945994,152.0506070820862,0.11774605945966998,0.21723478173967692,1.200876582737544,-2.648324925890167,21.90103416941632,39.24773687984483,0.19217856751442253,3.5378635090661157,0.6064255507600912,-0.6008748698946295,10.371654107469453,6.117115090036259,-1.1357238202515172,10.056531007602926,-0.03714168181870469,0.48649470512762777,-2.1670709185449155,-0.008859614258540004,-0.021315852381824648,0.025198898543417492,2011-09-26 14:38:28.230210987,4.238105507
48.94113347957103,8.414985925893331,172.6413617192707,-0.10269902240457993,0.07474649386773621,6.199038152988329,6.682382932847258,-66.34887863586756,-21.290590573742676,-0.6350530098169344,-1.5995914611734372,-2.724829722450856,2.2380780914903315,9.083179715944015,0.29815504523036596,-0.2751976817526237,9.874071957747319,-0.00545951675199923,0.012748696202994975,-0.23636132610024707,-0.08202489286262278,-0.045187192734321105,-0.5237385186802322,2011-09-26 14:38:28.330163014,4.338057534
48.94188117598378,8.419093047359352,-63.688181276536966,-0.1805851133321094,-0.0013545562735767886,0.5289710216505661,-35.49778814431839,0.20064102813734852,2.562858703118346,0.27967098220400516,0.622232382256118,-0.2285319604143554,1.8038776607403244,9.543875334903124,0.3818588753362707,-1.6881555157714199,8.577366554852585,0.11320160474356653,-0.018264887335101933,-0.19316927237714449,-0.03918699611244135,-0.08481065763225744,-0.24975506389240726,2011-09-26 14:38:28.440263248,4.448157768
48.94120888197954,8.40721233632601,151.41993103441072,-0.4206466175781309,-0.20870951775208743,2.0349112097830417,10.914813366874334,-5.872589547089791,-0.3664557957672132,0.08818093834709217,-2.9524183500435,0.520874713089285,-1.7764482502494876,9.528780165141399,-0.24457205423491046,-0.6699687816289441,8.922865679145323,0.05058497977729161,0.1235105072784074,-0.6540528824602991,-0.059769112234476174,-0.055281946395884685,-0.2475478913216944,2011-09-26 14:38:28.540228734,4.548123254
48.931056252783875,8.409967427247148,348.80317885937933,-0.038831504427364744,0.30910576044278404,1.2029276740914534,6.642405743123799,-52.058738419771046,9.281555080938956,0.31172290787958873,-0.2416260035201615,2.1430097058083843,-9.128032523825645,13.855317674501645,-17.81810147783607,0.26073158486836034,9.615254985738035,0.48656927002775424,-0.41406471573732084,0.6578291119656854,0.10801874236774921,-0.24511396077261594,0.04216768180779527,2011-09-26 14:38:28.640175526,4.648070046
48.94366552216299,8.448947590210063,97.87501885536051,-0.009122009451909973,-0.15734667700878815,-0.5321218898676864,18.380795299721875,11.825689863417352,6.973048049677519,-0.030865384630790124,-0.15124599529036162,-2.89213523914637,0.7646993975373095,9.394325756301193,0.02575121706527489,1.3821825791805191,8.657925565634619,0.2497748218973309,-0.03638560829954329,-0.6253466614304227,-0.0891501935195331,0.008070113057184344,-0.1877388246924133,2011-09-26 14:38:28.740034525,4.747929045
48.93840061009893,8.403688348455368,166.7038462077602,0.024564741722449445,0.243221704286839,1.8440469927079084,10.545956862710032,8.40139706234683,9.50309962945977,0.05885130062495441,-4.098888337939585,-0.23802625149776163,-2.834140845908335,7.507933546923059,-3.3522606374184303,0.40792220824190584,9.351248198697709,0.03424843644279633,-0.060890751341982505,0.058678970814673805,0.29519157169301946,-0.10933240070066337,-0.3865561911390653,2011-09-26 14:38:28.849964709,4.857859229
48.93493323762539,8.415981779515446,171.39881700724007,-0.2168979310800667,-0.6494990132117979,-1.5596843717100568,-39.61039445237054,19.006324826542546,9.060870561896728,-0.2065634213774216,1.0306560013996067,1.8667094704000107,1.0300501641502653,11.742714084537646,-2.349144764880387,-1.6138435673701903,9.913089344576841,0.011447463504478634,-0.029846867345693882,-0.27773242744554477,-0.05175922488012002,-0.32464211970002,-0.6230871367230262,2011-09-26 14:38:28.949883148,4.957777668
48.939790749019906,8.415231080470523,132.98562539135133,0.0219279328295161,-0.3419225149233631,-1.9442378789774692,-25.22414390071233,5.885417268773674,12.276069196286116,0.16001482181270354,3.6126162785592077,-1.7480131499952767,-0.012878203646072645,9.82056431181295,-1.0866432726429764,2.2305182245062336,9.237525967608038,0.1397236730926649,0.3338858870965843,-0.5076482765626433,-0.6854777576188694,-0.02031897793356855,-0.28617020901153684,2011-09-26 14:38:29.050035180,5.057929700
48.947595294280966,8.406842827184585,123.11605664344236,0.07410355211960636,-0.0324330882350648,1.31978853167501,-33.110784202038445,0.21178167634398548,15.013654223376893,1.3456953410044359,-0.34229779249914427,1.5606680595799247,2.979854675132679,14.270259115659215,-1.5958619216569283,-2.3118483237244343,10.402980051842507,-0.0519949352740484,0.060438769336541416,0.3120051744446245,-0.0464706777295103,0.053470830883384744,-0.484493659853049,2011-09-26 14:38:29.159823027,5.167717547
48.9455199035552,8.416367122958665,127.62220293927157,0.19150000260639294,0.16329976424381062,2.5672092217179516,3.364673731983018,5.305130370125707,8.871649228500873,-0.2542406647609444,0.738638250121596,0.5130816584238848,-0.460318369699417,10.006385712498114,2.668633158864705,-0.4484979854288744,9.815079934627741,0.06922284658801903,0.029139774654037432,0.48409119377347315,0.09285512843238773,-0.1372638555040903,0.10275968747963696,2011-09-26 14:38:29.259745096,5.267639616
48.944278660778295,8.416066885792505,161.3661452491284,0.5843608527781305,-0.17463793558882001,0.30480625327302424,8.34599935799503,-1.1848885029319893,-9.003006780321378,0.07941254416976604,-0.011312030603981053,3.109163110842145,-0.3732658747222447,9.81409228774102,1.2151048954141097,-4.160548485914038,10.464910522515565,0.04092555177558537,0.05722962717458817,0.0197726065183257,-0.10080098087285216,0.08794547779151665,-0.2949729133899542,2011-09-26 14:38:29.369673651,5.377568171
48.946435947436306,8.42064769934465,175.8794702566562,-0.012140253607887518,-0.09177532044731015,2.255342922995468,5.66782292967884,-6.61415695002283,-1.1213675865818482,-0.22592646827127677,0.39073391605896507,0.923195188604637,-13.759074802984339,14.385884094266624,-1.3883607499521529,-0.9899021800794225,8.651194910474823,0.06041924413497963,0.10808570576047252,0.06621832444355759,-0.065651994668987,-0.072422053300286,-0.4118147948889362,2011-09-26 14:38:29.469656559,5.477551079
48.94533049928365,8.413687565361128,149.0040772607503,0.018567597832680693,0.23995955910108435,-4.9938625388443825,-0.4683357234853407,14.520268814698207,2.102746326898191,-0.25063058623177337,1.2894971075253359,2.677997413985643,0.5975436450337439,7.761339342882002,-0.6070582785926677,-11.739711618825318,10.060537181005081,-0.015350280139662865,0.047834883402407054,0.5979723758876516,0.03263874962713606,-0.083421992792135,-0.3863566363839335,2011-09-26 14:38:29.569637503,5.577532023
48.938101471538815,8.410582253487108,148.40378038753366,0.3437157456069907,-0.11144968711806243,0.11037887432437488,-4.115200522832963,-14.565374162177566,7.476412856849698,1.3888123565078963,-1.2639694758389153,-0.9118166628901977,-1.140812047149228,9.396214347249655,-1.3829595681037494,0.7418846535618061,10.957351181748551,-0.015228089490512988,0.059153671002872894,-1.3546949901709269,0.007922529979024942,-0.06623209448149465,0.07371526961701054,2011-09-26 14:38:29.679555927,5.687450447
48.94261224525317,8.419441538632949,141.38087579261753,-0.03218037184754343,-0.20968222118951835,2.94455916261645,6.474305794496819,2.1108963688630977,-20.19161626886034,-0.18753981353997876,-1.500839860100108,-3.3245938912325927,-1.5074704405708792,8.79384421721329,-2.0138283273863595,-1.9232752387060592,9.164283390589851,-0.14168877700291213,0.04415505300403686,-0.8116115393865277,0.09072236045468196,-0.11611231451781069,0.034482943509720414,2011-09-26 14:38:29.779551704,5.787446224
48.94693561363808,8.413047122785468,165.4805740058225,0.02206585843395295,-0.2603171631226781,1.0529710254961424,16.19200025610609,-2.321580795240441,8.915186494293422,0.0926687988511382,-0.27856524926376275,1.815814727284406,-2.9763522310081494,9.867193734830181,-2.5569299631759668,-2.39201464312149,9.961169146547224,-0.0519355979989362,-0.010956115779891968,0.013269420271218597,0.2134852194308021,-0.008065701792422587,-0.5710694082389495,2011-09-26 14:38:29.879473317,5.887367837
48.939539080411535,8.392981001771403,139.7061957908541,0.07227956733417681,-0.21933858061977737,-0.5382402896826752,5.275572600559382,24.000191685318647,9.359541860124379,-0.0038531068822654085,-1.3136495301820286,0.8282868923455018,0.1584943340212236,10.760344552807092,1.1469838818827227,-0.47202754770927247,7.714919052250409,-0.09813747205479324,0.3054232942881752,0.2748039867359957,0.020003373453474162,0.02637125303032738,-0.3564406694759027,2011-09-26 14:38:29.989375775,5.997270295
48.940669362404485,8.411264638080137,125.66292725152377,-0.006774776918977902,-0.05748703297708314,0.5611745565245856,3.990991703950415,2.763447146874136,4.452118624310517,-0.12527937432679354,0.38087702120920547,3.047870700870091,-0.41506267688164533,8.59211343148204,0.04620886592534701,-1.5492837762355938,8.699582188335496,0.013724819087072893,-0.02863364600880572,0.19270727522984743,0.06632291473217176,-0.125399824892842,1.4968368774194183,2011-09-26 14:38:30.089573132,6.097467652
48.94370927043366,8.411015262316418,236.49989689223952,-0.046859085181297486,0.13012789876918426,-3.7341647387180656,5.046654924987847,14.94162107137182,2.212691195991042,-0.09254658886983957,0.24766326719631193,-19.896727365483557,-0.6472145170312683,0.7963343172701229,-2.887813771090873,0.9196561567747321,9.715998209760356,0.010963992547756207,-0.042298993625260614,-0.11450650958832619,0.045411871992442884,0.13046476963499318,0.20307304256218597,2011-09-26 14:38:30.199274800,6.207169320
48.94266908226969,8.411089423491259,137.5341893811445,-0.07405045831899572,-0.04723065649879848,-8.498955690613315,8.113023131189534,14.005145148960839,-20.791547329758068,0.13448112979822469,1.19284299764969,5.342300582330232,2.549121796913949,10.586282050740131,-3.571455145760437,-1.8450861876610505,7.867319073176482,0.6413300441934484,-0.10991489417844359,0.05016983441512366,0.10031064782468957,0.010798723267748401,-0.20964520805690456,2011-09-26 14:38:30.299246421,6.307140941
48.938990650839166,8.410406274335307,49.60782332246754,0.05397106463477732,-0.21040701860252678,1.7136914189952408,2.130708478643255,5.5946180016603915,9.984079163086825,0.16036941652553557,-9.238772773794379,-4.112374739786821,-1.297988029342593,11.078089543315732,-0.0987002343330014,0.44754836592486247,11.964526216593395,0.08522625315643984,0.021678880083716334,-2.891588991870835,-0.011924651943673037,-0.1365280654798126,-0.32225558512873026,2011-09-26 14:38:30.399221167,6.407115687
48.93636717464773,8.420186514945991,262.99270292316004,0.0880520995292304,0.18402808074890306,-0.5443924776876212,8.229137551640893,6.359537290733325,8.674827497745687,-0.32361649400637604,1.111139003853807,-1.2583301908238222,-4.175586409749058,9.299150134132988,-2.587513987749065,0.7655214564820839,10.471538278868039,0.017935774717795464,0.025858667475361793,0.2957520577315527,-0.2456242649554392,0.0004576173663005355,-0.05271465640345826,2011-09-26 14:38:30.499179384,6.507073904
48.9412700807842,8.416018471445515,235.16322089812758,-0.5542011451100836,-0.10749688018587125,0.37866963547731847,12.12132825982324,21.685461634444636,2.6572096267043386,-0.20920477605759016,1.0192953814914454,0.9623632200458285,1.2292741930801305,9.268299666984598,-0.3718659253826658,13.241109543597757,8.37258150110995,-0.014693223681286501,-0.059487846592831906,-0.9120871705273932,0.08168275696287924,0.16726690766251567,0.6981208643456073,2011-09-26 14:38:30.609138237,6.617032757
48.94516279636845,8.412470931995534,188.42945754866008,-0.07853931999173266,-0.27556962324477247,0.626686944596904,0.21253072414359586,10.758895783572404,13.091243012405162,0.13720696520383355,0.4207967795273423,3.5112178894828046,-1.5507925811363457,9.716957763607,-1.4273708340039555,-0.09471011607396942,9.682733220350999,0.002496338381742712,-0.08486195923580969,-0.19683743089422873,-0.0822369641770509,-0.03605093655310225,0.3016879243842108,2011-09-26 14:38:30.709090732,6.716985252
48.94013505533104,8.419292308566039,341.5300275983549,0.10744045250870839,0.04497440843543897,0.02313465742818932,1.1508145403041663,-7.692165089693738,3.690229585613717,0.09256761307734557,-2.158061860864066,2.7124602559186264,-1.1728910858944341,7.860991506794413,7.119517695915755,-1.3425859342954427,5.193009733780014,-0.10512288524169687,-0.04612449606887096,0.3250546106625372,-0.02710191710904628,0.0032314404283997154,-0.23347206255004724,2011-09-26 14:38:30.809009515,6.816904035
48.94029037734753,8.425125835732935,127.7409066552325,-0.02354819214604292,0.2093698667698634,2.5405599806701886,-12.883852453662676,-15.708864499787937,-5.837360773571684,0.21895994547451808,5.560031620820666,0.46823747001174226,-0.12106926638507967,10.156681348568817,-2.6525157891934064,-1.8447119288269442,14.527761188185607,-0.11147328571661294,0.03443229119987984,-0.0863536026434778,0.21289779101765277,-0.0400892838771591,0.23812758174760107,2011-09-26 14:38:30.918940076,6.926834596
48.92763804002116,8.409073545399087,368.3017249204358,-0.02987873908445343,0.11077957472034682,-0.21288556907843137,3.575869330823554,11.016353541227714,6.884953993698009,-0.08869008627826785,-0.9079805895489987,1.2561086669606252,2.3083439306347104,10.265481850973234,-1.7441937451975909,4.487882768864742,12.275248957297862,-0.12788561327070302,0.2334596350565782,0.3466290785937688,-0.02937444541885178,-0.015665155945728208,0.22156745470820727,2011-09-26 14:38:31.018951148,7.026845668
48.94596558643642,8.404199665784645,145.82370165033484,-0.014293153734160614,-0.16805561581274842,0.7850500781860198,-6.688419625222766,13.381701509216551,9.595597944777731,-0.8695790132933563,-11.420278487023616,5.562914472284995,-6.209488364706788,15.236036512457066,4.011969188918306,-3.670701804493157,7.984067392633677,0.5783437952840199,0.024331091760373496,-0.3438925382618556,-0.008755324910581406,0.023063909301479564,-0.47277968714020807,2011-09-26 14:38:31.118910611,7.126805131
48.945395599214905,8.4149650316665,41.29221448461172,-0.08548901321510685,0.2081159282826184,4.626453549785592,9.028812654453297,-1.7621427615403928,14.664697666643649,-0.0023262778826768082,0.7118318483967794,-13.636780792952797,0.1822568417256314,9.794515426883455,-1.2862951150739927,-1.3037094890825822,10.23241563846909,-0.019431733803809713,-0.046032433116696705,-0.9737959694348495,-0.03609618916473592,-0.07612391270833152,-0.246031237574741,2011-09-26 14:38:31.228948371,7.236842891
48.9483556254681,8.419696130770639,101.33779681887242,0.011688694113403642,0.1541554481076452,2.676326988817748,11.719391868670751,-24.085662772950947,6.071960316613753,0.1515933713224121,-0.48189360035847834,4.23624649153894,-2.048516626605848,10.326992194992991,24.312454810793923,-3.7984855831296938,9.737883979062712,-0.06270299437509051,-0.03596019083930233,-0.053292546627467866,0.09266590267331712,-0.553842989820799,-0.7532360825607783,2011-09-26 14:38:31.328790454,7.336684974
48.94392166920261,8.417499993004414,140.1083094198688,0.08111001614014766,0.06773214548645899,0.12931583010613912,-4.535099734146143,0.29832254053077234,12.027449201670208,-0.13426722444491507,2.9745779497926166,0.5825003644969956,-3.593843400545574,9.190013842194494,3.2465770978471857,-3.066709886519518,9.532220384301661,0.03912447511878827,-0.08213739787388091,-0.44437711429761845,0.6959048674684525,0.07699715253999254,-0.5439665787115028,2011-09-26 14:38:31.438754017,7.446648537
48.9384601662953,8.419586218373325,142.49898566086614,0.04795200396270954,0.8719216897098706,1.4545910908872113,9.780969839364676,12.950399617465953,53.575107579009,-0.0166702913049428,0.4728919297807344,2.6054459816950115,-2.9219419112500287,9.195186765486664,10.345533525011485,0.7837625205020796,12.163386145448053,-0.025661485143747196,0.05563791003069731,0.7106535248952558,0.06504519699284261,0.005423820512073494,0.07875813374722765,2011-09-26 14:38:31.538866652,7.546761172
48.939428102593496,8.413259353916063,170.83339836266467,-0.12247407684314131,-0.18312479608506285,-0.6693811472610025,-0.9915369318796508,10.363767188411451,10.255650848746326,-0.09181569792083202,-0.5335067354993126,0.06923471489425292,0.6658959417021224,6.113398530367408,0.6554504210657749,-2.6841126251987304,17.3462458732464,-0.03779146644365864,-0.13604843422572782,0.24352873938305464,0.037649975175255354,-0.16277146392362934,0.20295714027753445,2011-09-26 14:38:31.638616975,7.646511495
48.942639001199865,8.416861517776281,182.40289707138322,0.13535713326751567,0.11213529596596915,0.3605487415309666,11.696862746860608,5.3007001813178825,7.380551755545205,-0.12227373791291406,-1.5288669660869851,3.5196575199263678,1.5943165196970943,10.312868770027046,1.781504206121306,6.278303739845392,11.739911096287146,0.002208717072626783,-0.05934671894907016,-0.17487438163163926,0.07816435565194382,-0.025672760030671798,0.43561387932307877,2011-09-26 14:38:31.748588728,7.756483248
48.942056409340886,8.419803835148773,154.30200043170697,0.0856492911985782,-0.2312582548106166,1.9977996542390533,4.650968014976516,7.607924393671341,-10.607787834401696,-0.21741526303900988,-7.224299544885207,2.9490770393427255,-10.932675515843286,8.698870904715044,0.02994650327748949,-2.8153170452642597,11.92201220256391,-0.012857099240963583,-0.029351380275214747,0.12946199221595067,-0.01620346317045133,-0.010490798514251476,-2.0692335154822548,2011-09-26 14:38:31.848554866,7.856449386
48.94164893225982,8.411314325356514,146.95856538964932,0.011389930128568487,0.12337489955462114,0.14475324865308892,3.410343582710226,6.23139349343884,-6.117415314727483,0.9998079720023352,-0.23968339270111053,3.0464547125894508,1.550732791188043,1.877420196513766,0.5389951186279085,-1.7027222413596081,9.695799892687575,0.05270276348218086,-0.04968973867123669,1.177576359408469,-0.0453273169318117,-0.0811034949701756,1.0662201591559024,2011-09-26 14:38:31.948475630,7.956370150
48.94507575446646,8.438943531259765,117.0631596144965,0.017099880218047155,-0.3224421831780127,1.9091337955696197,10.051118383577071,124.50142254713072,-2.5063362029860023,0.04666214626094188,0.23403784535166278,5.177304826635106,-1.2060060221972082,10.927682913884464,0.5784219175837642,1.4265994203162558,9.349066870105732,0.03155293227598325,-0.021500840654167595,-0.2991498377619607,-0.003857442666742395,-0.5540487988192537,-2.813742691612157,2011-09-26 14:38:32.058706929,8.066601449
48.94611998290911,8.40971470460971,116.44493755680936,-0.7269086888236367,0.02915853994862868,1.044867425815547,8.212374623190872,0.9121722785638715,11.42459415730759,-0.17116836188577067,0.9282315831575425,11.074205875219075,-0.6305756024081473,8.835487289393962,2.252814634965668,-11.055226980180185,9.823800451394877,0.05829428613214392,-0.05823953585873638,0.09038769117007518,-0.511729627143043,0.028429430159388366,0.188636791727938,2011-09-26 14:38:32.158355895,8.166250415
48.94538457779044,8.416637420557773,121.17790440015497,0.36999167010600253,-0.0900834095562712,0.18285563238753189,6.206307738266972,15.697522853088763,6.908755553738576,-0.17570555456165807,6.519639429167376,3.1448189672123403,-0.7312684237823571,10.716069842179579,5.405902131351299,0.000921958373118148,9.250629320395209,-0.2973464333655699,0.3058396395632715,-0.48892025760324836,-0.08085892440136527,0.10127719982902958,0.17121779884888924,2011-09-26 14:38:32.258382827,8.266277347
48.93883168556148,8.417668590089916,29.650151728962584,-0.055521289003713455,0.04707506472983284,1.1620846626385652,5.049244858887901,9.741324578894254,19.780788293558615,0.3876165262295177,1.6490527563055777,0.3007948272207659,-5.258832915658429,8.55490655670217,0.41846597436477806,1.8841872711405938,9.74055410498353,0.2947521697467193,0.08032647287450226,-1.1884034338776508,0.07201774955257623,-0.0901123809118349,0.18126049235222477,2011-09-26 14:38:32.368317739,8.376212259
48.938587924363496,8.416803628388122,204.58691821539446,-0.15274091766492337,0.04801542395404602,2.12881225251063,3.7660199688083695,-10.495570732003959,12.874599426190123,-0.017618286586936458,2.324544451247116,5.416589308261537,-0.390033013865282,9.56414952657248,6.417823243185318,4.901150942227458,8.08672540505591,0.09201176930987368,-0.10449592385866004,-0.14661141365384361,-0.03655720832059469,-0.06783126037105636,-0.6192875294706588,2011-09-26 14:38:32.468279711,8.476174231
48.94040923944768,8.417388851290353,140.23481516416797,-0.05183491249392686,-0.21500441875509876,-0.1379380597814479,16.322557644467878,-0.028184711599359424,3.0328261756617767,-0.20139018521502172,-1.9526271556140489,5.9736150348059995,2.787003429022064,9.367761137450314,7.587588465631832,0.9651358893336304,1.91666406153118,0.18686398897315518,0.06783300086983725,0.09571784608370916,0.016043528081447572,-0.04462136326772529,-0.029564345242462077,2011-09-26 14:38:32.568336576,8.576231096
48.94504731540733,8.40827326369956,116.72268654754095,-0.08051213748559906,-0.3298803462764219,-1.7978545460692292,8.269542170806021,-67.20864787396772,2.807387222848953,-0.9356411271224042,-0.5841478902456865,4.762068979917961,-0.7481517600150034,10.108799449464712,0.5268002729748006,0.2758364574880981,9.63760547525896,0.06166242498406185,-0.0037066651699560133,0.20091692554050036,-0.05372875128832963,-0.039983027991714645,0.3039554081762347,2011-09-26 14:38:32.678176411,8.686070931
48.943398103458776,8.418497058046132,186.77021684327178,0.02184575418612592,0.06774693443148538,1.4753350403633343,0.3287225418569726,0.3054383906944782,-1.1161980957036093,0.05369274530570124,-3.6581393802525026,-6.841888535731533,-1.121981958963457,1.0679922013921708,1.6521697111960187,-0.7907762230688837,9.83721454076971,-0.04406498444668885,0.027257005141811286,-0.23901643785233154,0.07303063238696197,0.028024849408035797,-0.23623913507803207,2011-09-26 14:38:32.778165415,8.786059935
48.94442495787784,8.416473830322666,137.97931945333593,-0.263362687744114,-0.04676419830734291,-0.30161872962294267,10.241424613262385,8.351232178649974,6.482146520531596,-0.8743165128938454,-0.6997308546896805,0.16392354555082556,8.38875330019164,9.274657496810553,1.4240519338811344,0.8114278436558966,10.564267417379963,-0.40493793626966174,0.05038207594745227,-0.3247270092930432,-0.2631461618267013,0.13965423091767243,-0.1535919816128756,2011-09-26 14:38:32.888073932,8.895968452
48.940756042112824,8.421069174659824,67.10522635876211,-0.04720996721963923,-0.12128641634485574,-0.15598388021148002,12.790730101720795,10.754028893088993,11.334177240787,0.04607129242090666,-5.299426169605689,-0.397490919665186,-0.6956515019464636,10.120887896749245,0.5055665198472846,-5.56758063049543,8.611936124964767,0.022364975626142623,-0.006757291628743604,-0.19280718355000953,-0.054169120054713055,0.17372645538975567,4.027816535293321,2011-09-26 14:38:32.988025239,8.995919759
48.94661879343517,8.410766035414333,174.87326954676928,0.10363814312972666,-0.25599993933214055,2.4482678667454647,6.829898844865411,-5.01778060441762,-3.1135598063895618,0.44580927668750875,-0.7666235936762905,6.504006764619863,-0.10412234671666437,9.066740286275113,3.3049667019692537,-2.3322402816916905,14.137695851472126,-0.03211952580960534,0.05016906373564409,0.21573215981286786,0.20374660022684252,0.07507375868511934,-0.3445421323389348,2011-09-26 14:38:33.088041705,9.095936225
48.940491366889155,8.416878912592487,100.59106014481173,0.023211363940379922,-0.00740901760860781,1.8172137692997898,10.531969223159127,-24.299524572831412,5.288455790727059,-1.0439751894301923,3.163482590731,-0.94400875726585,-2.5789640028729606,9.75556498398565,0.7803806356964922,0.1497688823328841,9.820755277279353,-0.03226239805857052,0.08515068861917166,-1.8765079181189321,0.079977653532476,0.3318246330107818,-0.23571523081142656,2011-09-26 14:38:33.197878270,9.205772790
48.941866837443555,8.41321487786071,184.12297054327337,0.028122070672475307,-0.2628201869597472,0.3197013433347782,-2.429261848088874,31.895055376631532,4.118152201420409,0.1032021843229707,-1.877999513394304,-25.84867238980668,1.6056179539818456,9.336472710167463,-2.5438056941644422,-0.05722502438562277,9.322857117429098,0.014921620343922238,0.008708264902703463,-0.0781397115149571,0.061533595757939,0.021741969619977444,1.9760306009943218,2011-09-26 14:38:33.297853356,9.305747876
48.94362720440197,8.424417677043575,117.23147384773776,0.10282349775692311,-0.0030295407032605443,-2.2663533790785833,-8.030515126871773,-6.6696133758873115,13.52177696367012,-0.09263029308546541,0.027771692450297585,0.8789633681470957,0.127389498163607,10.378152453428797,0.6390707811283829,-12.270048439179192,10.446876544167765,-0.11866821573465917,0.11169581086536046,2.2989974487271665,0.37676220433908936,-0.17843499006035848,-0.4361413791594635,2011-09-26 14:38:33.397890691,9.405785211
48.94303962777597,8.419011017517336,321.9015306915203,0.029300310339444493,-2.405547291632811,-1.028953157685344,6.286139474596589,-95.89449719122062,7.7819774250758975,-0.17268945016946785,1.391758621810822,-2.5662950950153474,2.0425760297398434,17.567406982617804,-0.3275345142871039,0.4734023360553676,9.423224345467538,-0.07409060237177989,0.08244559435549323,0.16036496579615048,-0.06515778178318678,0.02516913986805364,0.48622176395936456,2011-09-26 14:38:33.507812576,9.515707096
48.94324656821142,8.41683487886765,141.26245106133953,0.01563635245920186,-0.630937657722502,0.8019128951338991,7.859698319443781,18.284927361818543,-2.828974932826913,-0.14640800006759946,-0.08736759017535256,-3.0111756465221906,2.28457045462246,0.6363174608074953,-7.119134779459073,-1.562246753502795,15.847915016142288,0.046720454584976374,-0.1478639847858827,0.144911206100976,-0.11470345413287464,0.040020707023326836,0.15678024736610782,2011-09-26 14:38:33.607793339,9.615687859
48.94740246888702,8.411230076370755,132.88285997944683,-0.07876348984171248,-0.12818301137882596,-6.009162631861806,3.714034916047033,-4.047951149208414,3.1646126638162544,0.11564173040936657,-2.047060009730259,-2.995793604634019,1.464534129580686,8.926151007817932,0.6200009418554816,-1.776584342749056,8.39086026493351,-0.026441688646571586,0.08100908153418848,1.0414532193400405,-0.06715800577313948,0.24328557339522044,0.04728593585965071,2011-09-26 14:38:33.707691277,9.715585797
48.93908704831362,8.416256920384917,154.95749830740698,0.056178135257973744,0.1275952497065105,9.831625957324835,86.65326747600928,-16.04762640208523,8.544477019991145,-1.8039471035856232,-0.08595397619232209,-0.3293377885010866,0.8103589655576375,9.832579033762556,-0.7623992808487909,-1.0841268329781368,11.10986139852367,-0.01165426126843801,0.006618721075250229,0.011459787342492166,0.06841960789308585,0.07464722258109154,0.7239328146720083,2011-09-26 14:38:33.817659248,9.825553768
48.945063840849265,8.410783479755267,157.45086455741492,0.06872146602405738,0.1666232220720764,2.2574881599062135,4.881197201963359,7.690470951890168,9.10457264302355,-0.15341680631512705,-0.06001881021423135,-2.726795470309204,-0.09668377423654065,8.674772511064338,4.3420578601014155,-1.812004553706604,8.081095072917632,0.005813712806008696,-0.010830972904485456,-2.6869989974615667,-0.18304533838617848,-0.0209538213357364,-0.09200468880912022,2011-09-26 14:38:33.917595196,9.925489716
48.94902651524374,8.42250690398622,169.56857909939876,-0.2084504147610389,0.1104094854075115,0.7882399470891104,22.028435346350225,4.1853727948723405,12.807930275865795,-0.18964092773546595,-5.8580797973621035,-8.786619597636978,4.623206893180822,9.288930998378385,2.269417417274321,1.9217919458411086,9.392020512347536,-0.012191572150535701,-0.06891099052963767,-0.1938897598606828,0.05882458982630725,-0.25676737127393806,-0.6373847411523443,2011-09-26 14:38:34.017577183,10.025471703
48.92460304858379,8.42899994242397,270.19480061407,-0.004634031130930732,0.24007290762893388,1.4479061451695587,1.8719026847000926,-18.29394706640673,5.668726365421374,-0.25285624508552085,-1.4925160725972781,3.2218854689348886,-2.111545301149351,9.877103492356243,-0.09583114815558044,-0.8859411691049968,10.059493298588063,-0.12605350498315987,-0.058460697544182254,0.5003601198921399,-0.033956937175867376,0.06637382729703249,0.22846929313907813,2011-09-26 14:38:34.127676609,10.135571129
48.944474347147946,8.413461244644754,354.2895022696745,-0.021971998608249124,0.05606067353855501,1.3861297798119288,28.142929924868945,6.360582133914905,9.974227065686721,-0.29490790266682276,1.378049549718979,2.708530430564789,1.0492469257677504,11.877185161786628,-0.3913837958767277,2.285904400122738,10.360225924459971,0.10696899321878398,-0.07877469758632223,-0.6881532810411478,0.034235345206081916,-0.10171295377984846,-4.090946384340911,2011-09-26 14:38:34.227495394,10.235389914
48.94752589440515,8.411290593578338,200.53728478288926,0.023365705668134545,0.13056564449681812,-0.037523991396311684,42.69360075117938,-15.465062239884316,21.444940435813784,-1.1669785052044084,-0.462363044309839,-0.11872447055353531,1.1610622029925783,8.004013928485831,-4.746980574896672,-2.6977722076246358,8.33115232770047,-0.14135628550200333,0.05932529606924691,-2.4412219342829977,-0.009614673290101333,0.02680097180212264,0.06438870845615664,2011-09-26 14:38:34.327492473,10.335386993
48.94155828058931,8.410370004422207,129.321747901128,0.057919527895108756,-0.10837902787514268,1.031774018647466,5.43140968054005,6.196405733286735,4.8674641507126815,-0.07970773932008576,11.041961754574515,0.5424270823303439,0.24416753177396106,9.845188062765859,-13.347431487285448,0.7684982542169967,14.371082445841749,-0.06463846154860389,0.5329341560414225,-0.81941527928714,0.33477685677901947,-0.029494264395079323,-0.050802046061813655,2011-09-26 14:38:34.437375250,10.445269770
48.942734689177016,8.416982702565278,108.05121583962656,0.16470533610567067,0.09581538622843704,0.8368307883146366,-3.1857180478421947,-7.910567386651978,10.476735735131008,-0.15670580133452733,-2.333286906963866,1.7043689894318645,-1.007586456231355,9.499149441263887,5.330220200144049,0.6032499421393045,9.193622545952323,-0.010995675080398455,0.09103574713319829,0.168270771634527,0.01008487820459002,-0.01526229678343663,-0.1538840269387625,2011-09-26 14:38:34.537499707,10.545394227
48.92548967960361,8.416898670654977,203.0629481755129,-0.2865081539397186,0.133344912750039,0.5563139794448801,1.499970281064133,-9.928995678500451,13.97768903809746,-0.23886701722023812,6.9230838377590125,0.9314778558989345,-0.17927916288225643,9.599073269829937,0.23242906741590524,5.378157113785559,9.23316773562228,0.02222485989635265,0.5714435829827303,0.21283382131627537,-0.0252714754485779,0.04791882406476601,-0.5539024132142981,2011-09-26 14:38:34.637300665,10.645195185
48.94065221800872,8.420195414113676,164.8864852217012,0.014847860007457976,0.37567568729998235,-1.4550089690178205,10.115081453203949,-3.7087444153333147,7.870691411487728,0.8868588007513027,-12.375409710487437,-0.3381804927274106,-0.9081302857978517,8.976972049057578,-0.7154461607077746,1.3712535168413436,11.028737820321567,-0.11224127778012263,0.029391318368265314,-0.033583840260238064,-0.076477115008471,0.044248291458045375,-0.05492181903964078,2011-09-26 14:38:34.747230672,10.755125192
48.93955154617448,8.418092932680304,175.20710012016642,-0.024352902220785885,-0.040022586523217635,0.9892740619212544,8.476939671981189,0.3392709678409833,22.192394669111742,0.05449394803345603,-0.19915236274650186,-0.05046507514496429,-3.9745943518509463,8.668340233734336,1.1521926470777855,4.805009877312548,10.462984271528663,0.06639295555715757,-0.06670009404285518,-0.04157654177594568,0.19101991343897604,-0.048237801868845166,0.5074072816077292,2011-09-26 14:38:34.847158090,10.855052610
48.942642365279255,8.414145735006372,190.16743568517882,-0.13657043766357396,0.17402340997937377,0.9779509022106855,0.3895318790034832,14.38475660764609,10.866891929286998,0.6984775379272878,-0.4645455448155992,-3.2071987082992646,0.8055621703634654,9.87109785097806,1.721754689655455,-0.25868313384250197,6.460986428024379,0.029448791499630797,0.02430543240718458,-0.4220170158056066,0.03881917552363367,-0.047972112595592836,-0.6378372787191924,2011-09-26 14:38:34.957158506,10.965053026
48.94545404057405,8.40636031608339,164.09831442307328,-0.016644611217340413,-0.07074505838747382,-0.19716329389243048,3.74209791620498,12.98331088270238,9.719596476536974,0.04686561188289044,-0.9856773815727652,-1.3310323161706126,-0.49620678027471077,10.628673873328381,1.2933336693494581,-0.38395272013842463,16.408249839058435,0.3642926423727874,-0.06214756565620951,-0.18972284263865297,0.04599206854780123,0.0870092494597783,-0.031745982198550654,2011-09-26 14:38:35.057299325,11.065193845
48.94569703247718,8.41719691832393,161.1311504288468,0.06834415003130453,0.09483152522001946,-1.162121167243574,8.986524646299467,-7.417781980543444,11.386422380580886,0.01993636877246263,1.974940722505411,2.2461330229959606,-0.38777418676894626,10.74090849404262,-0.6742734613215685,-11.741943156191118,11.12047697747757,0.06691182173366547,-0.11752090441915254,-0.3239979292084311,0.08727401962440971,0.20524353434148576,-0.8854702478193791,2011-09-26 14:38:35.157084372,11.164978892
48.945080039894755,8.422247930790826,106.83084508544496,-0.17021122054351523,-0.23253865136340637,0.05952898748747726,6.41015773172552,15.753932840498656,10.848129663144078,-0.07882950259367998,-0.2917241369441727,19.411389733638252,-2.0239730870174033,7.777016103765378,-14.50954894524261,1.7963993732163144,9.705945775011267,0.004598937213400146,-0.3959051943016543,-0.6269291531492694,0.10694240568708256,0.1049648096356589,-0.6045146436161812,2011-09-26 14:38:35.266984222,11.274878742
48.94661779453625,8.408770331355662,113.27785935818868,0.5803668636417215,-0.2745539844585827,2.8700971203481047,10.656488644705842,35.605804914356646,11.43526490102393,-0.012014337072063105,-0.87222818856935,-0.22983761791515941,-0.7116454186432376,10.298571923168781,1.0794875842559557,-0.7715072197867091,9.976017749516608,-0.06017729159996127,0.012041959897774224,-0.06411282667293758,0.01394925246835859,0.002887704122697987,0.0014190009999432845,2011-09-26 14:38:35.366948011,11.374842531
48.936812656172236,8.411213296984188,177.7921459343143,-0.060276492556327235,-0.010228843297844561,-6.796497533982136,11.591024032222613,-4.562609587666294,14.942501228520232,-0.4318870963134581,0.48650492394412453,2.231177539482124,0.3625152062905441,9.8167486519087,3.013791669906384,0.053006497277440834,8.220496097698124,-0.053497205510588654,0.023368398982727887,-0.3453692999281758,-0.08819692016862206,-0.03574088442526346,0.9277672201205224,2011-09-26 14:38:35.466896786,11.474791306
48.94681307692446,8.413547210605774,158.52806556215927,-0.12186048710600664,-2.46427992860732,-1.6794865724092314,-5.408277081186862,-7.347264648987015,10.905000587137618,0.1065432667842291,-9.087783890124749,0.5442781758055126,1.2425342551654108,9.203969406586399,3.769493246578355,2.0015475590073333,8.81322696536381,0.3160209947538098,0.01320698065275392,0.07280391956121227,0.05315824833163125,0.06335005352637307,2.055168074023477,2011-09-26 14:38:35.577063641,11.584958161
48.944032018778,8.412166035469932,117.9544661915595,-0.0010063899875325834,0.15421455655098024,-0.27767103175441255,6.590009432334467,1.1450557421526915,-58.56067931376779,-0.15182146684031944,-1.4748837732800397,-1.4917268341111811,-1.5011764405279724,11.020032143926963,-1.4088675025271629,2.060096898919094,9.610400546001497,-0.09003751108367307,0.5979498831349492,-0.43318448298121953,0.11300096941163676,-0.015045919365725269,-0.05461162301557607,2011-09-26 14:38:35.676791132,11.684685652
48.94681347998943,8.407592444724546,169.80761772924788,0.1353957068533105,-0.38103891285998176,1.0308324637032094,7.051821988804703,-2.5649197439248717,13.408387042787561,-0.37485578494643124,0.06747072426088854,1.8505596398889597,9.984947957670942,11.427377889723465,0.48781631837336975,5.862147413750315,9.77925035525943,0.026618553262514846,-0.002550765716296969,0.09446732449259868,-0.006861677676075669,-0.03289541267754506,0.49418427956662275,2011-09-26 14:38:35.776804943,11.784699463
48.94243256864376,8.412315057435881,139.731641250867,-0.04668749347485115,-0.04380294210840678,0.4474912177915353,7.891884999857567,6.675646235228122,11.020804589004221,0.10233195109085182,0.4680073075529004,-2.058814893331275,0.9195681744300613,9.856829612547815,-2.142599814765286,0.0007638665567329395,10.121797660231634,-0.10430617890271036,-0.05353595368682686,-0.10837383296059547,-0.023775754481718352,0.05355918244087282,0.5678001548777285,2011-09-26 14:38:35.886660829,11.894555349
48.91116286946471,8.420528272953224,139.2819607531509,-0.16872126972677526,-0.03461266904082047,-1.368518734748784,7.4846842194203,23.58086191456164,-13.613583106228692,0.1778176808647876,0.638801348423205,0.3831867730291751,0.9847565051512785,9.346765135355719,-2.1190574057660108,-2.045857090923005,10.183827935075131,-0.021158268943135456,0.05804411506519919,0.4251679837981012,-0.1316340863008103,-0.2239907101586468,3.710469371841603,2011-09-26 14:38:35.986619463,11.994513983
48.94555089834794,8.419835636642754,192.31396937637328,-0.038593069185408724,-0.457941699465621,1.2666264318251812,-19.9244710897991,-3.396395808604688,2.8344847427560174,-0.4657915564498847,4.572198613085769,3.4589453377856287,-0.3590268890630933,10.3400193098866,-2.7765283773781313,0.16502706132907458,2.5338504379822337,-0.01818828963922333,-0.09555398572147689,0.8469570208547965,-0.0013900310679220151,-0.009458752665043674,0.7471888212831035,2011-09-26 14:38:36.086677362,12.094571882
48.9397212999534,8.413849389333455,120.91806081950233,-0.01995230190214353,0.2996895424358187,-0.25307863121008434,9.443139759820925,6.287791614239306,23.98766968926381,-0.0557424966296245,1.6051479333607503,0.47867369105839686,-7.540625433241818,10.056308748393711,1.6547225076626968,-2.000008680509455,11.012969746534973,-0.11171432743337477,0.0544619172631413,1.2043958695267347,0.07811597577229418,-0.07885009104417065,-2.464011781545132,2011-09-26 14:38:36.196507219,12.204401739
48.94146634067368,8.41540610413311,124.89436189537774,0.03574998095984781,0.14209121702340738,0.17647347311513484,8.843607443267706,121.10901543194096,34.282842689420015,-0.39310587491938115,8.120098758722726,0.39900020374259026,2.563780424733879,10.892930316227632,-2.3444235623559995,2.796910134454466,10.843822774879362,-0.24266149916201318,0.04829109848542461,-0.16043548090769133,0.06051655973511971,0.009402021161267834,0.453357863426544,2011-09-26 14:38:36.296469181,12.304363701
48.945461589660695,8.419858190435495,137.01931968788705,0.08202806710882998,-0.05813121388827216,1.7767616911234274,0.3041744599133409,-59.86654362109738,27.998590851407926,0.03841023390335016,4.845603396811651,2.1696079070603593,0.8000686575118774,9.293493596837068,0.7395937013252994,-2.425234087448214,11.08541708654639,-0.010690657928746669,-0.012691419060401596,0.5991277999034005,-0.018176403368318033,-0.007271193878914983,0.5332988843069137,2011-09-26 14:38:36.396474684,12.404369204
48.94129231747356,8.428670017563142,176.06232381690708,-0.0017800420078423682,0.15887406090009198,4.979905729972636,2.0236210429305563,-10.130969411845218,2.7752442719095978,-0.14030710564200916,0.46774606135862956,1.7842870323881246,2.215470862850732,10.788595812358079,0.9090646419764847,-0.9901554424875245,9.537360943775935,-0.08865401243309484,-0.030414311114723234,0.5194205169916966,-0.052888011402545815,-0.06938911113408837,-0.8326508903039825,2011-09-26 14:38:36.506374887,12.514269407
