lat,lon,alt,roll,pitch,yaw,vn,ve,vf,vl,vu,ax,ay,az,af,al,au,wx,wy,wz,wf,wl,wu,timestamp,rel_time
48.94230244102341,8.409022666228404,74.5401664642117,-0.16895258401598026,0.42160938526508246,1.7854541362128027,-2.462892687918137,-18.21417475046195,-1.8762444722537257,0.31212917622774583,1.8181354267148282,-0.49075334224862865,4.3606549483721775,7.002935692792006,3.4601514088054945,-1.677937680464753,19.85287466490824,0.06726403877302502,-0.2411157541342012,-0.2461113979639319,-0.03469653131915273,-0.008800023649591036,-0.13540810133466769,2011-09-26 14:38:23.992105480,0.000000000
48.928652315772155,8.426891357452872,189.29883741338546,-0.14222100851047262,0.017405457303929242,2.9419179597161054,6.500489154604557,3.929596327354794,-0.1747249880692041,-0.12175551613279041,0.49750533480487136,8.786852373123057,-1.60835088061577,10.312069794811167,-0.7580887431195551,-7.092273586880389,10.118905027518167,0.10900192635848913,0.022616240400214,-0.03204598202697506,-0.04490946938890615,0.630663263520547,-0.555141105906496,2011-09-26 14:38:24.092132099,0.100026619
48.93999711831179,8.414908333215717,142.445906487657,0.044890594448483714,0.03709334806564141,2.3932296286609573,-7.45652997349276,11.08983700738086,6.838007031012463,0.2052105958903922,0.2910280822407996,-3.2115597683860724,-0.5000002938435861,10.43352505969814,10.61721031682842,-3.9648914203826315,9.833899992785684,0.15354189249603803,-0.03510318281987096,-0.7803350139118852,0.6305561552398398,0.16140703412550766,-0.7326880959626615,2011-09-26 14:38:24.201993174,0.209887694
48.93934839909004,8.417373309377613,148.12579430333454,-0.15639937327229236,0.3033937868589815,8.65791231968366,-3.601990942781993,5.111780221206233,7.850121393168807,-0.1821506134710012,-0.9436268779058534,-2.0088534314218744,-3.2159841036761074,11.61390678515866,-2.1707036006076956,3.1486777558885084,12.107073020470871,0.05138263896984291,0.2624520020610877,-2.371836985849285,0.011237648723166974,0.023954354535154276,-1.0342910277015238,2011-09-26 14:38:24.301963973,0.309858493
48.942254388855176,8.415209084867247,130.107652966675,-0.040549768259882886,-0.14207425744945135,2.9600047998396044,8.226459156104102,-20.23985243068878,8.701552421642182,-0.06938163954799284,2.027002039755718,1.681540817605252,-3.492990947740362,10.307418599197263,-1.4348979589444413,-2.525666590872574,7.826663530471578,-0.09876198352611362,0.012065902102294357,-1.640662641953503,-0.049439723518872644,0.0014460730947653388,1.4414778187970247,2011-09-26 14:38:24.411907592,0.419802112
48.94232470944065,8.42088772369588,143.61320746694201,0.0746769680978581,0.2470944048249935,0.8134197710301709,-2.1597287504644807,10.433473927725242,5.192043097720928,-0.42672121958292303,6.331054080735514,1.6545500240869169,3.902438926099891,11.70021765548508,3.0675406163699215,-10.352442849628305,9.384759676577167,-0.15432369007499844,-0.23245791172092684,-0.9913405049319909,-0.10829613621997491,-0.008779036592904264,-0.27565937213978337,2011-09-26 14:38:24.511869049,0.519763569
48.94244105553848,8.410196134400648,127.20636551684797,-0.04187093415576384,-0.19456994564289093,3.657528386982796,14.834632931677485,-3.26903436802453,-6.683868478362873,-0.047729050250405115,-0.4784626075804149,-0.7281366618458504,-4.815718509376099,8.486007023388732,-0.48718200308344195,-0.2592078059219156,9.553326520105218,0.05776355676077019,-0.06703024869519776,1.0031267789896812,0.02966643621194402,0.07962510574643177,0.39076458545374804,2011-09-26 14:38:24.611852864,0.619747384
48.957114942524285,8.393836371714794,145.07663993573343,-0.1882307805034766,0.040539642351143164,-0.036738598301282455,-2.3792562955855763,-6.837271323243219,1.5053962174988966,0.3852310358350346,-0.043892904712791725,-8.291189599510878,-5.923913689320939,8.57382949556284,-0.17085358984012836,0.10814779253431084,9.68144673260079,0.010721179554742413,-0.032492048456888155,-0.7544273557454837,0.0013230196389440317,-0.3267336037788343,-0.9365930410513192,2011-09-26 14:38:24.711819325,0.719713845
48.9425240083951,8.382712989569107,163.3597664702559,-0.11090363209913674,0.2379479088215592,2.5085863341630876,2.183357366367904,-90.98356013594244,3.9063865119659775,-0.29155770623851757,-1.633219336665154,-1.3235531469514517,-1.0561713356566287,8.470251306153452,2.824271723277573,-1.2555792373767063,7.971594978394407,0.09787003141890963,-0.07276526135653275,-4.609280233079678,0.08807787875359753,-0.2537689313620287,-0.4358829114174575,2011-09-26 14:38:24.821764302,0.829658822
48.944059165388836,8.398597447056869,126.72422843902282,-0.10424665700952526,0.09174089669745979,-0.13778653057034917,2.035675453520134,-2.9491750951464013,9.885649823118163,-0.2570384507031915,-0.4054951597626446,-0.8325431598072686,-1.6981473292053915,9.203286063817334,4.524399260190008,-0.42183034403895703,10.22658901160759,-0.0006095917096861983,-0.06850211891988765,-0.7843591133653172,0.11160476007934521,0.008115721536792561,-0.4945194177009917,2011-09-26 14:38:24.921722394,0.929616914
48.93446051017729,8.410854388234569,157.74501597334782,0.03452895560569892,0.4930861022187285,0.04103947418447862,-4.216739751574032,10.362401053480857,17.62061631748456,-0.22065752895455307,-0.44218226845870345,0.18001836192660398,1.0878851552507225,9.675897265281423,16.06965989623056,-1.2188574367804073,15.187184114600859,0.0369699986537065,0.05337516431587952,-1.0807112261257719,-0.10922292480693861,0.05291734337137602,-0.26680240274534023,2011-09-26 14:38:25.021732195,1.029626715
48.94138895027716,8.411712346687167,191.45100713491783,0.0022137960104414017,0.2994524170394545,1.1418897743762273,20.49217311809864,-14.695050022923901,5.923201041792078,-0.0449593425793661,1.4160891907860695,1.2081713353851615,2.075365377933734,5.679560678998505,-1.3213163824801502,-17.997554499645243,14.925089969813463,-0.11287116953201537,-0.1059575643889713,-0.4600111214602338,-0.05022479970700354,0.023862362636900183,0.4894508076666047,2011-09-26 14:38:25.131664732,1.139559252
48.94409666073886,8.410827271522983,100.00880745628386,-0.11765392212667934,-0.2592052276836451,2.7032083754708607,8.512361828699339,-6.44805819525964,-1.330020227889325,-0.5966058262063945,16.317468883927635,-3.9208253173535272,-2.604952267343981,8.84892613644367,4.09914102470448,-3.0308299052094965,10.19734595693573,0.013647425463715487,-0.08799130218406731,-0.8060845243940366,-0.3935710070385244,0.021037732093005607,-0.9607809523139927,2011-09-26 14:38:25.231592022,1.239486542
48.93917998600995,8.414142650536458,132.68200319380495,0.03636716158717253,-0.26610134357278176,2.552886226319978,2.4180743159832576,8.615937609889002,4.321232569245698,-0.21729142414983826,-1.0082273790584886,5.432424839686824,-3.4388447847044716,9.682928087333119,2.164415959876454,-0.39025877704149203,10.178502008224797,-0.04537963323495289,0.164624558440246,-0.22848596433857382,0.25837640882726093,0.5175833246770067,-0.22966522598960637,2011-09-26 14:38:25.341573173,1.349467693
48.94531251813179,8.409446171089575,128.0940162162695,-0.2235477305317618,-0.652708758209054,1.5942225365494218,3.280030162423458,-17.628247982894553,8.203577336981803,0.15054866234752903,-12.127923641032838,2.027577926072133,-2.4748823335308456,12.99306011471257,-11.635652604410968,3.9269484800015784,9.171035180168154,-0.08945802782937995,-0.08034956521801424,-0.9880720784464472,-0.05509001380360662,-0.13506837336361555,-2.4981917187882976,2011-09-26 14:38:25.441598298,1.449492818
48.94271681799832,8.443595931506355,143.4217600758297,0.09790955136961327,0.23954710512981528,-6.103326086754557,-5.971518349394968,-17.21395064554504,8.897864123325164,-0.23174454194375554,-0.7728298069914404,1.5450356936528227,-12.70845624325925,10.966715825954706,0.18377206382297478,-4.470322347299044,10.89716939246836,0.05062325966905002,0.06955987037095902,-2.178119666231453,0.06449110087534249,-0.041994844218468406,0.1602848471056072,2011-09-26 14:38:25.541583570,1.549478090
48.9453822907617,8.409317052425981,116.49890749871443,0.06105009258252808,0.039071173275065145,1.2882842465528122,5.199501093864393,3.2213290402201813,9.326840747213014,-0.216899154498716,-1.6997226232359444,2.7888029639898826,-3.5239874316483704,9.32093598327937,1.5444573282392016,-4.389753733469947,10.373935150283334,0.018510187631558695,0.01640820544086669,-1.2324958436678417,0.046329181419415985,-0.056470321735733006,-0.8894216375135322,2011-09-26 14:38:25.651451544,1.659346064
48.94330370149547,8.413071401479181,17.413840983506134,0.027257873204362203,-0.1640275194185261,2.046554410123787,-40.349032144972,-54.34702669051381,-1.2492899902048027,0.004457437587933197,1.330243276115578,0.6784138388269594,-0.1689779680509833,9.040009474711626,-3.9561370703042,0.4859988305179217,9.357413412174859,0.03018868190528539,0.05654092499238832,-0.8485047554605201,0.10963368085737116,-0.025844074169564808,-0.4889358462074864,2011-09-26 14:38:25.751314745,1.759209265
48.9228183139145,8.422738203344123,108.72168993157189,-0.12120102333671043,0.07757780248310439,1.1601882650216326,2.8214066804835074,11.957391565647288,8.935109855096812,-0.741169482617241,-0.5981818533648352,-1.8412302724523648,-7.36708162565253,9.442340803754046,0.8661326553244976,-0.2509338195147359,10.987791522080459,0.04693225988256405,-0.07029603878118557,-0.03254221223972914,-0.027281439026305067,-0.029894375197103317,0.8284276346437529,2011-09-26 14:38:25.851277688,1.859172208
48.94113021480531,8.411467307869009,140.25586938747009,0.06435894400557532,1.2555267465023237,2.5638459372576987,-6.060732990194948,-7.895281397228224,29.266559929167734,0.02949170535692669,1.1485082495810042,0.9911987263957907,0.9118269183696288,12.265224762463887,-0.4596511256275413,0.24437742890030245,9.89032138429665,0.08273564759236036,0.04255041796152699,-0.9683153295930036,0.027599867624931433,0.24051716958032504,-0.6688329606842103,2011-09-26 14:38:25.961219815,1.969114335
48.93950612157036,8.426185956961906,134.01944099378358,-0.2037146160063564,-0.2405576522064548,1.5182521906110988,-8.632634214528004,-15.741151542752414,0.07363561288952791,-0.6395981594753348,2.2086302563508,2.254159817820449,-3.4792063227762,10.853623366957217,3.387527801866872,-7.6008035695875,10.15124426742958,0.014080563780350358,0.18905699164831405,-0.6021519764553934,0.0035133245361772853,-0.002548666059611812,0.39891700405050345,2011-09-26 14:38:26.061431288,2.069325808
48.947392408794364,8.412804477666626,184.2360113492677,-0.1526882279944037,-0.17488364693782563,0.024593190909955043,-3.5052038643418975,14.92440998138715,1.2243810170292981,0.1477274486096039,2.4843875811937477,1.31896181850104,-0.27804291221220967,9.747043708106665,2.105504927850526,-2.28032328292616,11.309368204334698,0.045913559713651284,0.29673585926644475,0.33970390189689664,-0.07315503454042432,-0.10587418386251803,-0.09867794396864593,2011-09-26 14:38:26.161208623,2.169103143
48.942851023306055,8.413804859756251,8.8432812580794,-0.16820578632391264,0.1482538503162715,0.572702293689131,3.8311282966676794,13.076705091865811,2.588356681399603,-0.19228434872758146,0.3179065326481666,-1.2515779306810142,-4.8867314758595795,9.163672867813638,2.705085643388407,-3.807082607039847,11.088137175230045,-0.0333755642191767,0.05390641306185238,-0.3616307139962425,0.2468772000452496,-0.019096062197393175,-0.7700351183529566,2011-09-26 14:38:26.271092476,2.278986996
48.93996703809594,8.437957530334376,203.40458059204713,-0.17360747007227642,0.13356639925475824,0.04211228803322853,6.0805132173992655,42.98796896563421,2.6225972183755903,0.21595969519406724,0.44823231475805647,1.734546672299925,-1.2287442347933726,9.225014320420138,2.3841649620286987,-4.409405146901943,10.526929232906546,-0.022634900845788602,0.015107228026189422,-0.36109210626377036,-0.07611482375165342,0.05600577769651169,-0.3403053735608448,2011-09-26 14:38:26.371055389,2.378949909
48.98016741295658,8.410619272995348,174.31032854011156,-0.10572604028976221,-0.928736856523441,1.5246387806781772,2.0392832598421937,-9.189978995113346,7.542875875804034,0.15276508401907785,-0.0673974691887973,3.6962013085460024,-5.395840525277167,10.271376635579236,3.9586454900340793,-2.8130941595450745,9.714798602201398,0.030275117122438133,0.4562456497799234,-0.3193264135295443,-0.009379311761699375,0.06899975584084835,-0.2280621964032216,2011-09-26 14:38:26.480998144,2.488892664
48.939935236518245,8.410116368340317,312.28730852684,-0.09030963682843304,0.05065147539027993,2.048717718423514,4.74035286001952,-13.03210352606137,9.045479483979902,-0.15190772661373372,-1.8091083879499417,-2.6018959271216286,-1.4229269024298445,9.515312023974671,3.596461097741063,3.651274474683666,14.47161331060462,0.054629089896740535,0.09606648147252135,0.1536441601247756,0.012590850633488079,-0.029543865371959917,-0.46838563577286013,2011-09-26 14:38:26.581055360,2.588949880
48.943367429599675,8.404703403926865,145.43844582913377,-0.7520632419062084,0.2089574751770847,2.159686291089389,-8.06459237205097,-11.120305767229747,-2.6763249487801644,-0.8083598173137123,-0.8086777936382473,-1.6885650140646127,-3.964965861637375,2.8980076390504976,0.4530416300324043,-15.813504380240271,5.392132228417883,0.08956557933192295,-0.06340548976746847,-1.0835873199290582,0.09377528052459794,-0.06586714622464654,-0.2836238505495394,2011-09-26 14:38:26.680894463,2.688788983
48.94799254518922,8.407742304473171,155.95490177385335,-0.023435118588779395,0.15768334650747223,1.4285998960579644,2.9483610150278547,-6.058061849317769,-28.551366899204385,-0.0032383454153583346,0.9511156932795848,-0.721654689998062,-2.830639967327598,6.832388068801286,1.4688480530817603,-2.8486777919196755,10.942101439296636,0.026490141961258144,0.032327378796309855,-0.23669305313214964,-0.039197181817568226,0.07437330430468314,0.4250319954007974,2011-09-26 14:38:26.780885160,2.788779680
48.948901929976465,8.41631995970281,135.51696724434564,-0.16394337554429617,1.1620150400227833,0.6006515045917208,7.398987397149863,-2.3901793455078684,7.413168773748084,-0.19185436022898492,1.527088138703723,25.40935803638724,-2.1262708668660637,9.67337045160163,3.067970672303529,-1.2643883390405735,7.758583441030566,0.0998162969352537,0.04591040588267129,-0.2866167091802389,0.004395667223857366,-0.04740701901864646,-0.4644628308648513,2011-09-26 14:38:26.890798004,2.898692524
48.93849154763455,8.391459800185052,130.64681200390393,-0.14939833102405675,-0.13811672361402538,2.107861337964132,11.97924227201334,-1.7062070736895136,1.7662236485294733,0.025154062543141068,-4.285187228667403,2.2269211587381412,-2.02014404806446,11.315574067641576,-0.4388042112385331,-5.9052016965857534,9.231493591746531,-0.018927366467520704,0.006656650851579626,-0.36633236146291587,0.19464144739028644,-0.09222893032063327,-0.01588605493763251,2011-09-26 14:38:26.990730609,2.998625129
48.950425745649454,8.41781032601619,33.37734554450053,0.00572853909951488,0.2935023640669962,1.3508160184710878,-5.007493231638131,22.88923485359844,7.515573835086265,0.10863838554706501,0.7796722756618749,16.331911866438194,4.833320049368258,9.182354185086293,2.1608431388880236,0.1641654935935627,11.546554311491109,0.07761890685760958,-0.14689230713396173,0.15814121673617132,-0.04130469673857347,-0.07202640457808965,-0.2609273841668128,2011-09-26 14:38:27.090816597,3.098711117
48.93869956579002,8.439660268232988,153.13452757226284,0.09403868808078839,0.025349809630265722,-8.822802119857167,-0.9502741850528329,-10.4533326478013,40.811403155396995,0.017177002837240905,-0.5498480376265027,3.6726362539201753,0.2491360761750715,10.828192486986175,1.1766125676445727,1.0961749027783327,9.31124910160623,-0.08627692066296876,-0.02942674085977843,-0.5475627261613258,-0.2318423729858139,0.07042512906580502,-0.039101901656815874,2011-09-26 14:38:27.200639982,3.208534502
48.941980811182425,8.408465189718502,153.50955446810306,-0.0156730835632695,-0.12357792245966553,1.0574287705603134,9.828310119866952,-1.4840853377152516,1.627890478182895,0.15232312812486895,-0.7543029708588387,2.6948789790578545,-0.9469895361778974,3.2098973079651953,3.0629940565854152,3.5508690826365683,10.319783726855679,-0.05870224894559747,0.024093337258248387,0.23410107823924886,0.05720495418393182,0.08657565074437751,-0.4193649747151686,2011-09-26 14:38:27.300614112,3.308508632
48.94557388358989,8.410797288762401,110.97146067928796,-0.13463225084493188,0.10938233304696211,9.214660612943199,17.34078148457115,-11.676624748753195,-15.732513255064166,-0.01812729797795129,-1.5160184489468476,3.6058099614514036,-6.708647018956965,9.896715801694253,2.455425316514015,-1.134407594992491,8.70684026587314,-0.01920186751936572,0.12711915243563318,0.15815633815765426,0.004797967669996173,-0.0400687278159477,0.18473949840252868,2011-09-26 14:38:27.400577677,3.408472197
48.962710566500455,8.409846707496683,146.5863529103432,-0.06438166888120603,0.015582093220853415,0.6582727733099305,2.55245365551023,-102.75471806595921,12.768477770139905,-0.19529927425890067,0.3495433900187407,3.2702103794184323,-1.980460993839107,5.486447391026909,1.8522049476161082,2.101005663485211,10.568941929676933,0.0880521033942651,0.12470537520793876,1.07527521512317,-0.025139650967272605,0.07680784628579887,0.6209834361460459,2011-09-26 14:38:27.500582473,3.508476993
48.94024892009377,8.418898594030106,140.7207305018361,0.015963324752525865,-0.16589644710552345,11.41690074355546,20.665957192268262,3.0627843572324656,10.787176523195077,-0.2405111676899105,1.1676406140717703,1.008243065293958,-1.1144527781054059,10.465364914545631,-5.2475923040007215,-0.6743451841047189,10.118056713149953,0.3679903599828816,0.004428938818873549,0.2515161235896531,-0.20799991083789668,-0.04854261822687109,0.04738287158156851,2011-09-26 14:38:27.610549208,3.618443728
48.94644879166379,8.423115723004184,151.41967117578662,-0.11256518413215638,-0.6890989669101186,0.7580255150240537,21.523620895185516,26.54976181823384,-6.870427405705933,0.0006659746718758186,0.5863998886726257,-1.5517080688838365,0.1440822907178807,8.880760330811801,-0.21261778821943755,-1.5649624948063763,8.58208732402984,-0.07205836725385509,0.0069479689472243655,0.1440751212050641,-0.0023422982042956546,-0.02714361331139976,-0.07314736752236259,2011-09-26 14:38:27.710452240,3.718346760
48.94558457490546,8.416550959474069,118.90198332308177,-0.016642774740645086,0.0886909387332149,0.976543264668965,5.435493924132643,4.801103099054254,3.8870866839525258,-0.04905078655034481,-0.008151122645805836,0.44176844971685214,0.7675240809847425,9.18282071361709,-0.39029571043859956,0.08040270505622266,7.0079672232703265,-0.02508369674905998,-0.024431261738550918,-0.2323978978894072,-0.04398262275582332,-0.04298121908409159,0.4061888986019019,2011-09-26 14:38:27.810402095,3.818296615
48.94382455391328,8.41246180522513,209.0560847844195,-0.012313985813620865,0.019616694899119994,0.9169559170445326,9.933779527280155,0.17261808664616662,16.371651992705047,-0.03534962061411533,4.010347917601371,2.9271795989619633,-0.6401792727982824,9.132518699242596,3.316298835433063,-1.3827542632896839,-0.236562776250258,0.1344010403179225,-0.00120547584401994,0.40640504204963257,0.04448902611845158,-0.05690839042584316,-0.016457376450593506,2011-09-26 14:38:27.920349825,3.928244345
48.945497089037225,8.421163471591992,207.7836948508434,0.47052945717805617,0.2426401488949621,2.026985653350477,-6.140961901751557,-5.833970696105348,42.49760570971721,0.24374709579063392,-1.5545366905932076,1.0998891438702643,-0.04994925423137764,8.43872802295979,1.7013892719412076,-0.037558676023305565,15.053830474819904,0.054233057754638124,0.07669673425167112,-0.006687392081719451,-0.03181766706273546,0.024839306471453035,-0.4208611187803397,2011-09-26 14:38:28.020312019,4.028206539
48.94106262116751,8.41415594632215,133.95103307166235,-0.014271212933997069,-0.22715026367078078,1.7185580336349688,2.8264729514784905,20.657469612759304,7.993942780045799,0.0012449027374409026,-2.859798893519254,-0.19810938628872996,-7.669972579740312,9.906922202811595,0.5530952116825691,-3.390564053586632,8.932027694677041,-0.03207352069416786,0.5708726225026173,0.07287214297421005,0.028342718784381278,0.16151867947961848,-0.5471065693762517,2011-09-26 14:38:28.120455789,4.128350309
48.94670182714656,8.416934446738342,201.13053800929032,-0.025440821739403926,-0.001238656729783823,1.0961726990869043,-7.127809562932159,40.2004219985202,5.444029844594758,-0.05108522983331562,3.792434881422768,1.4093675480336696,0.43069016087601175,9.992838306428691,1.5612072593457769,2.473578390130606,8.775390912477889,-0.003181726657133105,-0.002486651250477914,-0.7397997627182228,-0.7145723252730045,0.04526500291659544,-0.0813370344420837,2011-09-26 14:38:28.230210987,4.238105507
48.94147355496517,8.395227100362922,135.34153859464953,-0.14542661366056298,-0.06371584646828558,4.424496590778165,-11.26884855140171,10.453249941890025,40.58951698025855,-0.017121984677602085,13.322742200733895,-4.177306170767508,3.3934604945537234,7.92059826125244,0.48102870821483557,0.39256936366392503,8.770538611327833,0.03739197171724449,-0.09550356593829011,0.5571756139666958,0.000630226838711315,-0.008167265756974492,0.1156615840818577,2011-09-26 14:38:28.330163014,4.338057534
48.94584097622093,8.41662416376044,148.1095024896181,-0.05251621441430676,-0.7245241435222317,2.380918219187648,6.050538729413485,-14.10283878654455,4.887073727887374,0.09311802853482394,2.0487598367204742,9.10617000756455,-0.9230231373076268,8.31332649237162,-1.1886143381466523,-0.983623901360047,11.107215884119157,0.046357804598420496,0.08806198439000038,0.290556807219266,1.2685254805156931,-0.05499226380836251,0.382999129002086,2011-09-26 14:38:28.440263248,4.448157768
48.92561691982712,8.415767620220283,137.28329079133067,0.20401913509089672,-0.17749001970559453,0.34126814694821805,7.685495685183822,1.0561699698764393,-2.007822188196857,0.24581377830300302,9.706590131077261,-15.6095295099279,-0.2298270345630007,9.290837068945416,1.9369260561739354,-0.06618467252040758,9.341268884490681,-0.0727395214156053,-0.36365052517536994,-0.2737426962826217,0.06822403421899224,-0.05859312874352572,-0.20326354523929932,2011-09-26 14:38:28.540228734,4.548123254
48.94697451801693,8.41175545263798,117.8296817575729,-0.05572281430339879,-0.34069321204653524,6.678914992187451,-2.113045966632586,25.982943426057563,-39.21310716188757,-1.2434915490851552,1.5513195133676767,-0.4942259298174565,0.6253154660023548,8.630922157588271,2.1965358522622744,-13.698713040795711,10.014428691008321,-0.049996633713014965,-0.049532529122007646,-2.5818024467737026,0.03827132622185176,-0.03677786471331469,-1.2818968007648677,2011-09-26 14:38:28.640175526,4.648070046
48.94279877619771,8.41278736618851,145.64829811706016,-0.3537402950700766,-0.5782970737584776,2.272767078989163,5.458855997797364,4.952199047892272,9.624407827963921,-0.2982780326976669,4.206707654028541,0.9596058292510806,1.381831343381188,10.419376291887787,0.27492349355413037,-0.7345961771922112,10.66276235398893,0.02822471009049244,0.007764732083076528,-0.18153579836430042,-0.12092952043289003,-0.015236589402830396,0.17654099481714727,2011-09-26 14:38:28.740034525,4.747929045
48.9456703893555,8.418511007892736,125.16324518563084,-0.08111611671887245,-0.2817002839256476,-2.7928847850279066,-2.7423786140579915,-1.4026704900934055,8.435944046530658,0.04626762515943973,1.7201138040556128,-3.0926165620184607,-0.425109125713944,8.486174280290747,0.5440448951738032,0.3116012346301139,9.976690996726342,0.17447501561007525,-0.022556055606426005,-3.2252333138473723,0.028219143784486964,-0.12008920162829421,1.0948866810497984,2011-09-26 14:38:28.849964709,4.857859229
48.94280574233927,8.396318293740874,175.62367928656036,-0.12950207252213228,-0.32013336368839806,0.986447490171579,1.9214546055754904,4.6069715740127055,40.712913949703164,0.10014870679477947,2.405378760456761,2.9686010840431813,2.254200083252715,8.127868603834246,0.6696502530675947,0.2044845651484481,8.960403187979106,0.10924715087572119,-0.03343009978509778,0.40642232465490513,-0.0012179079283396385,-0.0015063712453400931,2.2394937742936762,2011-09-26 14:38:28.949883148,4.957777668
48.941049887134554,8.415984805076413,128.32467015763586,-0.10518086396153202,-0.03119067466300602,3.7083534220199024,5.5953792253333985,10.652343806290046,12.514141484754504,-0.022723812549625466,1.2881039595946147,1.5600579839816424,0.575959385600328,11.793311634729966,9.248225883488205,5.719479336825697,8.034464734149006,0.0168423038552144,-0.0263132125602233,-0.11293468705499865,0.031896135894311,-0.01439186290534056,2.547502322683144,2011-09-26 14:38:29.050035180,5.057929700
48.955777580209194,8.406334211451101,130.6816452165978,-0.06317744740315102,0.04272189454558111,-10.420370450183835,1.171159785639948,1.4421794763868712,-18.039770201783007,0.14199888647459577,2.92314089775098,-2.178546457066458,0.3013623910060845,12.450255986056447,-0.9565396449479131,-0.41150745960938806,8.752902589834736,0.09541320133765437,0.2850946433211182,-4.003711149699634,0.003607506925738368,-0.045153904902428314,-0.07766030608327416,2011-09-26 14:38:29.159823027,5.167717547
48.94274006275243,8.410596740803019,162.81891084849423,-0.008606049940130991,0.004379897813979747,-0.977464099826483,18.274966687402266,27.260622399326845,15.444923064755242,-0.04115273861250798,-1.1314994402843157,2.3424508632826617,-1.8027733402062933,9.124668590282159,0.5659460310991915,1.5330097466403327,10.018209132994636,-0.024965080064811632,0.0878371905802527,0.35701254298520607,-0.04197017499041462,-0.027317519413025813,0.05627539417023541,2011-09-26 14:38:29.259745096,5.267639616
48.9450105955535,8.416410320378779,134.96122530481819,-0.8261838612506144,0.0689490875437791,-0.8216356897602558,9.061442323506235,15.22132490767718,-10.806392417345368,-0.35049375382120085,-1.730662385609688,3.9722598521381904,3.174330015515058,10.51309482064003,1.8230081634815511,-1.6416580109358583,9.667384446997723,-0.04926811105189266,0.02999546030338819,-0.16244093190936848,-0.027522552215241546,-0.023959358305280593,1.046408319872646,2011-09-26 14:38:29.369673651,5.377568171
48.936677703707254,8.416045376311368,146.00821827222248,0.006093159815766854,-0.19859025047632137,1.0989775104012536,-1.7977688930274773,-0.7645934856316514,10.097958673566193,0.013371449921393542,1.7020090392806568,2.0255385542288193,-8.150971582703384,11.674576184623927,-0.40040724166544384,-2.5919401111605342,8.25647810132191,0.03522221872755806,0.02644333048595505,-0.7894906691262263,0.03777420219559881,-0.029126827294100266,-0.19934102057573744,2011-09-26 14:38:29.469656559,5.477551079
48.94068242513395,8.417277750277348,176.409486479965,0.13525888507527684,0.04283652470941319,1.93377070306969,8.891437916298932,46.07154864790973,1.3007091527584214,0.20303124103249395,1.9898686730057673,3.7826797457769237,0.08775912155935667,4.47829770055203,-3.967557079435772,-0.8308815695347151,9.765023341778218,-0.003047412065405053,0.04145142344311896,0.5358983931029104,0.06437316631880288,-0.032439764616967154,0.00979254693528255,2011-09-26 14:38:29.569637503,5.577532023
48.94261695243479,8.41963357233545,141.01434458766477,-0.0798265434804842,0.42777239358254543,-1.6382349766153932,1.0737515193798721,-9.537240741973285,1.7422566370370438,-0.2972296897413677,0.5895272069478166,0.9422761910314545,4.031821456251578,7.748465078682576,2.5490368386265634,-4.30655741006198,11.341230807185802,0.034383980060270616,-0.05051939608111894,0.8075979901835107,-0.043691887676952756,0.021383566015222358,0.24670787001867295,2011-09-26 14:38:29.679555927,5.687450447
48.942629797569026,8.414570386784229,128.512588549623,-0.08605653444909703,-0.3046539364722988,0.01011288339261518,24.703013725383947,-10.193346016312887,13.389597317052687,0.12792929692979216,-0.9629326624321776,-2.09351161427364,1.1142755745019637,10.093132210137815,0.6424161517338007,-3.360269933600863,11.236023571475434,0.03282006817574137,0.024161847694340172,0.7803920095642671,0.1326734797035606,-0.5962275190434407,3.133823828057252,2011-09-26 14:38:29.779551704,5.787446224
48.95388699508968,8.414112731979245,431.6580223921516,-0.07833037674564275,-1.1723567960592811,-1.8001639980433846,9.401529428144745,-3.198534238110676,-1.6975021929571223,-0.14462538773964814,0.37677822751115975,-0.6744870857695381,1.2485781483034408,13.844297635822976,-1.048192932728766,1.0468931911674313,10.40358015448556,0.002720282565803646,-0.08859916679742762,5.256295365935529,-0.0688660460845674,0.21889890620597235,-0.44138943136575,2011-09-26 14:38:29.879473317,5.887367837
48.94269771472178,8.413208168574203,122.04723360164458,0.12888553195871735,0.19621845280704414,2.076475955241354,7.656181979666062,-61.20649270942633,4.123731113597726,-0.17432760042389223,0.8422380413471258,-1.755445880406053,-2.408177578807456,10.050833103481876,-0.2186830969804155,-2.161714046229452,14.135584234745535,-0.04860887819270715,-0.05744477029820189,-4.2345148608360645,-0.03936583435812745,0.019300000085227254,0.09313846767614288,2011-09-26 14:38:29.989375775,5.997270295
48.940074015380596,8.419049123516622,200.93845009863136,0.15955386586705328,0.054388560919988824,0.8054351604191796,6.095513765507034,7.867102269085479,1.9550743358060432,-0.8173957589318754,2.7180085026588587,-3.744928554654069,-0.8850119321982939,10.490233056027577,-19.626692110724278,-0.9697720489513815,9.657862791417273,0.004456173961627914,0.295676506508213,-0.13917992079720953,0.010957550644262532,-0.008469532388665801,-0.010870305755683141,2011-09-26 14:38:30.089573132,6.097467652
48.940463572708005,8.382296849050716,188.9468223405441,0.031175037211226605,-0.7826317316980589,3.2096869334216445,13.187760933839423,-6.723345969106368,7.078779390476999,-0.24350803324277664,-0.3165802278006812,-2.114357023264627,1.8147119125111257,14.919189178148528,-13.51414094281009,-1.7213268123705094,10.23332440822155,-0.006436037982035837,-0.06462626484662107,0.2776975991518372,0.09251331863368856,-0.07678014297696914,0.095301104290134,2011-09-26 14:38:30.199274800,6.207169320
48.94669455057014,8.416820984618814,152.11192268995978,0.04280741874677805,0.09371339450167913,-1.7885325710260793,-1.2349347398181898,2.7541034220220473,12.7042318274268,0.19448010501823623,0.6287772788662297,11.67816107651707,3.1705761360349203,10.295310971850363,-2.9472001461838513,-1.126615632607356,11.432201674943656,0.07345873738341331,-0.014691449164407072,-1.6450093034988915,0.039614062009910196,0.29894512417001,-0.08612735561136606,2011-09-26 14:38:30.299246421,6.307140941
48.945141331547454,8.418054299804643,110.25870208486845,-0.07028703233698945,0.8662967283142949,3.6333722375239663,9.585742221865603,6.851677774069691,13.536978803919625,-0.032919384772604546,-0.6921748600214342,5.165813050503087,-0.5334807605460877,10.396961404270634,1.3023075318327806,2.5362149505280063,9.380164943063644,0.17312741814514454,0.0008147436293951668,-0.08277142508854145,-0.0077971325219908585,-0.04294665977128563,-0.6340568872452271,2011-09-26 14:38:30.399221167,6.407115687
48.94367318964713,8.421952817187542,196.66017621579783,-0.023900334579071106,0.14577837366370375,0.02717033597130325,-17.63397227952282,23.56766548600725,7.6208805415045475,0.10678738376111095,-0.03432015979886841,2.3770368100256154,1.9331643201051716,9.455349011697418,11.846242782577741,-2.286496423771494,14.4395745936342,0.044039111592034635,-0.04556978899804987,-0.11503303610362424,0.08149390143290325,0.06899410054044378,0.6479845098026714,2011-09-26 14:38:30.499179384,6.507073904
48.939370030335986,8.414607054132805,133.1333974992602,0.060315053263670634,-0.08325657940940034,3.170699081074396,4.9256103862809155,-1.2944131542121045,11.030914110135335,0.1284759994731776,-7.24804477890191,-0.7908547187957125,-0.9782933701654135,9.365584908134707,-2.392294101219577,-0.5160344508498019,16.688328628893395,0.0060977163170618486,-9.419609343913442e-05,0.03499966296031458,-0.12789472906827037,0.07626325727722758,-2.590569693572303,2011-09-26 14:38:30.609138237,6.617032757
48.93725508584005,8.41150213294092,145.66439145720213,-0.027277282458736625,-0.2191440469079226,-0.9599516857650765,1.290869839371752,-38.68296281732223,26.90462326695659,0.39228705426613986,-0.3940836368588444,2.2024800065631482,0.8368582469959436,8.341146754112007,-1.4651646884299825,-9.676250207615661,4.588502784865767,-0.0875521220314982,-0.03867135923623047,-0.05579662220040385,-0.014537003967302915,-0.12796222728562368,-0.6146527086206681,2011-09-26 14:38:30.709090732,6.716985252
48.94267850748283,8.422114218577171,145.20685838241423,-0.005576432272862335,-0.2235258346863318,1.5208046600686171,10.146176431478969,2.4488991938299485,2.4213777823728075,-0.2737067812198664,-0.9334482231850183,-1.6032763419867457,1.2679708975069908,9.579845471394709,-1.560371795421736,-0.9429551439055828,11.482087007345058,-0.040839513677663086,-0.09379811916763355,0.39595921853073124,-0.3002431700078099,-0.0183861922468293,1.4411901762232537,2011-09-26 14:38:30.809009515,6.816904035
48.94210653108872,8.40803016101419,144.37924189502164,0.01180720025932358,-0.21143908083085006,0.6068352886289599,-4.842525311692161,4.0548699553872005,5.333660871018847,0.02452219633164245,-2.5498749129330665,0.3886995718130233,-0.013972801332222083,9.314778050658385,-0.06675864654063135,-2.977730072274407,9.751318515423995,0.014398134582126437,0.010489817693812284,-0.2188509520488241,-0.4325717495623801,0.03468063457059731,-0.8786971900726389,2011-09-26 14:38:30.918940076,6.926834596
48.94067666908915,8.417844082545823,175.95317204286755,0.04414452703192334,-0.2555273664373719,-10.316150616187176,-4.536751196226465,9.406196043327716,6.2116604243120515,-0.05391875655983738,-0.17269441110857606,3.2614742020802368,-1.4065738515710309,11.051615514401668,-3.0043434103555433,-4.307574469637922,9.248701920712904,0.025588188812515955,0.1199191172269039,0.3488407060793168,0.0342194044460208,-0.025382003079366826,-0.7542358357729851,2011-09-26 14:38:31.018951148,7.026845668
48.940804338435704,8.416848188072384,167.72189027783028,-0.06509418088660945,-0.15422702779407987,-5.37360608927679,0.6377067932818274,5.0213547704424775,8.340935189577667,-0.36808182343943174,1.259737171372764,0.9645690112879151,0.47218564037701066,15.734876129002975,3.6649985182185683,0.5777868280734391,10.48576679691289,0.03627871636997705,-0.02045850511869524,0.22303904057385934,-0.024403743906648984,0.2692388357151985,-0.001383908974594163,2011-09-26 14:38:31.118910611,7.126805131
48.9415602724108,8.416965137096243,161.2652345362403,-0.6606602769381318,-0.17499981376409002,0.988011254342054,2.705858955069214,-40.442226369875755,5.141936277519592,-0.10798698303143192,5.379261930888131,-6.248877054143206,-0.36528195152679505,10.45980233599073,-0.3213811419408168,0.6259143940960381,9.172488459268198,0.04968092123941106,0.09476509294477091,-0.16564856867549066,-0.13494954807353518,-0.11855021328157847,-0.6394093273986915,2011-09-26 14:38:31.228948371,7.236842891
48.93908590995366,8.406892446615348,154.08391305600915,0.0076358888323370105,-0.19327700285443103,0.06434243145854901,12.567013810312531,-6.280174978252914,12.243752457206394,0.05083369199801346,1.2151383701965475,0.8594689542410955,-0.9202310821522077,10.179157353507577,5.397816457525538,2.0076987532313617,9.816785119610984,0.1306190422210928,-0.057827391558084515,-0.4126765530031452,-0.00588528380236641,-0.14926350748689668,-0.24093435088491022,2011-09-26 14:38:31.328790454,7.336684974
48.9415787332918,8.433453241536306,105.5641819922232,-0.4367861236752973,0.2893030873152567,-1.544111919504679,21.845512562710894,9.870352282787069,-4.359284558092329,0.12612097295861419,-0.5070798506730273,4.368992636475079,-3.967433811076411,3.9307714665502633,2.213529648034624,0.040919932963363326,15.021855950114524,-0.1024576473510098,-0.1292549885628231,-1.6104752985645947,-0.032277365328891236,-0.0702984866974225,1.5758567480829364,2011-09-26 14:38:31.438754017,7.446648537
48.93987430222707,8.411149134383436,155.82988721200743,-0.14711504343202453,-0.06093715198356246,1.287332565578528,20.82741838352982,16.401820944637254,13.611083750385308,-0.06480013949329966,-1.7640303751512387,-0.19863700469667123,3.329640836549243,10.073067393551035,0.42435921774176255,0.993406105868174,10.309540689317991,0.1627953565556889,-0.07759566001640933,-0.14085271422516416,-0.12902644818625714,0.034777650908912,-0.04139962716520944,2011-09-26 14:38:31.538866652,7.546761172
48.9451310285055,8.41004783246895,126.45202445148126,-0.09039200569135562,-1.3220133148446833,0.6945789278946068,3.9404318808093834,2.792387050309869,10.093036729598811,-0.10073791203558796,1.59092145402255,1.0609434311734756,-0.7041601278712025,11.317834609859661,0.5163883690603546,-1.231096387373204,10.581195133956804,-0.04488809103464868,-0.009029126712466697,-0.17645934350462128,0.0352599760873485,-0.022069111702749066,-0.35277168525168884,2011-09-26 14:38:31.638616975,7.646511495
48.94206326860982,8.41375941185237,130.86953134602052,0.007393020275365364,-0.15299236633207625,1.0297157623249438,5.403697781303514,1.3994757134306584,4.78189251388352,-0.005395116565545418,0.5751020941567497,1.0234267244121227,-2.8019759709065193,11.216790168854805,1.9659473137216037,-0.07760040101472669,7.51584105195702,0.005811369818008963,0.018791734966148166,-1.2243535268240207,0.03741868603989035,0.11545119952729425,-0.07858740855488279,2011-09-26 14:38:31.748588728,7.756483248
48.94456366082712,8.415844005279105,367.5643075415891,-0.022155014757963783,0.12941659163084748,0.27820897207693807,5.824501611268321,28.838110371356148,-5.053890370532644,-0.1746335735048239,-0.8187173232647007,2.692176349308322,-3.0126439068760242,9.612310091450999,1.395469465352338,0.14834199243452567,10.914798436554765,-0.10440509261003593,-0.05711165034291954,-0.08053514474032636,-0.0766397071013317,0.0079767956378313,-0.08851901810429388,2011-09-26 14:38:31.848554866,7.856449386
48.94209251436407,8.411417562365266,172.75537461690269,-0.034817592504991106,0.01648164640609573,0.23342228207372107,8.001945260769391,-0.13805722895654782,3.323600445819368,-0.03695396668257491,-1.5678506174022864,0.7607763426957967,-0.5133898330092677,9.221543932828105,2.1479579650663396,1.6871813106576903,10.165851792889315,0.038052075166456346,0.031493896362504915,0.5555307673734825,0.05414268743591656,-0.05207202743536596,0.16100860162810302,2011-09-26 14:38:31.948475630,7.956370150
48.94678794856641,8.415156614420827,175.65784933173558,0.051712435562554865,0.055182066096052196,0.982254262474804,22.923727206993288,13.670414974817408,9.99439911734895,0.2685081289685698,5.28206132530522,2.837123921775122,0.14228300902824367,10.283867438634065,3.558747138485458,1.6589221423861515,11.416354419319614,-0.001559601667990837,-0.04054052542453116,1.0363915947343902,0.1307293425008855,-0.0696317454952875,-0.025673943771449177,2011-09-26 14:38:32.058706929,8.066601449
48.947220978447795,8.411836385381148,145.2010747721852,-0.06713576885622322,-0.22870945570955584,3.629532378050791,1.4326631101128742,2.700985537688046,5.863499331182142,-0.06805162571008616,-0.31159666767521627,1.897905986443943,-1.3194618088590344,9.959721440011666,-0.6359189985310643,12.691951165116853,10.505090566026448,-0.0009600095978771483,-0.02296099751605976,0.01222801006534065,0.017612781684605887,0.07963298836169251,0.09395121104922328,2011-09-26 14:38:32.158355895,8.166250415
48.938130996203874,8.416828464431745,158.99663358638452,-0.07279561251451964,0.8198941561244547,1.137371371393693,9.477045494519013,4.461496785258998,2.846159464004133,-0.6350784459325416,0.3523479981670471,-0.2879659048958856,0.2068364742893246,10.485199633420548,2.4626842010121917,-2.76160514633241,10.674047669536494,-0.039401968653335964,0.003932461125467648,-0.06384426442090416,0.02564128111573875,-0.0027538015186505047,-0.39659757700701165,2011-09-26 14:38:32.258382827,8.266277347
48.94672813482787,8.417509550339817,195.88539420159947,-0.01905028805441597,-0.062031263395886174,0.1688882841017847,2.6188092810062544,2.0035919599218657,-0.35020782336142453,0.0045526788211232815,0.6625715529210296,1.4807475156681948,-0.5008757360922799,9.016368364660076,2.165677303947473,-0.8131705514159273,11.029581193432357,0.10562769235352817,0.17360969759027575,-0.11467688994190699,-0.5378226506714389,-0.348339618493492,0.05268156672627987,2011-09-26 14:38:32.368317739,8.376212259
48.942108483091246,8.414592119084805,160.46275275577912,-0.12776613259940067,-0.2532156289272548,0.991213214653084,4.701738098961809,-14.686182035645068,7.14653344577745,0.0505994210535041,3.770803641511248,1.5483797562392287,-1.2655203364812926,9.26164384954489,4.053445776420505,-13.033526954263884,8.612385473754633,0.02774936072975634,-0.004548623658485275,0.2420122980947472,0.0749457060606615,0.06252229651989154,-0.38334909663186745,2011-09-26 14:38:32.468279711,8.476174231
48.93638521339545,8.402544327078049,150.09996497013293,-0.0816999175845327,-0.1821449152197643,1.766228221234147,1.6276327338104482,0.8019643863770973,-17.177482593334773,1.4933323298404655,-1.4879048100567787,3.2548579866993723,-2.678935103618702,10.419488353422343,1.3245959987260818,-1.7280176255857356,10.285817307657176,0.3109938952758205,0.03687303016367709,-0.04941562602267863,-0.011660306228394306,-0.04493029852486168,0.553122313816773,2011-09-26 14:38:32.568336576,8.576231096
48.945306234608076,8.416314705117312,140.60510253535244,-0.06913628547595661,0.07982091606916078,1.1003376084459628,12.663935227346192,4.067506169606152,7.653715966901371,-0.16361191936824854,0.17703240979664728,-1.1229348389734977,1.3067383286528376,11.108796044610816,-0.17058458785253894,0.9520676212709902,11.082495630319164,0.14215065776789104,0.0019351692715241058,-0.3200115374711649,0.14790906692913366,-0.5759929452189277,0.045447748195693215,2011-09-26 14:38:32.678176411,8.686070931
48.9434486812788,8.414177493658148,159.38150398457455,-0.09866412683147774,-0.008141711989182822,0.41808858700338214,1.0152257013361101,44.02298376375101,4.618595650303436,0.15763544201482776,-1.092793934141099,0.9206070586100381,-2.5646762691118385,10.597660130690429,13.032094886043145,-1.7896377150184728,9.803568335480211,0.03590031377778911,-0.008375851147848171,-0.5939883554800126,0.5369863828984305,-0.07076773204831932,0.1497014768797295,2011-09-26 14:38:32.778165415,8.786059935
48.94144584370486,8.41820933659606,123.09952528712259,0.06689659071215864,0.009054279995591295,0.9774526557033227,55.061219899131814,-2.8883469361225487,1.4331491306729616,0.06826845805672438,1.805427976386009,17.976296651767683,0.18328238749407882,9.281364075098034,2.0741388303476764,2.190878074129487,9.27934285917155,0.027271467490878748,0.008047863943006188,-0.21013593280117296,0.11418440801770853,0.03940518513098226,0.36680365609696036,2011-09-26 14:38:32.888073932,8.895968452
48.94541112317531,8.415999136280192,107.44236062235376,0.039164988079006674,0.10369843689059574,-1.232020689298699,0.9961809823723478,-32.82886426548447,13.685043338852438,-0.20627683724737772,-0.4788634278643238,1.8064223865669304,-0.6753078955930086,10.963044600628852,5.059672060578572,0.9787273847495066,11.722054695529609,-0.0029493061712084047,-0.08775970357876497,0.468331388187151,0.06304432534658243,0.08579282285803207,-0.3002896569545687,2011-09-26 14:38:32.988025239,8.995919759
48.94537283205858,8.41223303633527,165.23127592925778,-0.16081301086121136,-0.006187340935586122,-6.210782856845047,37.545138499745086,3.4821400479460918,12.266028349713755,0.12636808472665326,0.47701131303504485,-1.5464285776819735,-0.8997878389037746,10.684433597173507,-1.8364975123947407,0.7201519423319501,9.543362333966574,-0.06005442301779339,0.06207188412891572,-1.2684778202163638,0.030789681235004945,0.0348375460148154,-0.6671294958585926,2011-09-26 14:38:33.088041705,9.095936225
48.9429819403957,8.417425154839497,117.14335705968054,0.07755769137486238,-0.15832134563809708,-0.33132392922280307,11.61538212959277,14.551967257564918,4.924632939314016,0.8404973779889923,-4.226055823954024,-2.859765078926987,-0.895204781014829,9.611139123252414,0.5189769426867291,7.029117184646951,10.58295256623666,0.0256611035368962,-0.034179175798437614,-0.3467221456640814,0.22638296994022605,0.031817054038976736,0.2319076149518713,2011-09-26 14:38:33.197878270,9.205772790
48.948102487871985,8.435305725859104,130.4313559301513,0.054117140550674764,0.0661361825097861,0.27752326253503423,4.411211983590146,-6.903145339545999,18.37258929386943,0.032591599233311966,-0.42598637891070534,0.5431357776066739,-18.78999781142753,9.793115708256721,-4.4995319720167295,0.5083183017279642,8.810236068778211,-0.033157986535914105,0.005761587855871175,2.0169811650804257,-0.019539460565777517,0.0555157662387538,0.17140979152660665,2011-09-26 14:38:33.297853356,9.305747876
48.92200474775126,8.420532205789177,215.0190600914235,0.14203812059446147,0.1291000999664006,0.0803584700584874,18.316054971790944,4.397829827182089,-0.8374420443496469,-0.19383568885139354,0.3377838632912873,10.979056892325376,-0.8089439813857863,8.881851903845929,-4.352883031304788,1.3554607625761692,9.145491077579148,0.5348953952073457,-0.8324968498490258,0.17658934730663445,-0.045103950575130475,0.032873838747077194,0.24399094504404295,2011-09-26 14:38:33.397890691,9.405785211
48.93941163349756,8.415115568060223,147.91166267081346,-0.0386602197684348,0.05385078121995204,0.4910009119254927,4.4156675406054475,-72.74486491330745,-15.802954725025195,0.18234210885657542,-0.7271777110097349,-0.48522951557482313,-14.093178975077768,8.17568001538195,-2.5995912030393367,-0.013469284758021893,19.584831721757418,0.07745052076703499,-0.13443476904751317,-0.03770319173502356,-0.32890086404807156,0.038979456363480436,1.4078226407190357,2011-09-26 14:38:33.507812576,9.515707096
48.94084008600183,8.414150386179095,140.78246301623145,-0.13331819456512717,-0.0307003674924684,0.9734522995968955,23.15547403636308,-4.799425884040587,16.60070315051496,0.006397332319337479,0.5324578144558414,9.512264401943504,0.3834195480838637,7.414913839507006,-0.9231559024050238,1.7574612240039427,11.788541848486625,-0.012764483711053909,0.5931516333173574,-0.27117036200679245,-0.12500112760702545,0.017841737659873704,-0.24015040918463004,2011-09-26 14:38:33.607793339,9.615687859
48.95420940450888,8.412565141070745,135.34465656646546,-0.739159175322963,0.3073965961676918,2.892182527122707,1.5117449989257343,113.86011706388571,16.699507465872177,0.33047206261426637,-0.6960809109153598,1.0265676441866607,2.850558122803921,8.722452420462643,1.2099975835220107,-0.09295304285885575,10.18623922214991,-0.2773765480025501,0.01946494952850958,-0.3855928287668035,-0.06459779422702251,0.18573144455476892,-0.07615477538584832,2011-09-26 14:38:33.707691277,9.715585797
48.94288702934439,8.414208526532265,106.04897474614347,-0.06877159034157986,-0.5697371434357676,11.979550131063741,-28.50273651919438,22.833474377027052,12.745591641621942,-0.3236425769778156,-1.398979708778259,-2.6876145272982916,-9.37291736317297,10.683772008502714,-2.886837053744192,0.5707723768173768,10.318118830218623,0.2786855432103511,-0.033790543226060704,0.04600777775632637,-0.1545260447541361,-0.08372364497883521,0.849008791354175,2011-09-26 14:38:33.817659248,9.825553768
48.94561424273652,8.410885370883395,142.43442348640227,0.2336198652739572,-0.5188675539741018,0.6353927789855206,9.773863856435986,12.307744822343206,6.540676103362996,-0.030409952649558883,7.186353250756385,2.282444263779696,4.295082000652067,6.146778625177419,1.9468886991522176,1.19632630414579,8.461197698712542,-0.03737862400992931,0.03437053688009826,-0.18176998073812126,-0.13954291503108546,0.13139714854430906,-0.535304351193591,2011-09-26 14:38:33.917595196,9.925489716
48.94216210089376,8.41098245315719,161.24138506060595,-0.2951255596113008,-0.04995671392579124,8.431873761004562,7.428915282668525,-2.4827475099367673,15.679695602605307,-0.06041276790782372,3.0116991271730233,-1.3949750206486888,-2.2890543242849453,10.86520219053079,0.30282137150332594,-9.177440367946215,14.510192433468598,0.05468737797373288,-0.1345980580320208,0.7899338850437191,0.12086235398429773,-0.04785750007917268,0.40299907242384847,2011-09-26 14:38:34.017577183,10.025471703
48.94098399241293,8.416273275050523,208.48519024226215,-0.5392690219012148,0.17683706931745627,0.9684081906024661,5.868975372084284,8.662616165689714,13.592491162530898,0.06866036971141268,1.5432816046066062,-2.5539109535982694,-0.2946028316075891,9.04199619488166,-0.3191273009175747,-4.501443868745467,10.040897307737646,-0.016090028015010385,-0.3879823075505211,0.3721146028206104,-0.07939273656905675,0.022243361729499384,0.8600278829400253,2011-09-26 14:38:34.127676609,10.135571129
48.95159582708222,8.414112865902089,109.7744622470326,-0.20882545312276202,-0.10609077601207173,2.5200363081029122,31.777785152363517,-7.671665912406038,6.128336303339729,-0.14748133976155903,0.5669082833621469,-1.9207726992407266,0.658834610482071,9.208374347730736,2.3052977979257747,1.8194909224033715,11.045330463940541,-0.00017771205220624975,-0.05258869282996899,2.7085275110750047,-0.07098431128937782,-0.05773878364282391,-0.22055780267614045,2011-09-26 14:38:34.227495394,10.235389914
48.945917999415734,8.411328087444085,105.7473134642812,-0.08401780746010222,-0.16227133627961343,0.2562626820175695,27.66396900621359,-15.211867898821781,18.443417006774677,-0.004604561065827767,-0.7355382922054715,-3.405741212857354,-1.909593997502466,8.894421106838069,-2.252110122355293,-2.6249901445393484,13.198404531627531,0.03204240476547604,0.02228149821292757,2.5617752714132243,-0.06856737000149839,0.7827776427175496,0.4173059508526243,2011-09-26 14:38:34.327492473,10.335386993
48.94337861738449,8.414584818669336,119.48359340126811,-0.15010418662863634,0.06913281163784499,4.816428464801679,15.470670040895772,-11.735186346970664,12.701396678030624,-1.223279246106905,-0.8504848919491863,-5.581567018620951,1.7387177929791136,9.154709402529786,-0.4647799009839587,0.035947753136351505,14.700433071546096,0.07297197114521967,0.033511854973873066,-2.244716702631774,-0.0179190091647993,-0.002316689020630352,0.06128957545115401,2011-09-26 14:38:34.437375250,10.445269770
48.93861809402468,8.410077872184305,152.9359046833452,-0.05496138082983912,0.06468414662889496,4.304538669781962,11.767111170239879,27.297434537544817,3.152076869193631,-0.06719995943739493,0.08615035363259885,-1.4573615863208975,0.14599236472619692,10.980496630247282,2.7335307964617495,-9.079080643608776,9.452468658059173,-0.09947578725073435,-0.024068578451601957,-0.5527180405462567,-0.04445456975043294,0.03849408763192261,0.018254080808093712,2011-09-26 14:38:34.537499707,10.545394227
48.932523748721025,8.41226573606903,200.76526158298367,0.25166305769462977,0.011123030566500092,3.6408242574283705,0.5242463638656085,8.789623765549727,2.4219090399115126,-0.1368348708255458,-0.02020708149711401,0.2594118273099168,-5.082533666198073,10.659981823682525,-0.2660447546262642,2.3263131313358127,9.210799025857677,-0.10624056904806081,-0.024149867146026877,-0.6164325407267144,-0.19501775924623152,0.04745176830266347,-0.41628459617274555,2011-09-26 14:38:34.637300665,10.645195185
48.948727559763675,8.411387679848048,140.9263260747157,0.017423773290234687,-0.17829170888560106,1.1643318126556146,8.965132870699586,-0.024034898294051033,8.33584974189761,-0.4460442803593478,-1.7780627684463632,-0.5978674337455029,-5.176238679831688,8.792502674571303,1.6611272520113753,-0.14903593113984834,11.181986677576093,0.2784164227475718,-0.12258148095399546,0.3182922418110845,0.11226531991635448,-0.4701225258263474,0.2565393601003055,2011-09-26 14:38:34.747230672,10.755125192
48.94138709880487,8.414816179041868,183.7412485144325,-0.10843299989264864,-0.04295854141827293,0.8949470830271916,17.300581323672674,11.97383304791445,-17.744602780531366,0.05933156377232307,1.220145044159223,4.088223366888414,0.2891304619632842,17.668244693284585,0.6996064241121311,-1.7682788952836188,9.445848862869868,0.07301352213803838,0.4832975951229047,-0.04485724864412134,0.0895397706955491,-0.05967897408370801,0.8397762800385701,2011-09-26 14:38:34.847158090,10.855052610
48.94286596653987,8.426679881817542,177.87274773093048,-0.17124659589378335,0.12766663706619374,-0.9763897472835634,3.3997040464047443,9.70992130213696,-3.4454222971116586,-0.01285614160523628,-13.3655893614574,-4.268762309432663,-2.607819940254389,8.930815795199571,2.978714804936825,-2.506290908390813,19.89803069184961,-0.02175874049746842,0.01980740103298527,-0.3930493769102783,0.7722169966398127,-0.08328343183208818,-0.5916986631105672,2011-09-26 14:38:34.957158506,10.965053026
48.94318761134098,8.414476577182851,139.1396425765245,-0.03728691340622706,-0.0678274705242963,-1.3765017596861515,3.127852807275735,-6.953491443105666,7.058065389247419,0.7560802184504855,0.482161808500851,0.6232822027561696,-2.5432218018292274,10.449582969340335,0.2602507568346309,-2.193756860249996,10.308115953971699,-0.011311285782639388,0.18819227148612883,-0.936742069619633,0.08315248990812257,0.0603644828701988,-0.5911553673336206,2011-09-26 14:38:35.057299325,11.065193845
48.94241328919625,8.40239310664316,179.0325954526687,-0.011553324169102253,-0.13631633754144293,3.1015771643740644,11.801006877662843,11.598929121883385,10.809553014922875,-0.05605392849610438,-13.00097169025511,0.18118061367322402,-3.2045651349408297,11.536580216664115,0.5244719595225078,-0.05852625478660389,9.468896747056224,0.018968059266714535,0.07365094614511351,-0.32829079913007336,0.21021647351545836,0.03977291589135812,-0.260135361244019,2011-09-26 14:38:35.157084372,11.164978892
48.93923552453451,8.419723580394637,185.03988152722346,-0.7395034513867517,-2.1376631186731423,0.8490125320798795,1.8762016026728068,-14.790970319454171,11.124750707248936,-0.17223998255132977,0.2620322777327377,0.5129490359752682,-1.7288665239194878,10.631522428903676,2.1433449267112183,-0.326514073903794,10.010583321982645,0.47665026811697436,0.031295417572038145,0.4104424402988776,0.16755860556498445,0.021908883621540365,0.007828829335120746,2011-09-26 14:38:35.266984222,11.274878742
48.943454338362024,8.4121598664122,141.84115857539646,0.1369766956368249,-1.2497924375364697,1.96080014970909,11.1495176373438,2.2945346435869443,2.0649160135026348,-0.26777443805899337,-0.21877008622517213,2.1954283030594843,-5.072102111542821,9.419786990343825,0.9235299002983329,-2.5487064659387673,12.980792616249047,0.016439324280054804,-0.25295462252818296,0.4942046415690176,-0.08534567667940163,-0.08580009682601024,0.2633080604464673,2011-09-26 14:38:35.366948011,11.374842531
48.9457587449232,8.409003330467417,165.6430669206172,-0.06441474857575684,0.29181573279552736,0.6754237654538848,14.640763544125523,4.1304221826085055,3.3750239237783273,-0.1774423934212118,-1.1135454379537197,-3.9783828026398913,-0.27707581815170956,10.298284914470878,-10.439487124117214,2.111435818168785,10.137489884446376,0.13843240767171427,0.031636717137808044,-0.30971750149512545,-0.044213107891222236,0.11307611100705663,0.1918388012634349,2011-09-26 14:38:35.466896786,11.474791306
48.924369605449556,8.409549966101654,135.24166666925765,-0.11780053391706986,0.32872431766467236,7.537653358907547,7.505893149408316,-15.379436662573205,16.314804774595938,-0.166877317269349,-5.187212094473349,-0.0013229090386785158,-3.0446281828819037,13.116240473737152,1.7103971262890283,-5.1216458832906975,11.180582399784885,0.08932557395077335,0.012955438912450577,-0.08486986108181388,0.029672172529370044,-0.3656177138165496,-0.06029268212660158,2011-09-26 14:38:35.577063641,11.584958161
48.94063291587155,8.421554151370165,311.3765279825394,0.07212186000888833,0.04092384029330179,2.3427676470671206,5.051574609270555,2.7874894548515927,6.451491010554516,-0.17753260333611462,-0.12864089104880497,-0.02290335824523356,-1.614688755891441,10.379340187309435,2.6045375997035713,1.3185918140094117,8.782221567874998,-0.039147221187746266,-0.047447704068547016,-0.017361460209106692,-0.00654182180944359,0.03667097312853281,0.5997624234971435,2011-09-26 14:38:35.676791132,11.684685652
48.94463332467069,8.411397120439565,121.0462748343801,0.03627107068155906,0.11843005224018513,1.8978109013874254,4.080150352598793,-13.993412748467424,11.840054047340525,0.1157477302998708,-2.4145679460264726,0.44034409543872616,1.9294340190387567,9.45584372816657,1.1564642188786922,12.791697876527987,10.558010782754957,-0.2800890833632518,0.5813746228900712,-0.319119402764999,-0.08524616262193813,-0.2954419025329593,0.4059112021848808,2011-09-26 14:38:35.776804943,11.784699463
48.94336725357379,8.41741715319286,76.62892967561451,-0.25107170842980586,-0.1008441506990039,3.20799067382467,3.0661699408624448,-27.729194927008535,12.316179794907738,-0.17259337494839708,-1.6784198487401996,-1.8065362135266327,-1.105982031833729,11.510844089646453,-1.0597553303946103,-0.6274857051815268,3.8213125283320197,0.007280408037352197,-0.0165261071036421,-0.4915014325662762,0.03868548557886021,0.0336929221738954,-0.15755196918544478,2011-09-26 14:38:35.886660829,11.894555349
48.942713337511805,8.414408935120818,86.54839748005392,0.02301353373596623,0.05576040878172233,1.8032607290940752,7.23336129148011,-1.3452232398850574,16.3534125707765,0.10897141905015147,0.09219096079505427,0.8203502084601849,15.690405413288739,9.29383659287217,4.0203355203066256,-1.6033370413179275,8.036052820440837,-0.04619243113222699,0.4223194497142124,-0.7466816220112756,0.09226967544662479,0.05971133963653302,0.1256898559510463,2011-09-26 14:38:35.986619463,11.994513983
48.93775795101709,8.41098416869916,135.87499644443534,-0.03220643910374592,0.040819618871275096,-2.903194012865341,10.174624826282244,7.372896194000754,5.184339780611813,-0.317944002765204,-1.9717354663283633,2.163531903335761,0.5027401165843616,9.40310086652285,-1.5505494837610998,-1.8319414838130272,9.925465172639408,0.16827311762626762,0.02396748775554698,0.26637485969687785,-0.6394548279208041,-0.035560251907291944,-0.20687996416014437,2011-09-26 14:38:36.086677362,12.094571882
48.941325695549054,8.386559573944147,179.178299879919,-0.07417827150684189,-0.4093386325569652,-0.4463981039912792,3.3817986755968077,4.140776208006073,16.881478718926857,-0.9444138801442151,0.1636144229152,0.8739525176825138,2.355316435148201,10.525147605009028,-0.5220183129857721,0.29181449640341217,9.301423989401393,0.06952345022388083,-0.022037284112197613,-1.3050085628571813,0.06386955391189121,0.09908606274236605,-0.024522043483065123,2011-09-26 14:38:36.196507219,12.204401739
48.94368941194642,8.417262220236326,131.54730321099896,-0.03663961075900618,-0.10434784071414009,-1.2130566779138197,13.625469993655685,2.1654767596622224,4.958542977992188,-0.38843995049592656,10.336760080879534,4.404481673154345,-0.9900825195684915,9.611151976653536,-0.05827333391203158,1.7685440043435567,11.0843473078795,0.20795745730070606,-0.02121817706552002,0.965286085634031,-0.2596496370458437,-0.028339506273989862,0.5743494610430403,2011-09-26 14:38:36.296469181,12.304363701
48.94472875964232,8.410265808901078,176.35987483316777,-0.06985062321091938,0.07249648275675927,-0.12744996919696083,-1.1062832517757215,-46.21902303922552,8.314599126303612,-0.15428592210705744,-0.528186987906245,0.6489228693199468,-15.46551881917937,9.145601584063435,1.3608068688766561,-1.3731565117677142,14.960870342716941,0.021008450077061834,-0.3359618020394162,0.29820633535700625,0.008976112690647919,0.013598602753489017,-0.18989512843225087,2011-09-26 14:38:36.396474684,12.404369204
48.94632694099995,8.41492615802984,147.46679823598186,0.07192366677963499,0.16573760558562942,0.5334912294016612,12.745792802949392,-7.907039471061721,14.787786582574547,-0.16044090563819194,0.130239361156318,-3.2129631123831315,-3.393834400709789,10.458575868189223,0.04441528045506599,1.0896186916119612,10.439038660481057,-0.022428246461497332,0.3745588189198728,-3.9948329871244717,-0.024410558354463995,-0.00596855314606887,0.17135636362813306,2011-09-26 14:38:36.506374887,12.514269407
