lat,lon,alt,roll,pitch,yaw,vn,ve,vf,vl,vu,ax,ay,az,af,al,au,wx,wy,wz,wf,wl,wu,timestamp,rel_time
49.01192145929816,8.417985968482121,115.44532637124014,0.06976908805951629,0.002659518180548062,-1.6273626118126905,-70.30231469652091,0.26814016753509784,13.30365237239176,-0.0775042939307511,0.046883043611394934,0.2759513205015262,0.7714862521043018,9.750121264026582,-1.3623986393400223,0.3448501423370008,9.793250793897382,-0.041276809737612975,-0.012724261814552197,0.0022439343384677134,0.010491631012581154,0.0018648847522934981,0.02391171953633819,2011-09-28 12:26:56.233527746,0.000000000
49.012051481360295,8.418015579517823,115.29763618122503,0.042482907868783865,0.003926032542148782,-1.6512346437135024,-23.05374313935043,2.99048658029401,24.874287386353615,-0.032889461027399675,0.13726862886711982,-0.9682763901864604,0.5319178928828359,9.394503502346646,19.182279892106617,0.1244727879067666,9.512864149065075,-0.004718977286892065,-0.02391697334517659,-0.008113284938738367,-0.00013948046901763635,0.04388771898702347,-0.03948908486859536,2011-09-28 12:26:56.333491894,0.099964148
49.01162796468248,8.418022005913931,115.42606935206021,0.05452326821963231,0.006747435115638602,-1.6629836017580921,-9.466771314867588,-1.2904721337414666,0.9303721488567778,0.0799567947371973,0.09106138303461049,-1.1246585986584057,0.3667268664181981,10.252851506984538,0.9815376138700802,0.07203609818831336,10.57556800051746,0.007981258588315405,-0.003600943250676565,-0.012252868963536109,-0.03239670802190302,-0.02026057176317126,-0.01496712445652618,2011-09-28 12:26:56.443536100,0.210008354
49.01116100132584,8.417977351398644,116.27596991454993,-0.0237151395007184,0.011581799086832538,-1.734178474075932,-7.584555677242199,-2.051128447353509,-2.325035560976568,-0.21398797994480134,0.02414146018061463,0.892946205773449,0.09277424073558463,10.444592570285645,-8.396094870068827,0.08269162253868066,9.16216241995769,-0.2155458527095092,0.018396442423960574,0.005082547578634775,-0.009474277803267914,0.0005304044530913231,-0.0012463057412327731,2011-09-28 12:26:56.543585625,0.310057879
49.011152395001666,8.41810025479724,115.40029462640065,0.03251981445254746,0.0221512880328988,-1.6452562269055042,-20.206897832090718,0.1376978309877197,9.513002750423073,-0.01397280845260529,-0.13718062727565214,-1.3165482866473261,0.3176957753943281,8.993272260909421,-1.2384331772757478,0.09086601957013121,10.281233316701275,-0.003810331087557668,-0.01150481477367064,-0.0045677286637830555,-0.030727721355456483,0.060116466470012314,9.879642778986078e-05,2011-09-28 12:26:56.653532376,0.420004630
49.01190288434271,8.418081539865877,114.9978587046462,0.05413076704859831,0.023504221831280127,-1.5869068128402197,5.99476220929394,0.1396671959126542,56.92599118564833,0.061017089219825904,0.07606146704982636,-0.8158707103022192,0.22550619605732852,9.83996599225763,-2.7891156357824753,-0.4440962158812917,8.116472192767098,-0.04704431478418853,0.11912188891124263,-0.004812737268965804,0.029315648404431842,0.12501273166588114,-0.008676226246334323,2011-09-28 12:26:56.753572489,0.520044743
49.01163942471088,8.418008181286998,115.22385266158095,0.02356710427091568,0.01787033546898428,-1.6057925629685557,-17.635160562718188,-0.6619671771802554,24.81512201687326,0.09399131680150487,-0.07797258897437748,-1.4605098285456652,-0.1546344152297921,9.599733729846074,-1.5808252142837866,-0.013887412695680253,10.003406826367778,-0.0031343649356516887,0.007718400742555935,-0.012613656842505391,0.022975737879606096,0.05641014471360941,-0.002620864465939359,2011-09-28 12:26:56.853543788,0.620016042
49.01074280332106,8.418059381406435,115.17343185423199,0.02907030840115831,0.006094203092457713,-1.655313002248062,-11.25087696977853,-0.9624125519333947,12.225619040316511,-0.2731261223967596,0.0508409900498142,-11.239427762563771,0.2650134389395885,9.183629930389985,-0.621124428318254,0.24194709318282892,9.516777516218275,0.013259412791961238,0.003373255763822419,0.00016296266774745933,0.023521740561929044,0.04864109178499497,0.0025401844759598,2011-09-28 12:26:56.963578900,0.730051154
49.011509180105804,8.417920766829448,115.46824401961209,0.030862012853861663,0.006605824594143902,-1.628636630184903,-7.92172317064065,0.24712254856719884,-1.4609467757423857,-0.07712524636934076,0.00024134816964850592,-1.0229112695816442,0.41853982180203764,10.034586660081398,-4.867972839731154,-0.05739942233481313,10.40748714405737,0.004181343205342798,-0.056515381839543376,0.011263916486868497,0.007786935131905286,0.003916472810777981,-0.0009010814668900255,2011-09-28 12:26:57.063774129,0.830246383
49.011691965158896,8.41810637464622,115.23553226329489,0.05634953160101449,0.017381689957243637,-1.651562302876164,-0.713166446873986,-1.259719237698222,70.32754121124785,-0.08555420654772035,-0.08846962941338798,-0.04896511380911894,0.12711524347109526,9.621097385939265,-13.145233438054058,-0.05432740371512852,10.054985056589542,-0.009107233331873507,-0.007358028946039454,-0.009305520352750698,0.016402208825419363,-0.021099321628107206,-0.012770844939572257,2011-09-28 12:26:57.163550569,0.930022823
49.011448867629774,8.418101590614281,115.26595497488161,-0.04339858911243316,0.01842130127129283,-1.7397091053717697,-20.143583818380158,0.10098035440593,112.88757146071002,-0.026639899828029077,-0.11313295980720567,-13.017100853011485,0.5568231689016516,9.822601843135107,-4.968989426239551,0.2891069190252508,8.350055355743669,0.0026012095720289903,0.03238363930395996,-0.007339050128526418,0.05420101782721791,0.03501073879671021,-0.007962320485000809,2011-09-28 12:26:57.273579679,1.040051933
49.00991432267762,8.417428778386094,115.00235591415732,0.06712504696563217,0.01749794470638573,-1.6481929036462217,-8.081333237487431,-0.2550444426951364,5.4330754127189635,-0.10273155133670583,-0.059849914920925146,-0.14464076328329484,0.25847772756290543,9.331343100570141,2.788949089356108,0.10769909829844544,9.839243156407273,-0.025979601774304993,0.03860037928350451,-0.009962491336182495,0.03991559697934824,0.04132894364617966,-0.005457181315671085,2011-09-28 12:26:57.373597344,1.140069598
49.01104953513024,8.41806032401906,115.25786321443888,0.05658066883468361,0.024857172703754815,-1.6345141236413592,-23.55626394174459,-0.3107968786031559,5.611852531704377,-0.08087206222203655,-0.053266067225427954,0.5446030901023392,0.21260220443300867,8.385559293043116,-4.376393535990401,0.07681592862762834,8.827076150665507,0.018437629767213987,-0.002725162569168766,-0.004725078480421115,0.022678327260449105,-0.08045436972804615,-0.02352842102454581,2011-09-28 12:26:57.473661315,1.240133569
49.01097579077154,8.418029976331086,115.4831888874598,0.04658559617978918,0.027619719048990424,-1.6450750983244433,-25.345249418847047,-1.6916140996610687,7.241268573686453,0.058797541497076625,-0.27725926898443676,0.007144316311327059,0.548938839898251,10.693632581603735,-1.6555533075800675,0.055557928070740094,6.810349620137541,-0.028618739461870237,-0.020495344530188538,-0.01609051830961282,0.015474645374720927,-0.03668678512082283,0.001620005227419491,2011-09-28 12:26:57.583688333,1.350160587
49.01228930914634,8.417928619752857,115.66947041499866,0.039757885644497795,0.016163868105496977,-1.7169947377525216,1.8530276468581501,-0.0175494578302835,10.798767158299276,-0.12236738704754685,0.029031060602127207,1.485824759026711,0.623976520481017,10.487679190309397,1.4173825643048767,-0.18754466859027263,10.569118635356931,0.06172052450711012,0.0001811147049131344,-0.008616431744817826,0.00251598456521792,-0.010110069242019163,-0.004523127510498946,2011-09-28 12:26:57.683612602,1.450084856
49.01311281567259,8.418023128981497,116.00613881888646,0.052806984698807596,0.015147730743866251,-1.6724878862304282,-13.91604331705425,-9.487941869737266,-6.857578973370956,-0.10154540825395433,-0.04643710399985765,-7.574294496478609,0.9137706949983636,9.505789152406024,-0.6524731968560201,0.286375203188324,10.148660139950278,0.005363262516059275,-0.02143383999438925,0.0007045246201234827,-0.018341719671907463,-0.015760276915722876,0.002498880769567182,2011-09-28 12:26:57.793661348,1.560133602
49.01175844284774,8.417993261457022,115.7711760109921,0.03934290818937873,0.01654867030698049,-1.676410268352949,-2.290489759813278,0.6869313354682921,5.730578080205964,-0.19224171696738343,-0.10878242142111536,1.222906302267953,1.272467415798393,10.596231411096142,-1.9917130009418345,0.03622257804319337,10.64883742033782,-0.01735572924086095,0.03674588226145403,-0.004033593071692113,-0.031995787979363234,0.12031789101418007,0.0003327480846948873,2011-09-28 12:26:57.893619611,1.660091865
49.011492331853916,8.417802345161766,115.29466431772639,0.07163205012858836,0.014882993793233166,-1.5645298879233165,-23.76810508429382,-1.9402720093794859,84.1619669596427,-0.12476561643941933,0.013226186924488147,-3.741957908523832,0.5536598123585053,11.684350672409614,1.4780312475640418,-0.01949953237699434,9.167130359297746,0.020873480493259256,0.1113697700425186,-0.011847820341069078,0.001071223708881578,-0.0069721767540304475,-0.01629092331704912,2011-09-28 12:26:57.993649633,1.760121887
49.01154358031807,8.418050739347732,115.20439711207003,0.06756999945761427,0.019462161827178324,-1.7135169007034317,-23.90185581124227,0.1751781763235093,21.864656743965046,-0.1259232316125591,-0.0614246081835762,-0.7964078968235326,0.32022981746226686,8.776376215239985,-4.731895735807197,-0.24681034094346024,9.058295055878517,-0.009319249703627021,0.02219700312777604,-0.0015983316270171601,0.12442953876641769,-0.012214927817769334,0.005259337785465728,2011-09-28 12:26:58.103766710,1.870238964
49.011802846104544,8.418034350362937,115.169634073721,0.07513683510763709,0.016544785459191864,-1.6607181864404696,34.46268876842809,-0.26655608749851434,-10.578910462782671,0.060295990658587914,-0.1367590967337586,2.871509066263159,0.36239340088763833,9.995706622267111,2.661800207989308,-0.2863042754412634,9.018100520629613,-0.08658275393817597,-0.033465539789026694,0.005739298234447113,0.016809881703972428,-0.01768523292515332,0.004432090380253774,2011-09-28 12:26:58.203726362,1.970198616
49.0109586115432,8.417997261634547,115.16938896160362,0.06150162343999866,0.01057858400230182,-1.6590359781746882,-13.132339536804244,-1.4682705825091213,16.34188856779208,-0.15167042369648714,-0.006567923319457276,2.0804523497372953,0.5559257992801773,9.799455436257253,-0.4474483661359192,0.16702901773573187,9.93814938649675,0.03561627089022524,-0.026378724532436264,0.003216434093114005,-0.006964327489262371,-0.013052304085000122,-0.021847548784060804,2011-09-28 12:26:58.303685190,2.070157444
49.01197657200427,8.418059844917263,115.41054736592595,0.06733553947117392,0.012396687815311684,-1.5739333663521151,37.447200483079335,-2.3386064784086025,7.2691380269007855,-0.14310930161795596,-0.06832298380960516,-1.6988083305331325,2.25354866591479,9.354895212696803,-0.9562282830807651,-0.2945467275457305,9.620942138117845,0.017312630927213603,-0.0448566570056336,-0.00820861238723934,0.00969539346597174,-0.02280703870921209,0.004433270372262959,2011-09-28 12:26:58.413702866,2.180175120
49.009335869982806,8.417985984856887,115.22364598875296,0.07015597947882969,0.001934870590086863,-1.6895365473452182,-31.203745434092106,-1.050751280092321,20.4366238741691,-0.4763950490871122,-0.06553770527862197,3.3830724893550057,0.47675438571390505,7.873375004346296,3.0325621662777777,-0.01044884668961461,10.283954841401284,0.020627058967051318,-0.02888748892526985,-0.0007403592085821501,0.011258951240936812,-0.0291429727793526,-0.0036206491909224108,2011-09-28 12:26:58.513921229,2.280393483
49.01259052369652,8.418044253205322,115.3194801167803,0.06287820157708529,-0.015469530742005064,-1.6400619571921429,-8.404476151055265,-0.9852928249294841,-1.9799535123976302,-0.10817351867599946,0.10144282802100914,1.8903431169483147,0.15861014000977533,9.235869666705147,-0.20004044953147015,-0.04763781963560734,10.129547112663195,0.06917397499371918,-0.1038481404469336,0.0006807067265658462,-0.006958981733073285,-0.002424384332988979,0.03168855755099461,2011-09-28 12:26:58.613752048,2.380224302
49.01015769081391,8.418017571748377,116.83883064237833,0.05745401886635547,0.01804494181818818,-1.6710512547091092,2.3128570082214104,0.22722572951787934,-4.799508978903187,-0.05076289617332416,0.28929063084577655,9.022109602295835,-0.7820298280386196,10.51592509900769,2.004900518057324,-0.15492486551814535,10.51112216044848,-0.012326488482267233,-0.031937876068878115,-0.0015291983539841392,-0.0036756287544946905,0.03604516347423329,0.010801577274625107,2011-09-28 12:26:58.723742913,2.490215167
49.01095795966199,8.417958468901057,115.28939394166284,0.03806742809415465,-0.02007327614402459,-1.6440535589246135,-0.28859547214643655,-1.4335098023279957,22.841619179856153,0.05980493058693458,0.005044229397863744,7.980799438269152,0.7250271577606919,7.990168185392879,0.879129265446251,-0.4183145853419319,9.618327316270554,-0.006838128066351702,-0.0275380960302323,-0.0021990514850531826,0.012556883971894814,0.03292570237227495,0.012236867998397415,2011-09-28 12:26:58.823737637,2.590209891
49.01162379030902,8.418177094296539,115.49305045963135,0.055692247832773975,0.012142154778156063,-1.6642191870074903,-51.37918046834588,-1.7260379383021802,49.25680011194343,0.05517028888238257,-0.09968049614222146,-1.760819887535452,0.7720422426442561,9.999059120013197,-12.473492141007608,0.33370613801493604,10.145108495251659,0.03748817684380205,-0.04937620805480885,-0.002786367648247649,-0.05956989584651878,-0.05121414408652336,0.0005081419300392428,2011-09-28 12:26:58.933783335,2.700255589
49.01010323757971,8.417949890123683,115.06719773908432,0.05349203466373373,0.012761329958968254,-1.6624011186819276,-26.73995332494141,-5.786417922961789,11.197185713300707,-0.17910864952842548,-0.018572282329494184,-1.3571033260328855,0.11608156162671565,9.82428380435469,0.8012387707463231,1.208722346913345,9.708802897181407,-0.005032897093219638,-0.07357160642146651,-0.001880086195490164,0.021893249981758567,-0.052140272352440294,-0.0015712062764174058,2011-09-28 12:26:59.034022732,2.800494986
49.011630721079456,8.418018160393048,115.39924352624972,0.04750321939314238,0.0056717252230402485,-1.640920330115058,-11.481778261685722,-0.5336256330208818,-49.89297343798488,-0.19836298156913665,0.11861956546875516,-0.5216582178958287,0.4583495240655038,10.517597997750839,-2.1287184974328452,0.10598672802638578,12.068936821323106,-0.035163151067049404,0.023184932513761497,-0.02160720256108039,-0.020258064858963056,0.00305952870590763,-0.033725946946871255,2011-09-28 12:26:59.133779917,2.900252171
49.011753650680994,8.417972765608326,115.51350683566045,0.028351328794604433,0.01567836231771059,-1.7151237777501744,-12.17994142592576,-1.2784668409823507,68.34607806887976,0.12736965730801175,0.05441480088736778,1.240663228616342,0.0890177890185974,12.04447609803185,-0.032972729573822246,-0.48853762187592975,9.464674808260456,-0.0024139010279982595,0.0129975283247863,-0.0018955786868087594,-0.004895807606798087,0.0074394549304620744,0.0493341441824953,2011-09-28 12:26:59.243784998,3.010257252
49.0084250977327,8.418085398322793,115.3258590586544,-0.1153291086660009,0.006687170399042255,-1.6369761306514308,-15.75590117618636,-1.24801949752649,31.05421399481813,-0.5002725698013277,0.0478082055872533,-18.37582570655882,0.4173569626284612,9.698145220559125,-4.120543211942439,-0.1313010547379107,10.191226486098358,-0.0035607839784953872,-0.017598966533060402,-0.017926686219593566,0.11800398369733665,-0.0035711762022735435,-0.010565608214693573,2011-09-28 12:26:59.343770947,3.110243201
49.01647544606288,8.418355410959606,115.90158354065154,0.09193262009143005,-0.03179203583763583,-1.5211991178223336,-14.297497321983839,-1.3292661853282155,-10.4075958796934,-0.03138654522386552,-0.20175320099123079,0.3572188667444399,0.614652205073952,9.494596529157388,-0.9345724154665763,-0.0559047338559257,9.937357987184853,0.009356821881151977,0.018072187852496854,-0.010902426011275883,0.039317138840657254,0.003592804957207329,-0.0067635371017111985,2011-09-28 12:26:59.443835044,3.210307298
49.01313676979877,8.417969911389257,114.95106036487705,0.056093138891438035,-0.05873321447143074,-1.6548166467734444,1.5251878213427865,0.6961809122027925,-3.140557817991205,-0.1493107056611899,0.0026123943798255084,-1.645299051614034,0.33064241751197043,8.711279315544463,-0.07189021928050587,0.7807567643215596,9.088444376134412,0.0387761758731576,-0.1332278558525089,-0.0011679676027557412,-0.05127757898087871,0.03748077652793426,0.005800104108467849,2011-09-28 12:26:59.553991874,3.320464128
49.01076872076948,8.417930891440852,113.50697878073514,0.07110071732876382,0.018610081780717595,-1.6421444545850536,-7.796679057798155,-2.033165606228267,10.29131853534662,-0.09157760992834992,0.13886364430818326,-3.2527336205361292,0.5610696974130152,8.980267855694063,2.443289443358884,-0.4861213054726039,10.114567115233369,-0.027054170889701985,-0.03379914983514864,0.001357991872669544,0.007482204990442783,-0.013988941102422738,-0.009723181186388975,2011-09-28 12:26:59.653843215,3.420315469
49.01283252339846,8.418093349324446,115.56954189264933,0.044185863989081295,0.018507650506061228,-1.6723267161308544,-7.289853293003112,-0.47751186915856564,65.87613096312502,-0.13322356611713423,0.05863066648737778,-8.052025746403414,0.7697429869316381,9.2864937211603,3.5477942042048687,-0.014377896244828783,6.730153359111037,0.0008706086355237679,0.0192771396752619,-0.00710106246059806,-0.011242396281451428,-0.0348271506723396,-0.0028721195800206815,2011-09-28 12:26:59.753860752,3.520333006
49.010923154961105,8.418067441358938,114.8788046081637,0.0641021700075572,0.015998609769493466,-1.642554726251319,-20.968038883576035,-0.11233638250196909,4.407014468661468,-0.12101347921198857,0.07000434359019253,-2.2121016498453865,0.5391718273397594,10.11340981237723,-4.365810594997432,0.12311204193624131,9.940062819537843,-0.011609936197775797,-0.16486198809242267,0.0011834411206880133,-0.013915980554012514,-0.024484084104908543,-0.0025726703244283774,2011-09-28 12:26:59.863874396,3.630346650
49.01121502094157,8.417947021796563,115.28557100687631,0.04464828212592707,-0.004316018323217815,-1.6522933611355137,-141.2519579081872,0.08042899101456125,12.838267873469508,-0.034972481008648686,0.041364551694848914,-3.730488503024989,1.3267189579319179,9.193006942785985,-1.4297185316763477,-0.0908519193827276,9.857888740063814,0.008351816712340546,0.05379788390788902,0.0007984592096456454,-0.0022728038496352527,-0.02804876735147304,-0.07175866525429056,2011-09-28 12:26:59.963851763,3.730324017
49.011229914796765,8.417905188530604,114.98194339032378,0.03754492013724687,-0.032381482120139304,-1.6327372629516987,5.194621438322862,0.09836705189063855,28.995160867068265,-0.24481560020860663,0.6031995151921821,6.355858204559116,0.6727725046839987,9.746432316944482,1.869613023604559,-0.19196218454519937,9.227120610045898,-0.020347309869828446,0.025499918240923583,0.002210505575194525,-0.0037173224217526227,-0.04562651153380594,0.01025316409547564,2011-09-28 12:27:00.074028412,3.840500666
49.01079954073756,8.418063566068566,115.37414595742727,0.06277762199795837,0.019404978891070047,-1.628536126310168,-13.509575066164615,-0.5700717304038814,-2.496574278922097,-0.20030375163189734,0.08188658296028514,-3.027578429381017,0.4229632648364276,10.100889161705151,-0.8652803117344224,0.19613537032294737,10.018265423868877,-0.012533179289968945,-0.0068774004485822465,0.007558200959889391,-0.00610454111614915,0.0026518613359752395,0.0022529392464993407,2011-09-28 12:27:00.173996786,3.940469040
49.01167073345575,8.417987708430006,115.64098055613088,0.05252315803811768,0.014055142237997953,-1.6475640098525275,-7.730046014131583,-1.98996690753284,108.01913830759813,-0.0999209884649242,0.05215800824247667,-2.5689196178331173,0.9512616851996487,9.476231594065185,-0.9225364305516819,0.8266335622740577,10.019767889468913,0.055213698067523215,-0.020280037588514273,-0.06208384689095245,-0.014540701401288103,-0.14210285652092675,0.00369943477251386,2011-09-28 12:27:00.273894473,4.040366727
49.011186762039536,8.41799798416407,115.44760526054614,0.06257003305906947,0.010966347360941242,-1.6467626338265378,-5.421465807786983,-1.5952670871263024,31.963327565358032,0.01090484414222434,0.05435457389183926,-2.4577517014690935,0.6820747636552966,9.519035329676559,0.7941651591758896,0.14953442113155924,10.105808485822001,-0.009462802215913044,-0.027407772798198893,0.003850942532215496,-0.015674425982360032,-0.07810801937192466,0.008155466540178301,2011-09-28 12:27:00.383878828,4.150351082
49.00948853711407,8.417954747104705,115.45317092063529,0.03987727011665739,0.0012676850318784974,-1.6483738167621076,87.32279881081976,-3.089318896943163,3.0438107044211264,0.012013743584821365,0.016860396836694894,-3.211158053774166,-0.016201041823400875,10.264091551536646,-1.2486248037253034,0.12980655828110824,9.900232744499363,-0.02677062213097878,-0.026393636214849223,0.018682734747769332,-0.04832011657248549,-0.014365104242678804,0.014590143442295346,2011-09-28 12:27:00.483881081,4.250353335
49.01047125733185,8.417991325549494,115.98050096239068,0.05513426187961146,0.01177868614268203,-1.6684638329866848,-24.66384815311758,-1.8787690991280344,19.412568111444465,-0.05769164360350798,0.00985318131240797,2.2146095044323006,0.6548078197137767,10.442047323318027,-1.3342936632023994,0.5278920196104202,9.727630242512777,-0.029458899088568427,-0.0022510475001270556,0.022040199017666802,-0.014353084254044754,0.08015681234897647,-0.0008789004943454441,2011-09-28 12:27:00.583949445,4.350421699
49.009965366957395,8.418166297115214,115.43044062188146,0.04739569879652722,0.010852986197921202,-1.6700562540738153,-13.234949939225519,-0.20214782262579567,31.536047672511973,-0.11914626168487577,0.04559329524560625,-4.434885552431738,0.4594677653250735,9.746836591740728,-0.3789852214546563,0.07733986509595064,10.663463942676243,-0.01629746907863839,0.00248589461385907,0.0029686134321468606,-0.03838452353033522,-0.0094214501196799,-0.033510475972248245,2011-09-28 12:27:00.693912003,4.460384257
49.01366700285228,8.417982684802578,116.00613169091648,0.047765243978955624,0.0009972628601271176,-1.6533000716989488,0.5311356856225498,0.6570164295298709,4.067056285613523,-0.038936948105473455,0.15771490253543533,-0.2793869566461007,0.8219371679241492,9.378801561499863,0.4467406483713452,0.19885716493123776,9.774884168739872,-0.007927715446980116,0.027220284046839727,-0.003955863024969236,-0.0023173615949259284,0.022903429483593547,0.002572618254764577,2011-09-28 12:27:00.793936283,4.560408537
49.01112786303378,8.417922627578527,115.24933982716678,0.051769171607150444,0.021945684812686085,-1.6340641850735274,-13.333616245654738,-1.2436894007976687,7.744407936236094,-0.14909802033606567,-0.1310605300039512,-17.05698784455766,0.23702675458183067,9.674266264853257,-21.06466952849936,-0.2050179699723883,9.559792253607858,-0.019348623789302858,0.035428672355954156,0.006342892266647555,0.011864122900705543,0.027214892104465267,0.010234294849276026,2011-09-28 12:27:00.903950402,4.670422656
49.01137836421882,8.418046639737659,115.55230542129722,-0.026719502805402286,-0.0006555913496514489,-1.611758113147305,-10.522259291854299,0.15390891263030448,21.680364304307133,0.023618776986627427,-0.11450660117705194,-1.7386463933117695,0.7482159533003161,9.835946347096636,1.120156201438695,-0.013281933822539116,9.66403962578656,-0.015511160014693087,0.014994675180485025,0.009529994949431015,-0.016808860640353404,0.004799222112599121,9.578177747629566e-05,2011-09-28 12:27:01.004212992,4.770685246
49.0106127695881,8.418044913957186,115.39637139505191,0.03542600446172121,-0.0285946286535689,-1.6911653852199653,-15.76139266799612,-0.3143409973675037,13.78001741878671,-0.20056175179715052,-0.032405326329445865,-3.0423644946774706,0.5072551161234986,12.059595989237746,-2.685759159920448,0.263930777531585,10.29084182492148,-0.004369643476970881,-0.009103845563579793,-0.0038422911698992365,-0.046289391881872095,-0.03486735834970171,0.008611201283570033,2011-09-28 12:27:01.103986475,4.870458729
49.01086296518317,8.417995531293824,114.8974930000111,0.021719209293576104,0.0179475475727319,-1.6416798520050964,-23.361453979037,0.6523226324442085,7.6770175220842365,0.05593084602664733,-0.07078110613819287,-3.864631679014298,-0.1020335535736619,10.075969155199926,-0.3821482489072865,-0.3925887519934651,9.91755971503667,0.01030652251485372,0.002509574359396846,0.0055198103335243175,-0.016819226227074466,0.01732123543139106,0.002496834212596855,2011-09-28 12:27:01.214010292,4.980482546
49.01071257914634,8.417918153750254,115.47095668220027,0.025892598115243845,0.022911715933943252,-1.6760077995435212,-8.981830022416457,0.03879518648237368,12.364133953598529,-0.6452878236385986,0.017188097354805157,-2.1499645923115276,0.18340775278810378,10.097257180856504,-4.561528209092545,0.4012876310769706,9.162482307242518,0.0012126911418665108,0.005822221675487502,0.00821607461397975,0.023757193202066176,0.019731600343021686,-0.0014151878452815358,2011-09-28 12:27:01.314000823,5.080473077
49.01118687878758,8.417944424068951,113.54134887273113,0.018068370265381578,0.021187284117083344,-1.658231330677944,-2.5705613818581154,-7.426873714957185,13.093362822474713,-0.30803102542274235,-0.28872172381984584,-0.8781002077207485,0.4993752361634313,9.786965995231089,-8.523255414355356,-0.6952387520603714,9.917005318944542,0.00022076503450797758,0.0325969580048014,0.015788854681288038,0.02708034401760466,0.039706293049432434,0.049114092381837365,2011-09-28 12:27:01.414000601,5.180472855
49.01137374920699,8.417977937118046,115.43707580730836,0.024494793250888602,0.01616132408034228,-1.637192259943268,-3.054114340578959,-2.5557999387711416,5.940988421821043,0.06263791941230432,-0.022809197442320253,-4.039133938001175,1.8959627566317352,10.07744531097505,-2.752695257107613,-0.13341444887590667,9.489445873488796,0.014114447592461093,0.005436878209587503,0.00717656482917383,0.018937338318729194,-0.03261425270030517,0.011594586009672336,2011-09-28 12:27:01.524340510,5.290812764
49.011731790034176,8.418158537232804,115.33919964653968,0.07087614672372891,0.01383934469283872,-1.6268858108870246,-4.68246674649307,0.8384998119372805,17.00042310753286,0.05221050592826067,0.05893968380003427,-2.973550840507809,0.32302818096839453,9.960263420815657,-3.128655239602291,0.4729931497380127,10.135272321376105,0.020612113333598112,-0.023690208989158683,-0.027796131613063754,0.008461486749455988,-0.03417168992258997,0.0035057847072664057,2011-09-28 12:27:01.624035231,5.390507485
49.01074851830652,8.417991375058008,115.6026038699094,0.03283025480107776,0.0043962944675407754,-1.6435665173827234,-0.4995033062651659,-2.051597847927284,12.285733218145095,-0.26176929498492457,0.31799505538055955,-2.5676975236615975,0.5493462408750225,9.97515486010703,17.114897322355638,0.20620635292060654,9.295186957609943,0.007674190777200428,0.007395344208043789,-0.004703822730146215,0.0021089906754966315,-0.014453005779819934,-0.004465023309883042,2011-09-28 12:27:01.724069688,5.490541942
49.01070204390572,8.41791210489116,115.42896422558852,0.15616647783432636,0.006318735771437583,-1.6410774949400815,-16.78357208689216,-1.0594277136186947,-2.5124791525778782,-0.06951428060530433,0.009577819502383816,-1.2747332983898492,0.6058904565766943,9.910839622821484,-1.1053927239926749,-0.13341274497810843,9.205455915325262,0.011807402679876162,0.04075346322107641,0.017637217114223037,-0.0030504699707377546,0.0032262606498143324,0.008343822020637777,2011-09-28 12:27:01.834036599,5.600508853
49.011295644177174,8.417950335347447,115.54920205590287,0.0423513272133575,0.018549425094849428,-1.6274336583430213,-11.317792329126235,0.3029656454887381,-15.32079808969551,-0.06764631225058292,-0.02386677048271161,-2.008522439632661,0.04157110428696553,9.274439946118251,-0.7761448861251152,-0.027718838488042945,10.096291011862519,-0.018041772198008198,0.0051936839975306025,0.00010105345604407255,-0.014464513511761699,0.15379609235282193,0.006354520876009131,2011-09-28 12:27:01.934048384,5.700520638
49.01172799079697,8.417911398602984,115.21755311354296,0.07393686780102485,0.021744598662462748,-1.6257128889071104,1.4605584376478093,0.5230418429628896,9.160800677133372,-0.004329022613527932,0.037214726675335236,-0.3274351146491088,0.42583715455765964,9.919298298998573,-3.7004232714589156,0.1339622688091404,9.546011598696715,0.01697803914008929,0.023615689929301395,-0.008118185757789404,-0.00014663704073381283,0.030743517663326177,0.007827065232787998,2011-09-28 12:27:02.044251431,5.810723685
49.013875506919746,8.417926052799748,115.04925475564534,0.040715186296977394,0.021932634596669484,-1.656841385778535,-113.7275405631404,-2.9247614911334683,22.616727651565007,-0.10655566286263009,0.11572178075437575,-2.420322057990559,-0.18916111291328946,9.930457036495111,-2.6352932485530443,-0.5782380743195581,10.360695282516783,0.052386710955742224,-0.019950675282965596,-0.002108712811251595,0.011796771558383188,-0.007529273566647793,0.013327607624657211,2011-09-28 12:27:02.144057779,5.910530033
49.011297975409505,8.417939605789599,115.3266640947694,0.06183281661866327,0.020823740138173327,-1.541688830140877,18.048959895096353,-0.11416944522779798,-1.1433317294552472,0.025447419325420585,-0.13356211586347724,0.41056966699162967,1.1377197263682508,9.903060967181741,-0.47550976855603344,0.172388528149262,9.68230250239629,-0.03919100083187871,-0.01572258862187898,-0.0015438089062171992,0.015582380350354507,0.014964258856866041,0.043516742198537586,2011-09-28 12:27:02.244059576,6.010531830
49.011167184692056,8.417971798363583,115.25896863130521,0.053290199186121726,0.017151183575743398,-1.6394003152443453,-23.97691179058762,0.18125514160051537,-37.1349514781826,-0.06556629050016614,-0.010444288517255602,-23.511781121687132,1.5324393580624676,9.562760558893814,-3.7887488169350885,0.19580961741433536,9.420364064613953,0.015681140288131803,0.023806133067673926,-0.0008399810284782276,0.09616924231646959,-0.024418285339375727,0.0025344288064243874,2011-09-28 12:27:02.354083932,6.120556186
49.01179114347503,8.417899852695754,115.67288330337082,0.04749707774872147,0.019067615753006854,-1.6460280141832144,-8.461155258104434,0.5667289782049951,3.209483012857557,-0.019376477061072147,0.03419312758414275,-1.6522110396615246,-0.8232671029109109,9.884818926981179,0.3532052647044823,-0.1371128764706072,10.413218543598145,0.014896143031466191,0.009306981642726447,0.003222979392483274,-0.01043929604005501,0.02643364161666435,0.004024172317497143,2011-09-28 12:27:02.454077679,6.220549933
49.00625982454774,8.418163317501122,115.43930295642433,0.029590969748334292,0.024848961770015,-1.6485851784560686,-2.5946239203367747,-0.5007908804867317,-16.23479658698128,-0.03289917787769022,-0.01376531997582656,-2.290596791244339,0.1498828604794657,9.724458866629432,-3.296337103584764,-0.8714497185366851,9.944737454776249,0.023299232137925608,-0.026549514302423402,-0.0025314042493806313,0.06846112272301177,-0.08448987292401171,-0.0036494936190483228,2011-09-28 12:27:02.554357968,6.320830222
49.011841178558306,8.417904490044759,114.23342165919327,-0.0007798704090615435,0.020306041168065444,-1.6373555597383898,61.12667560501954,-2.6237260344876114,-4.348981409104818,-0.19917273651902706,-0.015265165608282264,-0.7185653457117913,0.11095288282645038,9.24638216649683,-1.1943822647409519,0.006488527848296774,10.302892388630195,0.010346237047058587,0.04582200963441203,-0.042008343265773795,0.02341076153056112,-0.018122696106009313,0.005153504466037817,2011-09-28 12:27:02.664109008,6.430581262
49.01062727819294,8.41792860631686,115.4076059619648,0.014881267480016232,0.018324671453265218,-1.6659883043291677,-4.101330903535436,0.031824914819101824,33.50985109169611,-0.09497752769947343,0.02463188217679814,-2.595154119522225,0.3762063370760789,9.592476876800989,0.9138634323590136,0.2406883383309615,10.681576318801417,1.2030741162893759e-05,-0.0020745860721885895,0.011862145396951669,-0.11753291420297926,-0.024704714756824155,0.007195236788214057,2011-09-28 12:27:02.764150835,6.530623089
49.01114190452917,8.417976723994508,115.54794497857691,0.05020283994856764,0.014875459542355217,-1.6722099579448684,-26.718209085183812,-0.8585469435250725,-11.721953241612121,0.13433093721261596,-0.007728983382363223,-1.051807691512361,0.4603318166013724,9.42941744094845,-8.429708069195692,0.08169461668276154,10.130815572565199,-0.10256767325726655,-0.049682638146236004,0.004238168511795112,-0.006242207357241317,0.01976187698742921,0.0006364058381545117,2011-09-28 12:27:02.864108253,6.630580507
49.009021928483676,8.417921672506699,115.30377737737116,0.026551096105166636,0.008298799227503754,-1.6640176802421114,-9.52252138661704,-0.20171733095019279,17.4812434599851,-0.15424836119389357,0.12383454363333553,-1.3792822171201515,0.3526206424427709,6.514978820635118,-5.338079062526644,0.011204017498748942,10.318404615530039,-0.011779839384806794,-0.010989972870491568,0.00036844264297723837,0.009980585092120315,-0.01434363227127424,1.3746737551289384e-05,2011-09-28 12:27:02.974122065,6.740594319
49.01006513043181,8.417923029174894,115.21461878357086,0.03256590151245582,0.02190813848841466,-1.6595638917416538,-9.000459294458935,0.1332840337001503,-48.003987742688714,-0.0901497443221129,0.025349679129990838,-3.578829675762372,0.11514617754685208,9.853963014375507,0.09573151291692472,0.2828202800534754,9.431424604758629,0.019203966634015253,-0.07170788643826587,-0.0006356963348237861,-0.02410262990715503,-0.009792305436088212,0.007149625104468866,2011-09-28 12:27:03.074410926,6.840883180
49.011101101624924,8.417944087682622,115.44468696756104,0.02674431420643203,0.02728585114050326,-1.6168987442794054,-16.608893614835992,0.08334554388157428,-3.0976622115991157,-0.03546943058459597,-0.041535400220727214,-3.1954632660215827,0.9374085500623178,11.961857251802654,-2.2240740258956366,-0.040264862357906814,9.782095232033344,-0.006743935338653879,-0.0042439929931742506,0.0033761942238696736,0.02888631022496559,-0.009402029132990005,-0.03730054717377015,2011-09-28 12:27:03.184166218,6.950638472
49.01111941441297,8.418032066014584,116.87418316849514,0.05228444181446611,0.01338221791173494,-1.6441860816489797,1.39234930188851,0.13709004074679781,13.012523044209074,0.027663764417981906,-0.11439145948445027,-2.747593962398975,0.24216852202563538,10.650415010672788,-7.884409273948076,0.15737193532397903,9.993822853471501,-0.0035367857051937105,-0.07487611661089968,-0.007253642129000325,-0.0010952788100815172,0.009196845465934998,-0.0033728222223510977,2011-09-28 12:27:03.284188179,7.050660433
49.01134356851656,8.417949182356772,115.28715325566704,0.027375470028175693,0.014186914395034632,-1.5230052717681035,-0.6472955673320895,-0.13828427503158874,14.60072928293853,-0.03354125841938571,0.10142499636309227,-6.846380002877437,0.5035325127233868,9.876687290565853,-4.346767561487365,0.14280732058330317,9.565530602311954,-0.0016432010632044225,0.007896166091965825,0.006252614412485586,0.011598258420124798,-0.0052270737075851,0.008935642688313069,2011-09-28 12:27:03.384176176,7.150648430
49.01129766334218,8.4179605095074,115.17934673068503,0.014139586942677782,0.01294979115352075,-1.6549476243870664,-1.8573007478176928,-0.9128993454067437,25.23354330849514,0.07554905759275254,-0.1511438329741524,0.42051008812920454,0.6578662761093774,9.840812184525245,-9.738004791538721,0.35844202834984945,9.812975401808586,-0.015443595639443041,0.008377527280567613,0.00689499339240794,-0.0038004708168669003,0.003753977988159397,-0.05095752461515592,2011-09-28 12:27:03.494166961,7.260639215
49.0107510966243,8.418003995121417,115.26429470829554,0.05335038715510001,0.03072072363233544,-1.633005346197411,-13.262656851291272,-0.7744093243146324,-2.785196090552967,0.5111976133990331,0.03958172969863132,-3.357751994854109,0.6886552698809532,9.880484256782497,-2.35904240391689,0.42411479197779123,10.331835410986974,-0.005506525228003149,0.008069626253731817,-0.010742236098155169,-0.018664777273453313,0.023298026149618588,-0.00044289110764805274,2011-09-28 12:27:03.594295904,7.360768158
49.00934823589218,8.418013841252368,115.22112254835281,0.03231462462493162,0.021712713526343602,-1.6042745856856049,-23.428319871292295,0.17747662017544838,18.518321283660754,-0.014007435902132371,-0.09417693018574283,0.0777810754820516,0.20714156584028054,9.643449222951038,-2.229855634849664,0.496929728726306,12.354779873389294,-0.002937328756179169,0.03549032140240741,0.024061720645714886,0.026804382310133292,-0.02848604693320782,-0.0009480482378008267,2011-09-28 12:27:03.694198952,7.460671206
49.01268276578275,8.417893540353933,115.1683844615647,0.17565246508453505,0.020784274394460955,-1.6352847957825307,-18.428114385967064,-0.22242913032715667,-9.798942054758875,0.08380599739554043,0.10066783905119196,2.180040692180613,0.2221264248668696,9.548163242830187,-2.9034593579173524,0.40444307126123513,9.163077412881389,0.008834165514231341,0.08986294797491472,0.006358215420468069,-0.016916535510193082,0.1396308162559443,-0.0032517281967246914,2011-09-28 12:27:03.804223155,7.570695409
49.01426288513788,8.417926626551111,115.61086880442471,0.030082245599269693,0.043973429040615644,-1.6283922104840738,-4.538904642260897,-0.9691243237166287,20.985466899593032,0.43581181214803777,-0.021477903869237643,0.4374038620906946,0.31988852460701434,11.186441164573054,-5.173218206861973,-0.1766900029611995,9.430139687673345,-0.009313567800544542,0.025063701260407127,0.002658676246866631,-0.042017805952356546,-0.12624003250282992,-0.008673972077975151,2011-09-28 12:27:03.904263929,7.670736183
49.01118830993267,8.417949781045348,115.36253301630866,0.019352415449097316,0.10225574176761877,-1.6210791601761454,-7.937080234410708,-4.436440066887414,70.39399988101817,-0.18022960834061472,0.004999669108579677,-2.4252645117942233,1.7511407970632662,9.770302512283958,-7.210978483982521,-0.01951871884626129,10.174850805078377,0.02193192420109267,-0.005424601076997477,-0.002267865090171969,-0.029717800409841157,0.01261907278683571,0.0009861894372420335,2011-09-28 12:27:04.004449258,7.770921512
49.01052521927964,8.417997621720819,115.39910170465379,0.054736037592573505,0.014265173272438958,-1.5497452368928715,3.398553959333053,0.045423088972027986,-5.293605963071739,0.10748560623498904,-0.02277560523412519,-3.075921728685514,0.46814804222718104,9.2359884519208,-0.005608668302675479,-0.27407660166159276,9.1699577930889,-0.028858767190620138,0.0938694145606176,-0.022758888669182895,0.012647413607064424,-0.0004962344773902058,-0.006984915061341442,2011-09-28 12:27:04.114278874,7.880751128
49.01171685596794,8.418004792623734,115.44255862335967,0.06272162510356408,0.02529807814434732,-1.648067787679008,-4.0903156875911675,0.8983362793492418,-14.456962026376651,-0.0658241806922503,0.1294784700654031,-1.140098506360605,0.6309242875931362,10.147474143596948,-11.473182781774094,-0.06998226620888959,9.18360498682734,-0.00869230398051596,-0.032067900781087004,0.009916521342939997,-4.185451521534849e-05,-0.02683912090532667,0.0013086928473831259,2011-09-28 12:27:04.214421655,7.980893909
49.01030370968871,8.41841630509771,115.12201166483571,0.05310521719823679,0.016215505325280207,-1.612375003362809,10.908717263221801,0.06294531092159664,0.3154085493702736,0.05019272852612333,0.2130774173726309,2.015752191209888,0.7228703407087997,9.511563276869953,-5.4959761042216835,0.047850762766796846,10.891031403963607,4.584833541579694e-05,0.02082316582869888,0.008868243117053936,-0.003220097778625459,0.0005438459502185356,-0.007692132533497525,2011-09-28 12:27:04.324260395,8.090732649
49.01154932883017,8.41794195034076,115.60959907011562,0.03802389282492704,0.008951705524487708,-1.6277274493827858,-14.487555072102367,-0.9833236144081953,-65.17847862477814,0.1141110495708079,0.04638398495922821,-7.512921764190698,0.401934953575655,8.738601946030117,3.353587975883861,-0.027273972206035627,10.153703738599281,-0.009234805746704634,0.04382381714761055,-0.006936744608376726,0.001899253117338619,0.035910551052331,0.005377547995349993,2011-09-28 12:27:04.424278607,8.190750861
49.01356962304045,8.417928443241161,115.43891499218424,0.058400498587844095,0.01930425089204813,-1.5168388424143757,4.207265352421699,0.21359998544083775,3.2987303106270196,0.04525606955284057,-0.10063518055797646,-2.1419061903573016,0.48349323406362144,11.62712731568686,-1.3768922387800133,-0.36179979267787915,11.056807614210634,-0.0016587896066248223,0.05221236571203221,0.0005583209901740165,-0.02922903527970296,0.007063528000144157,-0.006225929594769077,2011-09-28 12:27:04.524616128,8.291088382
49.01088869292513,8.41782895103853,115.4428007673714,0.03184122706504567,0.028896869558592463,-1.6270877127435814,-3.6787733287652715,-0.284925349229217,24.897537390321506,0.025844404828343354,0.46618318150738347,1.1112718784254243,0.9880090851901888,10.205453826283541,1.1787687145958237,0.22780408592556242,9.912651324976297,0.0016905273684033292,0.11196248223854427,-0.007396446952517313,-0.1441551769783218,-0.010662321809220198,0.02316398696970502,2011-09-28 12:27:04.634290288,8.400762542
49.011284209240905,8.417950831557935,115.29199934709794,0.041464845108397236,0.014525027852551976,-1.6429846203449268,-3.1367995183253425,1.1453400811738197,5.8699860475707855,0.10904842742160989,-0.07826926902622945,1.4021310161736567,0.3653533663587995,9.76984434017222,-1.5519206631452829,0.6659785317609683,9.607563297772899,0.012061939066857834,0.03393401889293418,-0.0001326953801630453,0.006475046065933672,-0.020746324684713872,0.0064827558419727396,2011-09-28 12:27:04.734275345,8.500747599
49.00861824748279,8.418027759304042,115.60289552159726,0.026027683067157296,0.03187310690989762,-1.6125505884089397,3.526948246608039,-0.41825914070503867,-1.2500749693471542,0.019719114986397904,-0.020517008540979154,-2.2545747394516518,0.18350720557180758,9.784321329493345,-1.333060060103532,0.07444128763051355,10.167465344530822,8.032928682177778e-05,-0.017897234407134525,0.0026526588315747162,-0.012840089760067105,-0.009553318620928009,-0.010667678663374232,2011-09-28 12:27:04.834313435,8.600785689
49.009826919602546,8.41804567234102,115.81359361204065,0.09737300588201174,0.0289788118050688,-1.6433429033390168,5.474533080926949,3.703175656631064,-20.281117225264342,0.15268087399251126,-0.0109265677660286,1.0774472539295041,0.4551989263346832,10.81128199710676,-3.099175420338125,0.23851524469095303,9.549235230333418,0.008435271987583301,-0.032436875808435406,0.00046742748232043616,-0.0029378656073632266,-0.08036500261929527,-0.0024486567366367802,2011-09-28 12:27:04.944307308,8.710779562
49.0106991271829,8.417838644627471,115.77321031661606,0.03660313380457059,0.019713786482998725,-1.6317796707012477,45.23946838728351,7.633654360635011,1.9860583806846848,-0.07162537410800048,-0.08526522048553878,-1.4544629358449443,0.8304987411271699,8.952943815739674,-1.173884938375544,0.10488206269557748,9.648584108606839,0.012986510381888045,-0.023875894517602983,-0.0009306480989675095,-0.001767825962605539,-0.00845524582167829,-0.017498122752029218,2011-09-28 12:27:05.044564310,8.811036564
49.01095314438995,8.41787464915874,115.70240963891257,0.03407402905247248,0.04431542526028618,-1.6401804443684698,9.637609855477153,-0.20164917515890426,-5.815802572030794,-0.006020940021816194,-0.07917339678278447,-1.3317457080920916,0.30719132517383313,9.606027038271728,8.161628195740553,0.08953942094019932,7.338550452599314,-0.04155671415482236,-0.07862545230715343,-0.0704988130029516,-0.01681537135255045,-0.03540762891972636,0.007254199750930966,2011-09-28 12:27:05.144314842,8.910787096
49.01048502731018,8.418422568610898,115.49965865806983,0.02640708079325238,0.022167289744907274,-1.6250185299200683,1.4447628286662944,-1.0494673783175528,-68.6407040794869,-0.05910399576586815,-0.3362424010766086,1.274329281624968,0.3644242345208171,8.973007374512173,-2.9928692752789656,-0.900256116120829,10.242723847786763,0.005902015093143611,-0.1286254501689916,-0.007680936085996289,-0.009664720527829053,-0.008540214673767307,0.0031194281438517535,2011-09-28 12:27:05.254345688,9.020817942
49.00921661211835,8.4180378856487,115.64465852893841,0.032929521922047726,-0.01903267803692681,-1.6107782684589642,21.904890196170363,0.9345921131606327,-6.537528014013171,0.6223513197715123,-0.051327379455710205,1.923422877451507,-0.3513927121122584,9.568861995658134,0.038367117570670795,-0.019262263630603467,9.8370676597156,-0.005312175797404691,0.08322733332986378,-0.0037487717336101736,-0.0013638231640595191,-0.02740987223738996,-0.0047369216710617685,2011-09-28 12:27:05.354354473,9.120826727
49.0109276143803,8.417998029846254,115.18974660962229,0.05116314740555236,0.019162638817984915,-1.646364702413669,6.686138609205823,0.41909174503053753,8.022000670715673,-0.010042888405001362,-0.0061608853493547045,-5.121667090415695,0.3031581702422096,10.159485723036656,-1.7616257061731724,0.21621720346358597,9.960386735214676,-0.02313235808146132,-0.020015395298865542,-0.00726038602336919,-0.07688078683081415,-0.0037602366280358682,0.008748604235818335,2011-09-28 12:27:05.464339559,9.230811813
49.01150078319198,8.417911120836846,115.55780349408954,0.04524308299316663,0.0226610426992622,-1.606931938596087,8.55616792341763,-0.28756321501237425,9.436107500409012,-0.00635126531056947,-0.00913727426961759,-4.747473315434732,1.1943037285811076,9.270232935300097,9.772643939712129,-0.15586309414353944,7.253159901582228,-0.031320382081346444,-0.02840052944260838,0.004507003126956159,0.005515345349902768,0.009631374834793437,-0.010179714180691867,2011-09-28 12:27:05.564447935,9.330920189
49.01336990945597,8.41793746340503,116.3394500865301,0.0477195918418546,0.015931996955012358,-1.6121135902301662,-10.127490267281132,-0.10826818335074709,9.14423578706361,-0.040514572362306454,-0.025483397810207656,-4.2723388391957435,0.47578437008331353,9.897486802051558,-12.540697077745378,0.009927490052551318,10.099575948170653,0.007499776650235328,0.05297826591362576,-0.001433740538626362,-0.013757297476823917,-0.1522560095184568,0.006002534727059352,2011-09-28 12:27:05.664409790,9.430882044
49.01167726001119,8.418001935062192,115.96965798810878,0.04506496566365296,0.06863991829478822,-1.6021446610836045,9.699453860592863,3.4726681720398043,-5.825464253014797,0.021389493073894275,0.08143082108260974,2.676913603801899,0.8266615521582981,9.496701913906945,2.0632658445370455,0.1952543889241032,9.924701558024337,0.01675895822459999,0.027440714924756596,-0.0030533383957628644,-0.002507495984083489,-0.038126072028259336,0.0008861716337499161,2011-09-28 12:27:05.774396873,9.540869127
49.01110367417821,8.41785717616842,114.36253188239613,0.051576042601074394,0.00991417559308546,-1.6335773179238078,8.823175415465723,0.7336691705950458,1.780481502300186,-0.030491071103989145,-0.05651171476536402,1.2193025733074558,0.3081952841851594,10.033195544077937,-6.729175744610172,-0.06334479977394276,9.506874337593384,-0.007334360667214853,-0.00773400396620971,0.00428788402584304,-0.0056528889178328705,-0.041972045353248534,-0.008387980111485017,2011-09-28 12:27:05.874457817,9.640930071
49.010533152275364,8.418182688633612,115.49025554019671,0.03425474390104511,0.01953111231385788,-1.6120020923649625,-110.568475729295,-1.2088358316168857,7.479622919917305,0.12435276416057868,-0.007468092405287105,1.1302725946811332,0.7377814708343355,9.992011557935502,2.3385760902458204,-0.04412140882580274,9.593694804003253,-0.016939831175150733,-0.0023182187677118077,0.0066318800985539295,0.005667479616951032,0.022091342747357884,-0.009042756700426154,2011-09-28 12:27:05.974453410,9.740925664
49.008873565948015,8.41796377094157,115.88501038845685,0.0402012396236605,0.021324539606187964,-1.6511235779462337,-4.886193617487822,0.3792532738945775,-32.262121076561506,0.004315131772678756,0.06446953662549959,-0.054956607893968445,0.4418057172070321,10.46741288324237,0.9167661326724774,0.17837231946921445,10.12341322456373,-0.016101373283355196,0.006298217981089531,-0.021900194852855666,0.1259387622479126,0.020507665278656984,0.01083220852121929,2011-09-28 12:27:06.084586973,9.851059227
49.011897096964105,8.417874568939077,115.17594090973061,0.03346388481793005,0.022596975742325144,-1.6420823618227314,4.295474589930659,-0.3525679273983232,3.306494349754693,-0.11132271991772846,0.06821734106583913,-0.23796731150359754,0.1533537857286197,9.956100898661132,-0.924035358093839,-0.1377604772524425,9.400292077138879,0.01595196882342949,0.10057287633093961,-0.009087043240067118,0.0285323314807991,0.01766436932017116,0.0036482128457189927,2011-09-28 12:27:06.184463477,9.950935731
49.01153833025892,8.418017989320433,115.61846467091478,-0.11743731181048991,0.01225658142051739,-1.6217428434228836,30.81903447906486,0.007711307671307053,-1.193891471556771,-0.11104928572560266,0.04448162407911513,-2.4513206995015007,0.40267208852721686,10.166424062486207,0.600125658166855,0.03405291116058826,9.776497029885455,0.003438454349292467,-0.09786784663875424,0.0020205015124086425,0.023545272116122055,-0.021194875352119863,0.03559865988406418,2011-09-28 12:27:06.294432312,10.060904566
49.01065332067422,8.417999639424472,115.68326918711094,0.050286251255067305,0.01092806650598318,-1.634503651494621,114.53770655260547,-2.259084291637625,15.961823012765516,0.09658669109782994,0.022659309165391828,2.4043603948161523,0.4010093931554373,10.016895674378416,-2.2192289360832635,2.316592454843308,9.479564114906509,-0.05177033356261986,0.022434341514475205,0.006740579195092026,0.008806756061704458,-0.004123246001959453,-0.034265765588203136,2011-09-28 12:27:06.394430829,10.160903083
49.01037503223129,8.417938833611808,115.42739662037798,0.049432925887001,0.017231487105585523,-1.6185100691796621,-9.095260825214531,0.12550696326568292,2.7472868649348703,0.41025391073499295,-0.07885121534097113,5.0730469421667586,0.5797972581544333,9.590796251134662,-3.486207198696855,-0.3263637181601473,9.587764910209144,0.009532504734574988,0.0286222985637021,0.008935376662756511,-0.018129548284875313,0.1724415581547561,-0.003401771814099338,2011-09-28 12:27:06.494469240,10.260941494
49.0115807073442,8.417831899281516,115.92294355077178,0.04281100219192286,0.04940383683824877,-1.574097411627729,10.209755559309002,-1.635037301630122,-6.333200917492964,0.06770471275287272,0.04031700847499849,-7.921714159467313,-0.8751885398264663,9.988587290061888,-1.777463611192658,0.10631210679998826,10.197754138295625,0.01254976191452875,-0.0005903073646672196,0.0034307066676020383,-0.015359313847021654,-0.01050289322105328,-0.0025700173355841715,2011-09-28 12:27:06.604529352,10.371001606
49.01117086869901,8.418038497315788,115.76486494172522,0.05024192868205594,0.00655869033928573,-1.615647306631096,-17.048589214364476,0.15518273599178256,14.217316367686044,-0.0427008834883518,0.01225187704468133,-1.445875779586836,0.28913638358647636,9.989120825362866,-0.446359039935571,-0.18957482363784717,10.497051480508278,0.0023421238541040225,0.0031829176538549437,0.007095914570363136,-0.05034661686549036,0.03610382868460134,-0.005667102501712495,2011-09-28 12:27:06.704486151,10.470958405
49.01184567052578,8.417790095316585,115.52491132457448,0.027478922692429984,0.00990665742130345,-1.6829582840835027,17.279892383345803,-1.2451717728843439,6.578722589587515,0.13317822096496174,0.11683371116909548,-0.1276770438815111,0.2682556575013881,9.825287228035231,1.264646707535127,0.1166379701099006,10.209010454369457,-0.01793843609293595,-0.01730922688469046,-0.00469602931467057,-0.09153578579553527,-0.038470622856070294,0.013073504342474798,2011-09-28 12:27:06.804482681,10.570954935
49.01107637381215,8.417928527764298,115.86186745506672,0.042539736997385495,0.013945812742796125,-1.6677904825356933,-2.0623339042677795,0.19603455437572836,10.819344023420289,-0.025547906349739066,0.031085083093980437,1.80246381268724,0.39797150779349305,9.33269352886087,-3.22494698877383,0.4788603798759374,9.756919153276455,0.01520186524537193,-0.03830906301125444,0.006943808216862124,-0.015439995379774382,0.010776479404761972,0.005155270931271291,2011-09-28 12:27:06.914504196,10.680976450
49.012644801162494,8.4179482116315,116.08241352812725,0.05533615770390997,0.012716455176732212,-1.634642625244656,0.8119055696295057,-0.06622459656077942,-14.068319798042443,-0.03068812387782443,-0.06675197747036547,-1.7037343496417645,0.30823616877097837,9.727548731409854,1.8408100004679877,0.7341059545867686,9.192759056160455,-0.003100557080436993,-0.011460323770347346,0.018108422706808913,0.020638029556976627,-0.02610238272302878,0.006061386187658059,2011-09-28 12:27:07.014619922,10.781092176
49.00938612940468,8.417967177488585,115.81935424130182,0.026631164806416294,0.01731168665143302,-1.6922155725090546,13.926980881778968,-0.44762210064400126,7.008668622384129,-0.026194925584862215,-0.006710514087231357,-0.3730247379099205,0.38319890340685814,9.73542184039778,-0.5689259198805392,-0.169095606466936,8.647838474341542,-0.01329010329188644,0.007620039320273243,-0.007920726284637162,0.012058558673530173,0.01973983045873017,-0.012642175753627532,2011-09-28 12:27:07.114640402,10.881112656
49.01121365324238,8.417906199165222,115.67020308452099,0.03988122613383172,0.013950774021199038,-1.6498186781434228,15.096430610490202,-0.5039407885789746,-1.559932241798506,-0.5678324986101154,0.07510169526826889,2.8315056589876195,-0.7124582675133945,9.965320327293583,-1.5379046906879221,-0.041023760042068154,9.664674946089166,-0.012652365814412382,-0.04105743965846979,-0.007908811849598994,0.0864878375707563,-0.006326162777392471,-0.002777206967821466,2011-09-28 12:27:07.224522008,10.990994262
49.0114252338007,8.41809077903562,115.3229593720601,0.045491347566983,0.005062301640239087,-1.6149703879644692,16.133641171552764,-1.066686389540613,-8.457903927076243,0.02950541769838533,0.3695382343836753,-2.910015207065904,0.5930491355920332,9.584887773231372,-3.32736171422,-0.10923743633111822,9.243589961736184,-0.1057753515450833,-0.029977832447204335,-0.01493964535935332,-0.013621231243452638,0.006439291021472058,-0.003562797034724701,2011-09-28 12:27:07.324573254,11.091045508
49.01044749097403,8.417961502840667,115.61262691908641,0.04957903659426463,0.021912432604188955,-1.6286763117219853,-8.868166528122874,0.69730234358652,2.0099881393447396,-0.14643397023959415,0.14854783192070614,0.8830174646414438,0.20689690421994422,9.825847844048333,-0.20760799932679205,1.7858362514572401,9.933835239973305,0.008803815557241284,0.016098595654670023,0.0015148857693640832,0.002329104010563996,-0.015776348581375735,-0.004553735563592055,2011-09-28 12:27:07.434565362,11.201037616
49.011129071741806,8.417947333375913,115.68763327943876,0.04684820254755535,0.01650521285382936,-1.4276207783795225,10.110982296574493,-0.1972890726560007,10.749844983539578,-0.10555767427652137,0.06152889808480823,0.8421541697721713,0.5349623849266616,10.24465087241237,1.337582410043048,0.02725300541917338,9.614238586991267,-0.08012110501025833,-0.006010434183200607,-0.006874979338277591,-0.03580036198592388,0.0031065821960277796,-0.006507952482712371,2011-09-28 12:27:07.534764827,11.301237081
49.01118524369297,8.418001749331003,115.58987071576857,0.04162837591202294,0.014531645507156148,-1.6407476147823796,3.95533897170886,-0.7907137675644162,19.50628500023281,-0.031990537312755786,0.025183080484268563,-0.18580242580917616,0.5326568144906265,10.250408463888553,3.3625285436752095,-0.22409834686688276,9.676446551777065,-0.011760907779500125,0.018928915625517708,-0.005206663585376648,0.03873685307902536,0.0016802771106030619,-0.0100815167688419,2011-09-28 12:27:07.634595703,11.401067957
49.01077874476016,8.41799583423435,116.95733388020135,0.020356651732403187,0.025191632110648524,-1.6540787227934064,13.173816391871393,-0.011892991973502524,4.563518924927113,0.049301990352477155,0.38428351154599955,-4.091865686476815,2.1797789657143616,9.036848721101038,-1.1487989497510567,-0.13517698805224507,9.157101326679594,0.027048370803352224,0.0012802510310975664,-0.0003719695248000754,-0.004735289095504569,-0.011489499500076498,-0.0024822843396616807,2011-09-28 12:27:07.744592123,11.511064377
49.01115651481297,8.417983115647251,116.75111726595811,0.035584601231605846,0.01436815099031498,-1.5768325627319832,70.80712901719816,5.537799650180835,-14.570642849186381,-0.05590337275886803,-0.009434686774522593,1.0906741545921932,0.4919979037100507,9.889449524280872,-1.6591361291275106,0.24022876669585339,9.624754396312156,0.010135020014850614,-0.02773773142166917,-0.006879395197486049,0.0036691195288115477,-0.006312257759771956,-0.0019404814028165544,2011-09-28 12:27:07.844591126,11.611063380
49.011213316015755,8.417969513538619,115.36243723622736,0.025671584855505046,0.012307021664879788,-1.6079894476510936,-6.185149268226627,3.8414127156609483,-17.439770548382906,0.020646302054331364,0.03388023564295681,-1.585443071025502,0.4614801014687104,11.027435769092673,1.6589965383581238,0.22523719824352634,10.277336369260679,-0.0011264945440910938,0.007714904838985446,0.0009616034048535612,-0.009882210489420428,-0.022045992674054382,-0.01325600844114796,2011-09-28 12:27:07.944605696,11.711077950
49.01077154347247,8.418015209602183,115.34325256420138,0.053562558852267385,0.015461509234384148,-1.6546749286080253,-22.329917103443602,-0.9568130066922871,5.334100565877847,0.37764892864987903,-0.03338577886613045,-3.577449737557717,0.6005124882441619,10.040103416924861,0.7581002692069662,-0.36785601374209065,8.267537456229029,-0.027822414512483823,-0.0250904923574132,0.002795108380684971,-0.0011555015130035678,0.036499321787788044,0.006718587123344678,2011-09-28 12:27:08.054869072,11.821341326
49.01120810368855,8.4175597398425,115.56828161940048,0.041839699975299155,0.017432009360179867,-1.645403630561199,82.92195679904773,-0.14070423380942898,7.924614348585362,0.4851635727900406,0.08915335647433666,-1.571752168427134,0.523073262317221,9.411348399139444,-3.234351433172382,-0.023068752134079024,9.818490335026185,0.0024292560517417553,-0.005138413416923242,0.010255190584952254,0.0034123118246496536,0.015738597482203204,-0.005369803178014611,2011-09-28 12:27:08.154672382,11.921144636
49.01134624920696,8.418050128884765,115.33426170796784,0.05777050841416855,0.025478867002312035,-1.633709694263725,-0.6800235304304953,0.21155396242291358,-10.537270913922967,0.0010022880606389874,0.343291898418581,2.8241647918199937,0.3405678404419235,10.055574266123962,0.24560516994184128,-0.5713752261104902,9.822337051116412,-0.013687575229636652,0.04481561536862675,0.0014544477643116376,0.001535592327243576,-0.22465801110807512,-0.008891695434689038,2011-09-28 12:27:08.264635470,12.031107724
49.010969790493434,8.41794818144578,115.25074392812097,0.02328971254432537,0.027002693112631225,-1.62489593302935,17.863465672559542,-0.7526952426715433,-1.5783418717350595,-0.34228619284280515,0.08693638349304503,3.50565532681179,0.4032143306415795,9.170477007666538,0.5821627405328037,0.7528742529526772,9.437403720827191,-0.010892317948513686,-0.001530242785510936,0.0015001360447970272,-0.006088574998963256,0.03214453099964634,-0.004281768338278048,2011-09-28 12:27:08.364634034,12.131106288
49.01058696335725,8.417918172596966,115.43221367823921,0.03374652723497536,0.012611205314261376,-1.631444499631075,15.245395887242337,5.054756355314294,25.21246352449521,0.09237507985260422,0.050743420955174395,2.4052469360923885,0.5580738248313908,9.269755365047548,-0.2576068629303758,-0.11408669232169072,10.971491172629676,-0.03512797625947277,-0.012268485333212674,-0.004590990399071611,-0.0015311951535786515,0.01965469170253852,0.01331833596849625,2011-09-28 12:27:08.464655107,12.231127361
