lat,lon,alt,roll,pitch,yaw,vn,ve,vf,vl,vu,ax,ay,az,af,al,au,wx,wy,wz,wf,wl,wu,timestamp,rel_time
49.011865860499576,8.41799767581755,115.4494441756943,-0.025077979507313913,0.0009659257967385062,-1.642225821152804,-93.08388498170694,-0.42695103129660605,5.975110179569939,0.6019039257457248,-0.09562926588675728,0.29469740969253505,0.6467081751498208,9.239113075711012,3.6487253191881903,0.4372527478425352,5.9893599738394325,-0.037039492216848095,0.03422254487242971,-0.0018965929866698438,0.001629061154986143,-0.017746834811371032,-0.011611352928294516,2011-09-28 12:26:56.233527746,0.000000000
49.01186217948241,8.418032550143634,114.72758165483592,0.04173127341351737,0.02678723054409083,-1.6151605122293824,45.94318286330869,0.8202316770730649,19.02689918703766,0.1874029047832575,-0.013454671812450816,2.0972397044394686,0.9257392093837954,8.639647925340746,0.95339519542537,-0.20693574122913053,10.14071494081617,-0.11465103786774218,-0.026301898067580598,0.020296408413536374,-0.003169446917251212,-0.012872860458147955,0.002029691701778068,2011-09-28 12:26:56.333491894,0.099964148
49.01066130716529,8.418005453195484,115.32234613021151,0.031973333753197664,0.014234379754618734,-1.5221089688118241,6.930512954871656,0.07164748488318928,22.352363802428812,-0.02339666630384972,0.010953264184784194,-7.056218801614624,0.33854633973648873,10.261814070019225,-0.6907587574335621,-0.40967300001506624,10.451165814837307,-0.024100008666755286,0.011794645050512406,0.002209302778303256,-0.020551301265061623,-0.02806945615804364,-0.0067795424689375775,2011-09-28 12:26:56.443536100,0.210008354
49.00978348857472,8.418049581073221,115.08519194209461,0.04540301045934829,0.017563539514225193,-1.6470479270319263,-17.460402071546618,0.3623143036299752,-0.3602072463058086,-0.06366322983277853,0.1315448144832571,-1.2376136424267314,0.44069892981818415,9.866923140094714,-0.5237940178269296,-0.10001556717968244,9.726753264503632,0.06301560678706253,0.020304431645970466,-0.005454670669442593,-0.02297814633366818,0.014812706932825156,0.020634950722927238,2011-09-28 12:26:56.543585625,0.310057879
49.01145236739611,8.41800444962074,115.17484794074099,0.044117098540343694,0.012728444644413365,-1.6279278766833414,-8.592422956910742,-1.5721992628481813,11.436756017618274,-0.11135309844573928,-0.02037419728993088,-5.457352366536347,0.6315651472128335,9.530138708333967,0.31395439300248995,0.035659421181443746,10.243477501073928,-0.029758456068175277,0.0216294176700005,-0.013956970313210929,0.013586098844458624,0.012225964470143267,-0.004615304602164209,2011-09-28 12:26:56.653532376,0.420004630
49.01458662125602,8.418139920278477,115.11883362890703,0.07270330240321578,0.014289091816165677,-1.6427078543331628,-23.45953151588745,0.06519853122813146,9.648449572299272,-0.09345543451322663,-0.03208904461796735,1.4678309266020615,0.7711426752989292,10.56119128970733,3.7922183532321485,-0.05094880544000279,9.605857492841995,0.005287157433301512,0.03009952135072694,-0.0160393749362216,-0.0097180947569395,-0.05042672282185803,-0.0016326295898460288,2011-09-28 12:26:56.753572489,0.520044743
49.01128860474572,8.418011524968687,115.05935559124082,0.043297456188205935,0.010829611128057044,-1.625948637158023,-3.660742727911958,-1.3625209247087589,-20.485825580339046,-0.10599618255529042,0.04322656339217057,-7.848551535610252,0.3803373817650674,10.117022592736976,-0.9209980217492176,1.9210346359075834,9.812423385049177,0.0029086071282361232,0.009412179543644473,0.020369251096891857,0.017607426374101825,0.017473789550012157,-0.011309525446321377,2011-09-28 12:26:56.853543788,0.620016042
49.011994332651255,8.418047658020399,116.28344057436443,0.040217950316061124,0.02541884604918984,-1.6215795196027134,-4.734636491209033,-1.2641263222320864,76.89879363504808,-0.19544787984404818,-0.01801805790554346,-0.22962285101397353,0.3797129131191724,12.058661841850906,2.0930716241401726,0.03805531190103364,10.796318107774965,0.007235488871199653,0.004197888342874469,-0.011047561325133053,-0.001166294592715121,0.017234234058988065,-0.008054608467443375,2011-09-28 12:26:56.963578900,0.730051154
49.011888063163774,8.418044015688327,115.25944868815063,0.03942404230815988,0.02557005807788278,-1.6556201505434904,9.26135540444492,-0.6924496913825678,1.0708678561875935,0.03323611382992786,-0.08821467271299888,1.0824525655713508,0.46552252030414076,9.461734377321829,-3.0638908491459778,0.8469138571036672,9.368445987006442,0.04323426823356265,0.011378848088354147,-0.013691398154736212,0.019964801725502156,-0.01839751847182452,-0.004868139354696746,2011-09-28 12:26:57.063774129,0.830246383
49.012446344098215,8.418020745095182,115.08312273130241,0.032168467912358306,0.019518321473370567,-1.796386123997107,-5.051178097984206,-2.700605332080486,29.951517896266356,-0.025995643855412656,-0.09200753123775929,3.074578297199867,0.28612147961894535,9.067008705889455,-3.064251811521442,1.1152931148177634,9.95924008388142,0.03158340040229053,-0.020444659766108746,0.003863061011940668,0.16836251593917947,-0.020726368361179626,0.0045008472176130895,2011-09-28 12:26:57.163550569,0.930022823
49.011904905138096,8.418036336526804,115.70723202542631,0.043647243442893884,0.012437948701294811,-1.652129974923574,4.25338648350391,-0.8757705839263626,30.835281388646898,-0.16864457427333307,-0.030105334648786702,-1.027465465914142,0.28608286786618614,9.320992252947441,-1.6345467674203218,0.0386466019484244,10.395044054329661,0.007561700409503134,0.015767310824933062,-0.01388752075331669,0.009684039492368958,0.057640272300869926,0.014559170406404517,2011-09-28 12:26:57.273579679,1.040051933
49.01324301973097,8.417995748969096,115.18972785621904,0.043704548379400486,0.02764771697152134,-1.6479904498506466,-9.034003797135352,-1.6539790842234958,52.09560220889525,-0.1327715328667959,-0.11498257232720285,-2.357758234696341,0.5846056384613176,9.260551488096636,-4.048756517131131,-0.34631392713699766,9.786611254118306,0.011933432940961379,0.06791695158119705,-0.003561584011064961,0.06621626468462805,0.044272124921681776,-0.019636265843684525,2011-09-28 12:26:57.373597344,1.140069598
49.01151740918149,8.417980012092368,115.36246075729012,0.037885799362724876,-0.0019056891657881284,-1.6212196586888008,1.8237864651222182,-1.5677053147724862,19.89524229629952,-0.0873354921623511,-0.43439420426597386,-0.5421303932313583,0.31295565646967327,8.36917184471898,24.2408610156847,-0.06286103109845409,7.523457249212711,-0.016171507101027216,-0.02983522270505247,-0.009031676008175643,0.008084688479189419,0.01376842574023075,-0.00786562406911551,2011-09-28 12:26:57.473661315,1.240133569
49.01190152465809,8.417676994462697,115.3309645993634,0.03508441037585466,0.013749251861930524,-1.6868882494254351,-17.634085759561,0.011905620136820394,15.429255931806047,0.4330184390883491,0.02169778945584941,2.5467230469820477,0.6520867906297797,7.274533117486639,0.05388385604369361,-0.11175854791440934,10.702230364806788,-0.00396196133518777,-0.007488609188291955,0.0020085714676236497,0.012201349481738006,-0.11034109335452086,-0.00782920951066059,2011-09-28 12:26:57.583688333,1.350160587
49.01188155216368,8.417989704464404,115.03433022999106,0.08097391035234944,0.06948937822649617,-1.600819197319772,-13.786657073477254,-0.7091521529176016,27.697402225105485,-0.10162516939818292,-0.07907025622860814,-1.866722382162932,0.3635917006625783,9.945903263288123,9.023446544800738,0.632376617296442,8.44047143044215,0.014995153046205668,0.08003475740618707,-0.004284469218202285,0.046229343129590775,-0.019543082787961415,0.07101353490687684,2011-09-28 12:26:57.683612602,1.450084856
49.00975743253866,8.41790991442308,115.83976392284221,0.06464404290084838,0.005231321697898398,-1.6576544682780732,0.4406208779053369,-0.6069709539489612,19.701371286513186,0.13882221533469416,-0.050293797371227404,-19.498310101568183,0.9201890344144695,10.253682807920125,3.512255504632045,0.1230653087675255,11.933229553198371,-0.0011290746182358756,-0.011075286335781765,0.010556469538926538,-0.00650980152768835,-0.0027165596492850393,0.007519389101558478,2011-09-28 12:26:57.793661348,1.560133602
49.011959455665895,8.41793684065634,115.1043679842823,0.059336350446819355,0.010201546257639419,-1.657800173264664,-16.937234939059245,-0.24601613327383764,-8.37608830013555,-0.10350766351941997,-0.45823589539436116,0.8347634425428381,0.5012412205466252,9.50654311934304,-2.1673539696618556,-0.0004317787812133933,10.420012918799815,-0.008940680365098158,0.03810211704132603,-0.056499158170523284,-0.026007610489615578,0.02125017598745404,0.003823753540939478,2011-09-28 12:26:57.893619611,1.660091865
49.011219711001,8.418060618667742,115.26465011172758,0.05478362819550906,0.016622432208817196,-1.6249076361930006,11.089314004448562,-1.0181807744259297,8.058136434071814,-0.7413837746978824,0.006425315464436136,-1.9527023890520745,0.6413212417797132,9.897661970952274,0.9034549655697515,-0.22111670408630718,10.575019900143282,-0.011563391841399555,0.007315420863033221,-0.005194213527764241,-0.050290655861089696,0.016766028280530934,-0.015783703612419334,2011-09-28 12:26:57.993649633,1.760121887
49.01130007620009,8.418072301441264,115.43428261705554,0.052890772360842296,0.012565794178089357,-1.6522979669147082,-1.7112835590696172,-0.38840399464033365,-37.8868026794415,0.23810380927493996,-0.09760254309942466,-2.263991641964903,0.18222219363860642,9.295907491697017,2.5829213861310665,-0.020528642192435054,9.437938618175876,-0.02446324806735789,-0.04937005889353646,-0.005402867128112037,-0.04446931981879581,0.12502309147759239,-0.004853518038415482,2011-09-28 12:26:58.103766710,1.870238964
49.00863318342326,8.41796261995253,115.43028842083886,0.07239154784056662,0.024980866055753205,-1.6831198311203586,-18.38492014683171,-2.1150056798555554,-71.51380232666224,-0.23443838762434283,0.1477170792315115,5.974385926113989,-2.129435767021819,9.734839934809626,-1.872771651415334,-0.03655992258548535,10.013066414755771,0.01389904105949577,-0.004313536297885202,0.008097254994548926,0.014088637087990973,-0.013312312907500923,-0.011099461450451709,2011-09-28 12:26:58.203726362,1.970198616
49.0118518202071,8.417954773273152,115.59205391856543,0.06486034123213255,0.012977218438066408,-1.6808962151211075,-15.119347981959434,-0.6758709476247968,18.11388816835686,-0.08008652279788812,0.00971546440121969,-0.7821273910466675,0.6222974678702554,10.314831424347194,-0.051048618666487106,-0.35107028330391205,10.07077719266194,0.0032382209715219453,-0.04935436031146257,-0.0005470787143544713,0.03243942708091456,-0.0033639070952682024,-0.017693550291046127,2011-09-28 12:26:58.303685190,2.070157444
49.01130657241873,8.417588746951711,116.49727486179961,0.04661321375954511,0.01071491901665244,-1.6469969851925588,5.284833918739304,-0.5924841474669331,9.091480487979721,-0.07358799871422561,0.020942434219539764,-1.2332667284413859,-0.4994563094175254,10.296259783349438,-8.22173530822861,0.020986371367965453,10.699971598547714,0.007644842036643356,-0.057779777656148924,-0.012312355985396924,0.024516791770287,-0.01475139561417492,-0.013198054127826042,2011-09-28 12:26:58.413702866,2.180175120
49.01190374470836,8.417974128732677,115.32083873398781,0.07245926121466309,0.013248545335477847,-1.6356502732963976,6.120889505417452,-0.962028115764992,49.80631258782855,-0.15531514018023818,0.032162955814476736,-0.15650928132366126,0.6928587841298327,12.191629238976265,17.68250263836326,0.15172311973502994,10.158553601255031,-0.0043969819206242395,0.09491403537913726,0.038955611848067916,0.0078634229887143,0.016322520758115584,-0.006866936801133085,2011-09-28 12:26:58.513921229,2.280393483
49.01224971979895,8.417935241636487,115.46119100672092,0.06451876897280327,0.009996791543123468,-1.4249551076408018,-34.06009523289519,0.7245076575658571,5.8260776859451076,-0.03795259618764958,0.059435056143952725,1.189827724006228,1.3525862728786715,9.750006094693157,0.39852574019797277,-0.17865559857814853,9.273777583102891,-0.010510386820804508,0.024444851058316994,-0.0026337826927604977,-0.04760583193186937,0.18961821794124878,-0.003977639933304968,2011-09-28 12:26:58.613752048,2.380224302
49.01122420687708,8.417913453098409,114.50156434908078,0.065341879862076,0.006320531550237177,-1.656196973613372,-54.57304216882949,-1.3156184781751694,6.324857787082626,0.07683722096188246,-0.11300391190286468,-0.5625734271159482,1.2467942463508201,11.419929309831472,1.3838021577873245,-0.4743294285657038,9.375986524700478,0.010181298469280089,0.013624656878643095,0.0055536162898240345,-0.012556541701618481,0.009335213447608546,-0.0001854368239371353,2011-09-28 12:26:58.723742913,2.490215167
49.01128922061736,8.418027808429486,114.69483660773639,0.0636277267924955,-0.014483233397228693,-1.6272478001155901,-19.97820985279949,-0.49870161335491586,3.451352564337051,-0.07885323247452755,-0.019742674086275874,-3.05468661928566,0.5826895638880685,9.006651711271596,-3.112219705205465,0.09977849304241362,10.003667548943433,-0.002134570283395842,-0.01716711850628145,0.0011712472718888546,-0.040127856755051164,-0.0198787062775374,-0.004925059588437334,2011-09-28 12:26:58.823737637,2.590209891
49.01221068240439,8.418032905842209,115.5415225659324,0.08819889955914029,-0.007409841203138068,-1.6470980420886332,-3.2575727551805267,-0.39023439107792407,18.194075690306143,-0.13668235024673303,-0.05807598927016238,-1.8925038217973529,0.36571732766301873,9.53364499976254,6.465293055006564,0.3376178400839308,9.864580302925923,-0.0313940641530302,-0.017855083473356605,-0.0014090330861840908,-0.00937827759655753,-0.059967844543550225,0.007920346251481726,2011-09-28 12:26:58.933783335,2.700255589
49.013183641694404,8.41799293773913,116.14409576673275,0.05360122714143034,0.007253243068102294,-1.66010848594134,-4.022141565047555,0.20296028925861176,24.35251642988619,-0.29415073370469413,-0.030544903447736964,1.3159291347461504,0.44435941790058264,10.925410460679146,0.23608711634216026,-0.35670802508654964,11.376039241052975,-0.008247197599956825,-0.050709287641068176,-0.0020318413547047083,0.010077513848968904,-0.10217910567365887,0.008108432412107841,2011-09-28 12:26:59.034022732,2.800494986
49.011942294072085,8.418096438477512,115.81308200010152,0.05403061636951413,0.0017102584191605995,-1.6289605665105855,-4.044240623774895,-1.340039939959695,84.47542072315163,-0.11605256543622638,0.08967193748506813,0.11411937739460698,0.6667909806930619,9.912553036387768,0.9340247392362188,0.5065613691599197,10.777572292357432,-0.0270225150267639,0.009653362833744966,-0.012709331475025076,-0.027437710452875245,-0.00327193122931898,-0.013605627223781957,2011-09-28 12:26:59.133779917,2.900252171
49.01183026956888,8.417980527924094,115.33146704738407,0.05742004900666979,0.003147690512882824,-1.6702499577715602,-1.3238323854680765,-2.590830060630754,25.28997223256226,0.019128468332422544,0.15793418420885447,-0.3069527934115054,0.2769584737037658,9.121173620266235,-0.5899503793071993,-0.07616210176049451,11.555509254686687,-0.01494182135944501,0.24654880935957044,-0.005448252914344298,-0.024141238858670318,0.01732202179775661,-0.008161450504768653,2011-09-28 12:26:59.243784998,3.010257252
49.01159270152887,8.418031273348626,115.33181637820189,0.057646695722722394,-0.0012840013570246138,-1.5458528963091984,-15.057334059435483,0.7999611408732051,2.277589306327089,-0.225441195089791,0.11758259278638014,-0.5451419199112015,0.49641540849262633,10.056198273271882,-0.5262435307950425,-0.34216495165716343,11.262571866299536,-0.05261986492900517,-0.09938706402029458,-0.011068405529731516,0.0012144218770917194,0.016642950193410302,-0.00571382494800738,2011-09-28 12:26:59.343770947,3.110243201
49.01113001234008,8.418071476619074,115.49215182210871,0.04629223210663539,0.007379649188155554,-1.6643413541891292,3.100305907487858,-1.20040552789184,29.20954275524232,-0.12383235264376372,0.1651290523260201,0.8657219648931818,0.522765894972622,10.273982124573305,0.4079288274781834,0.0010185222028174234,10.432350426189545,-0.02272333335726278,0.015748414108621045,-0.010520906207597578,0.005628698250051877,0.07194865872060299,-0.004371091551571979,2011-09-28 12:26:59.443835044,3.210307298
49.010840971466116,8.417823620821412,115.58319637274519,0.009128555738549461,0.010730710210240352,-1.6475608505218124,0.49934142518087477,-1.063920654316502,11.336054845858705,0.11184626076266765,0.0766724214501689,-1.4398877159448633,0.11059679542605966,10.077582691162313,2.7508484212603004,0.007137036289842337,9.770464825682586,-0.07014296459073686,-0.01662022377768156,-0.0024562589136088364,0.02938063517821502,0.01340734925827909,0.003930992724875994,2011-09-28 12:26:59.553991874,3.320464128
49.00985471697025,8.417952226568291,115.62645316438422,0.08549459322241855,-0.004146063522589677,-1.633809510117855,-3.29602746845001,1.1559016779234357,-98.71013223228807,-0.04008432932674507,0.08695419939445964,-4.938380132928039,0.10910388889253181,9.784316018485212,-1.6552971649263608,-0.2310065987225176,11.64042015447042,-0.019181020605275285,-0.014108009615252765,0.019826745028379063,-0.001465963350356184,0.003693945507549174,-0.06802685982737879,2011-09-28 12:26:59.653843215,3.420315469
49.011250596179316,8.41799716954106,115.6383026909774,0.05158069996865344,0.014583639024411395,-1.640743314104534,-2.965466319585204,-0.3014853258620058,14.03909231350735,-0.14602965426633815,0.11870444939351844,-0.24095026114075768,-0.39318190675486664,9.904467939042105,-2.623364468108499,0.48079054821063083,9.944222769087144,0.010982339711065632,0.006816490052168873,-0.007462863093879847,-0.04987232950900662,0.004171399100915964,0.001995864024438674,2011-09-28 12:26:59.753860752,3.520333006
49.010928069932156,8.417978376321905,115.17950933298707,0.04049470866287253,-0.0014329401201801355,-1.661853535123382,-10.685771993648236,-0.21599655476794632,-10.568199284285432,-0.03840948411265371,0.3020518676589304,-3.816126986613402,0.8736796074123918,9.63946392466356,0.10193955500579788,0.13883695483522396,10.157419396384261,-0.01308684485734811,0.015924700624862072,-0.0023772805906155953,0.019596357224849183,-0.013349884977764827,-8.417659250204573e-05,2011-09-28 12:26:59.863874396,3.630346650
49.01224565548387,8.418370548799938,115.79943539376023,0.04485814611699012,0.01710376614287137,-1.628293723049966,-26.277672791140226,-1.4596496821394416,-9.313101247652067,0.19951091795772213,0.0767578479384196,10.652343505203916,1.599943179118376,10.444640757356577,0.560352083929588,0.08697654332724838,10.166129188814987,0.014276198956580534,-0.003173919746162497,0.01215867504558062,-0.032373026844424196,0.013054163890701295,-0.003569176200112207,2011-09-28 12:26:59.963851763,3.730324017
49.011030281252964,8.418335934469091,115.56128742430978,0.04947761407957234,0.013261424085034255,-1.6384620236455536,-9.977222516420186,-1.904763018373345,-4.7465818834982905,-0.1593326197136547,0.0023498233401128762,2.0955407004456514,0.45251057068114275,9.197377963688012,0.7879811085402606,0.2887140131426912,9.248759739843333,-0.02656865714270084,-0.010326910449958756,0.0047270770568335445,-0.03242435489881267,-0.00846781963508194,-0.005299748354297892,2011-09-28 12:27:00.074028412,3.840500666
49.01161843431462,8.41801178342699,115.24254813558112,0.04532932886224203,-0.0042719370933671195,-1.6424449522241236,-18.07827931106065,1.8325256267471186,-43.52814426341367,-0.6001478622855436,0.09731516819233664,-4.51457078388961,0.21764135851609126,9.288178784439182,-0.7650324317522075,1.0013918159433544,9.36215622010108,0.016699664989495967,-0.020146164032088545,0.0016719571030267481,-0.002437659062987035,-0.09386765642893849,-0.018354044752646438,2011-09-28 12:27:00.173996786,3.940469040
49.010724454205,8.418205069384072,115.06353267393374,0.04089155413261285,0.014409325980114513,-1.6652296507238038,29.319055820847034,-0.5988489271787064,33.965630815556516,-0.04045946945648185,0.13005178435217588,-3.47210217640074,1.680022444941915,10.20785492990018,-1.314796131337092,0.2039640674536514,10.710110689131936,0.008348031091330465,-0.009844116053218254,0.004042321188669338,0.018745164395856804,0.01927529367087695,0.015312936394388786,2011-09-28 12:27:00.273894473,4.040366727
49.01136759338537,8.417985825690225,115.35560907940318,0.056755541794471405,-0.05419730736286329,-1.6769955119998197,-0.5915647125423931,0.16121194627101032,10.148024078154535,-0.18045400440262455,0.05568378486313576,-1.0400977075952116,0.41060410569470074,9.393651725796085,-3.2269610431171376,-0.1078017452744563,10.085887269507326,-0.012170869632137878,0.012899573657762571,0.013452913080912069,-0.026910434289608483,0.02238487884711729,0.0023694030952875664,2011-09-28 12:27:00.383878828,4.150351082
49.01255773610219,8.418036065900719,115.0223288312425,0.06374986916183537,0.012706250104594204,-1.735738602360364,-17.311656344839193,-1.0422955949184394,4.720346318891952,-0.0747353436960328,0.12019713715710513,-12.875809873306007,0.7390535119210824,10.052792101513687,-2.866767777979128,-0.3990730519941537,9.056614264511538,-0.009513220950614123,-0.01174036418463323,0.004082284788977442,0.014035430720667886,0.012785917291163136,-0.052459998599722786,2011-09-28 12:27:00.483881081,4.250353335
49.010995744694,8.418016964122003,115.57437104927014,0.03741992110808959,0.012104870485034641,-1.6640206768954156,-16.131284220984295,-1.6094246469484612,0.9450871708249817,-0.8823012155904056,0.09300741513213798,2.3996672500272984,0.8308986180934557,10.895325112749605,-0.3160851853660773,0.4291751379419143,10.717661942538108,-0.007829038836040428,0.027011162872446547,0.008142023411587582,0.00713396296746311,0.08815487706247459,0.010877421266180968,2011-09-28 12:27:00.583949445,4.350421699
49.01092496004828,8.417940906521284,117.34710543681506,0.02205296558180618,-0.003273207790764489,-1.6591675964507024,10.173073935685984,-0.3161172464131132,4.120808755563861,-0.20882860542419945,0.08206252975740533,-2.272655743119098,0.3273933920821827,9.755833001388138,-5.2228367943014575,0.11383924360464401,10.42042296145586,-0.04975523535533452,0.06224959136031857,0.011558266204186918,-0.04194373070098373,0.020377372531449958,0.020606816842086484,2011-09-28 12:27:00.693912003,4.460384257
49.014521412288275,8.41800094750869,115.25323703959319,0.033105023830444134,0.011629142081550966,-1.635618446721228,-1.702875209548937,-5.491090719419778,-65.14004048490128,-0.3850461611877282,0.21297087704970502,-2.345658432116079,0.5264111619812779,9.775506716833183,-2.1932692523285926,0.12524205184986123,10.140157395134743,-0.0409827658816298,0.014335815408505507,0.0013447968852103847,0.013711786455488314,0.014703190869528282,0.009584117569649228,2011-09-28 12:27:00.793936283,4.560408537
49.01070603971018,8.417957700036197,115.04726096992488,0.042922488250042544,0.02104029179928259,-1.6607444280122388,-19.075655605954232,-2.33383352403226,-25.690038358219866,-0.10742648769073661,0.07961279663673348,1.9044651939892123,0.32970664726074356,9.023888208963548,-4.570398599730986,-0.31673815113983433,9.732858157375988,-0.021286562434957128,0.009540605751179156,0.008878771619464725,-0.013346965592495479,0.008202559028654518,-0.003713654668309435,2011-09-28 12:27:00.903950402,4.670422656
49.01109928584908,8.418029865906826,115.66738581658642,0.01932248483257267,0.019279727040622658,-1.6563572161478113,-1.5544665636400072,-0.09546854806487193,10.384074818468962,-0.05905538633882601,0.01910083463941014,-0.13053331778781896,-0.14808970933715804,9.133924441293164,-0.6326426857844021,-0.04447722234908558,9.307149227145565,-0.03246615199966096,0.025138117022641827,0.008361473247151852,0.008277284338833013,-0.01891028373071475,0.004561213177640955,2011-09-28 12:27:01.004212992,4.770685246
49.01128601939046,8.417975115133515,115.64126267486728,0.023925962209855774,0.006414445225921052,-1.6525458817884557,-17.56314972547417,-0.25590039510361423,-47.53890521672284,0.05718289244751881,-0.02076869195545695,-1.1851192067510952,0.5471089443762298,13.655104377547936,-6.377033820322503,2.4606439492717334,11.333684922935698,-0.007174939738087789,0.02207757036747628,0.013490367054126644,0.01159470035217895,-0.27020248559309645,-0.04005665619309816,2011-09-28 12:27:01.103986475,4.870458729
49.01110335391012,8.418033551360539,115.38564031638613,0.02575253373869423,0.00935230835031918,-1.6534169121347444,-8.386182500574602,1.6651160229013997,-61.25181492883756,-0.03134501781550529,-0.02670524804887263,-2.258526639443111,0.4672465754612867,10.499764055358515,1.3201562253034105,-0.4477791305927214,8.984202694920878,0.07076604798686985,0.03251826774489948,0.012137893740510677,-0.02589929081654402,0.001434109179033402,0.004406404230517296,2011-09-28 12:27:01.214010292,4.980482546
49.01155830428806,8.417923165818742,115.39285653785632,0.11190225584689233,0.017853134559430887,-1.6775703376491535,-61.41583581459752,-0.6641744920021833,-5.816961306346304,-0.09844654039144722,-0.04008624271834295,-20.4629644309107,0.5782662223854239,10.23837594340757,-1.4813614595963904,-0.19011041197190043,10.20343486848386,-0.07321600400461391,0.006959708772059765,-0.028018532671711536,0.014121128042975321,0.022211961194206906,0.012997625464638573,2011-09-28 12:27:01.314000823,5.080473077
49.01126293697064,8.41790184337585,115.65912595823727,0.04635930611453653,-0.022901178247678816,-1.64239208844289,-0.40297486045915853,0.5122323758107785,11.013262260788906,0.09018838644283778,-0.04645366589276523,-6.320759263106649,0.19324905421561722,9.29162998387931,-1.9738835109016053,0.11683311591686833,9.438530979594578,0.0215814033330906,0.07809023923774178,0.013500144776865432,0.0018727509057563712,0.004220984650524212,-0.004584268356451763,2011-09-28 12:27:01.414000601,5.180472855
49.012295327046665,8.417892475715947,115.31929679117547,0.035504000739173154,0.024701749998072217,-1.6156746634568553,-36.67133848569218,-0.8059699556735991,10.72525398546276,-0.061323085314491,-0.07486176601069236,0.06017067924472652,0.18241571291724895,9.608810966444533,1.5184584654613884,-0.11451343026992454,9.657649232321255,0.06425497480464915,-0.039349043377491955,0.005797063143678886,-0.011446666300736413,-0.017423860189616537,0.013441298898542134,2011-09-28 12:27:01.524340510,5.290812764
49.010564350478354,8.417931945643131,115.71250462679062,0.06164929809248712,0.023215186054686417,-1.6015556137532598,-4.737889501593424,-0.8702265532367381,4.07484841711044,0.0048484873597344005,0.018487303201556397,-4.770548884122052,0.3638210632087997,9.360607419059487,-1.9905935784803601,-0.13560325539582813,10.741222590522836,0.023693936742080264,-0.02224679759698405,0.013113114132110205,0.035211014976041614,-0.02561491638605439,-0.003644462780399354,2011-09-28 12:27:01.624035231,5.390507485
49.01071563478167,8.417927611249993,113.21276139109276,0.03933770828049963,0.02298380999916737,-1.6211976019959613,-11.091907683541331,0.3875033743020367,11.211590535230822,-0.16995870397929633,0.17143205197348912,-5.7031167793710615,0.6159907747871143,10.11413305884297,-4.77110978187188,0.18993975211233416,10.395172764495596,-0.027748103460139475,-0.008482905963200015,0.012750571974003562,-0.015197153580002752,-0.033786945553636656,0.03262591333424555,2011-09-28 12:27:01.724069688,5.490541942
49.011952823609995,8.417972478648561,115.32923334123805,0.01691271419628013,0.03658020147508617,-1.6370742978018553,1.960962281832109,0.07283288418022349,53.900636920495856,-0.06642530800241231,-0.031085029352505275,4.658220139666171,0.6295214293718656,10.140411045197533,-4.563517149760109,-0.011166867291946074,10.114181280532234,-0.02233497538207408,0.18949973237930587,0.012856863210547454,-0.09063067789353363,0.024796072942039157,0.0009689153714553425,2011-09-28 12:27:01.834036599,5.600508853
49.01184290082397,8.418185480780823,115.45707151054701,-0.02430788226186892,0.01992058768398852,-1.6329077025619494,-26.106270582321656,-1.4249388080112162,-134.7463789129032,-0.15377994568561232,0.06792631672120125,-0.4539884224371158,-0.09759105377224692,9.690431375564906,-3.2251875746097287,0.04839109724999279,8.746939831292234,0.07830093624882198,0.03632920208099309,-0.03769425399448712,0.10185584981955516,0.036767061400220895,0.020162536970177607,2011-09-28 12:27:01.934048384,5.700520638
49.01147660027032,8.418009500676371,115.91334212495488,0.048205315910680384,0.015275305192177261,-1.6401840433387642,5.673727015175374,0.08164190369747848,6.754754475831617,-0.08317306717419226,-0.0020300381337302817,-1.2195795860117467,0.6104361738626178,10.25474288823568,-2.1147177503324395,-0.03372341080539602,9.662378144875138,0.0031249092009836407,-0.001468368384348091,0.00953372319923165,-0.02287113105103033,0.004162777770646008,-0.000419166070435021,2011-09-28 12:27:02.044251431,5.810723685
49.01049441563324,8.41798091348765,115.45401572572162,0.04148497328863199,0.0003559514224913997,-1.6622678765469383,-3.5212058581104952,-0.34437490246528585,7.520047157559154,0.004590044748514897,-0.40919642838894643,-1.0733438794282846,1.3485473181793934,9.27074521764952,-3.382940586399437,-0.016381438079526037,10.248366745285981,-0.16687382050674332,0.011903071786272652,0.017467465376419914,0.1099015807847634,0.023408002763797273,0.02984944639931044,2011-09-28 12:27:02.144057779,5.910530033
49.0107526764367,8.418042138940097,115.671350982901,0.030885111384007756,0.046000343779099895,-1.6301461154930632,-8.904073987210422,-0.4423553649489246,15.309223858300117,-0.04679569041463276,0.013595992433868408,-1.7503150559027945,0.8177869586006268,9.061971433427033,-0.4173178074395265,0.48861055687100335,10.682219463166868,-0.022165417824620896,-0.02874811227304263,-0.0027707537686181482,-0.012519122711475855,0.011345827474588645,-0.005722281553660802,2011-09-28 12:27:02.244059576,6.010531830
49.011939867063674,8.418056834813452,114.44690024060458,0.005511598911398637,0.016560809801120617,-1.6020518728623194,-5.256471339583889,-4.0368850416221465,82.83559356290172,0.06534631375357841,-0.0338430767234161,-2.0307534760221957,0.45027949057478533,9.666301043277475,-5.546530116060565,0.25956528368393716,9.414349971888452,0.00337245096036219,-0.016414529768341884,0.008714441906092758,-0.023815608297434846,0.009032511676696886,0.004047507782011873,2011-09-28 12:27:02.354083932,6.120556186
49.01190089753225,8.41797182303827,115.45250204139941,-0.06245324072961664,0.03744277415723195,-1.5044276903972698,5.111709138406067,-0.7941118548554758,-1.2265977195292095,0.0045584866488703885,0.1393122255045169,-8.279379089607753,0.5025057396416802,8.99446894221052,1.9862657020960475,0.020920151529971565,9.890959519462399,-0.005440126595885765,-0.004444981590814084,-0.002438876032983767,0.019926320800060664,0.023171806602860088,0.010410233697131784,2011-09-28 12:27:02.454077679,6.220549933
49.01021903987642,8.417944194081233,115.29525037321055,0.038541681321269644,0.016934800137977036,-1.6258045315473924,-75.02290141465073,0.28026211830440356,115.49251958327746,0.03698019817039055,-0.0683802190299796,-4.850414149102734,0.5041140567111234,5.649145471556254,0.48264580101056787,0.029667032260748086,10.134581549238861,0.03141985418437556,-0.010702225593423846,-1.625205621324545e-05,-0.03536563360638277,0.016588886249887504,-0.010517909087934688,2011-09-28 12:27:02.554357968,6.320830222
49.01078658178137,8.417855759386503,115.37355364450056,0.02644508030868625,0.01603478280361935,-1.6479095724868762,-1.1743664595729548,-1.0772528145864357,5.942352110147277,-1.119751143408582,0.15621428877073795,-0.24210684747703404,0.7241704795636467,12.00891207174639,0.41705126780299606,0.007287705641366007,10.079415085516109,0.006018543116314976,0.04098295991758691,0.007140009243696451,0.03953565850225377,0.021165367864115846,-0.041426375239410514,2011-09-28 12:27:02.664109008,6.430581262
49.01094182364888,8.41796496709846,115.06962952418081,0.035375189059614724,0.013561024976519677,-1.7646211543351047,-8.844901053058143,-1.119521623792741,10.951155789848595,-0.13119251699894585,0.0645070116671239,-0.8160387654695971,0.6262776793782754,10.486267490570544,-13.90785891036586,0.12924122638168747,9.631040616688301,-0.046061263430469554,-0.010381625721278438,-0.003211769275290632,-0.009946849295967813,0.034310681402346166,-0.009219623477507596,2011-09-28 12:27:02.764150835,6.530623089
49.01192200489622,8.418018046216446,115.78367353593214,0.04535784054270248,0.025108267151965315,-1.632616945050202,-12.732955842719672,-1.3399231898837234,-1.755664090712937,-0.2021930397995486,0.1430347054317676,-0.4704491258091783,0.31059507992165325,10.016165037232705,3.6652716560592467,0.09229855169994053,9.605568050328857,0.046820975055006486,0.034561079741385205,0.002174812632409836,-0.009893447436204638,0.03918974524909556,-0.03392876809025793,2011-09-28 12:27:02.864108253,6.630580507
49.01045364080787,8.417893724229675,115.56399697603713,0.037038656751039505,0.02212993322449591,-1.647178366857337,-11.99387178123415,-0.9440939700168984,1.2793385824995998,0.09473850500382269,0.3667527630351954,-7.270396510860329,0.41145799794825405,9.81122240759939,-3.1968745086808323,-0.12936757841585006,12.711649253841763,-0.011534157954583759,0.04592192558385558,0.020334079320388138,0.00018763180498891792,0.012090682703562365,0.01074071714509908,2011-09-28 12:27:02.974122065,6.740594319
49.01071340475007,8.417920708805527,115.29899869435388,0.046441399925539854,0.017308755327049292,-1.6460750141413534,-0.07201314038087236,0.1167191614644687,-13.428869986096567,0.5018715535277946,-0.05692164871644463,-1.2625018230553278,0.21747391740395194,8.902682947023118,-4.490681671148714,0.07462492731518339,9.652459813886804,0.0032902020986298568,0.05195415326808365,-0.0063621455862335275,-0.0022643098705907205,-0.005234632245683435,-0.0009717420986759164,2011-09-28 12:27:03.074410926,6.840883180
49.010612773435696,8.417995374037407,115.66758556536716,0.04541702400692411,0.02808931825242809,-1.5675894491982185,-17.862132210796574,-0.46757370908004825,4.373722314188201,-0.00800423335661414,-0.03228098557360404,-5.154087841986314,0.07018112311207808,9.583356402437436,-2.2713233221872544,-0.06028241704354481,9.507951576856243,0.033385475202917674,-0.015491583746303913,-0.003530346316998924,-0.06796920325541823,-0.15905987746078742,-0.0009316615763944403,2011-09-28 12:27:03.184166218,6.950638472
49.011440042231335,8.417994033659998,115.2411436422364,0.06231441747388982,0.016383121390093274,-1.6479487342445807,-4.955496592822433,-1.3402216668214304,12.124997584262388,-0.09969644854691735,0.010147172819515755,-3.3688032168517474,0.6257789090703838,9.926180266191691,-3.8661488411673988,-0.018728955075937182,9.585413118125343,0.012804192400962798,0.057744382136016105,0.009799852066177402,-0.01274403070674062,0.16068219778055998,-0.03410291547784075,2011-09-28 12:27:03.284188179,7.050660433
49.01076110698272,8.418017924963214,116.09703846574513,0.04064401284550224,0.02275704531930861,-1.8303833001604948,5.190702917852111,0.23408213162667632,15.833872426447812,-0.0019172583125827668,0.017278631235403484,-2.509872001796484,0.7324187154387468,10.337004614420914,-18.076667137323575,-0.07821755039286268,10.285951693357594,0.014389700379719686,0.01862241360219618,-0.0221568173453984,-0.112928985919648,-0.020800379406183327,-0.007215592747672188,2011-09-28 12:27:03.384176176,7.150648430
49.011377850702715,8.41798604788863,115.45898200665073,0.02212171249837056,0.011734280403199942,-1.6060416713180024,-7.322620348913018,-0.37865657141656944,-7.5988905422299355,-0.11394119501861907,0.16924722641577933,-4.281378395543829,-0.8370472526399118,9.715738625046974,-0.8137196984991535,0.018180148814509085,9.967334516907982,0.006474369242548079,-0.002387172327800438,-0.0018754643587231825,0.008402857674908245,-0.036261998186983606,-0.00048128135288483395,2011-09-28 12:27:03.494166961,7.260639215
49.01112813158855,8.417964088084194,115.35183363831233,0.05125797392791402,0.013506956195522803,-1.6582011749326866,9.174185884801059,-0.16413356644854477,-14.948750919944093,-0.1647995111950235,0.04405616729779212,-0.3244671768817211,0.34938535275111976,9.648636150828546,-4.613274043898082,1.7229135919816059,10.130740273408259,0.012702848852366621,0.1640708627658878,-0.006959753126002409,-0.004315540323836619,0.03856211287302225,0.00477197792912548,2011-09-28 12:27:03.594295904,7.360768158
49.010880472777885,8.417936615988886,115.60393276025239,0.016908933751042823,0.013970309661459342,-1.6285712351068162,36.98282280692624,-0.4053324208356861,-2.811747828318042,-0.06704882380760138,-0.07293787810855894,-0.05895539110597259,0.12868077049549764,9.973824367095894,-16.897132150464653,-0.10338675800125806,9.739510947891258,-0.015026553808326312,-0.011323880589864213,-0.013509760231749787,-0.0028963981442551847,-0.00046920783492767487,-0.003594244202129183,2011-09-28 12:27:03.694198952,7.460671206
49.01202875984004,8.417923975374551,115.434225247865,0.009117807405814436,0.012731685864993765,-1.736785890270828,-3.212471130221105,-0.760602045718349,14.560238205859621,0.08845531995354353,-0.04717990658958529,-2.297146946785867,1.2575529852387364,9.861318311742123,0.545291605718397,-0.44449669213732845,10.36991963999855,-0.009643762840403284,0.054267482799400614,-0.0011593628363996268,0.1109012188816757,0.006440909989312231,-0.0006801769755800245,2011-09-28 12:27:03.804223155,7.570695409
49.01035622966619,8.417855914806912,115.22236902987495,0.04805638524758209,0.0174267284257909,-1.6330030085965754,16.35045467368699,4.6628206574231434,-5.494862940738552,-0.07508351806564652,-0.1985012790583899,4.538011261801994,0.6049328025252956,8.983850844431045,-2.460455323616708,-0.5870733544696031,10.252978002642603,0.009652799819584973,0.010886641719797101,-0.008089650208658851,0.025832827793268166,0.03440593144871437,0.01117840015181964,2011-09-28 12:27:03.904263929,7.670736183
49.01059054151103,8.418026409150436,116.12803672937115,0.03669580001786357,0.022620247003293747,-1.5869180207705091,-1.3809536687123627,-5.477308097118446,7.158491865269627,-0.2688151869047143,-0.019925165600691633,-0.07826791790254628,0.5545250619482032,9.553939364968524,-1.8316546408199303,0.07973796238833403,10.217219128510866,-0.03922199584722731,0.01970817819026282,-0.04725816762872389,-0.0030826030385244204,0.04357845984438184,0.0008709107564370373,2011-09-28 12:27:04.004449258,7.770921512
49.010613782152376,8.41803637470792,114.38396936946552,0.025461072409083962,0.008538225029158153,-1.7367614043496704,-2.204023122035459,0.04352305567716852,6.539574840487003,0.022681038906965566,-0.07050583144927215,1.6445622922857654,0.11712225739917811,8.5331781209977,1.8844106589814404,-0.06018666210440301,9.222534017102952,0.007506292453557763,0.0058174309618475965,0.005440113236428495,-0.0020887413278091677,-0.0008013742516832797,0.0019771524301097814,2011-09-28 12:27:04.114278874,7.880751128
49.01112113160135,8.418038360108309,114.93046722380429,0.11299138314379334,0.012335479876683307,-1.6347090160573752,4.412859205403218,-4.611909426654638,-8.957139703632848,0.048543247257951797,0.002688853800527172,1.596912993858783,0.3638437838699295,10.01941726531848,-2.2354981849104125,0.0532323311471042,9.294058830541625,0.006471761518157449,-0.000582473333490745,0.009938613928365852,0.009151503247700149,-0.00816293607913876,0.0025302999821532014,2011-09-28 12:27:04.214421655,7.980893909
49.010883186329956,8.418020707647225,115.62119274680028,0.028923734208265117,0.017849158447082993,-1.6328114413626975,9.856030000338189,0.19903696885713826,20.68509321653751,-0.13761191196279243,0.5433835400887678,-0.6021569076149613,-0.3662901458615786,10.43504881329509,-4.9926448260467255,0.7297429739804374,9.435363589539728,0.02081827349624803,-0.020921764596276347,-0.003915214839169449,-0.03737677006911768,0.08327088088338627,-0.011749424881075832,2011-09-28 12:27:04.324260395,8.090732649
49.0129742936955,8.418009886440121,115.37754673562681,0.05212390397643976,0.022946018537222872,-1.723986915931647,-7.619237128527724,4.184706287834883,-58.85611342334438,-0.061675609767183476,-0.019649001683107396,-1.8746472856587058,-0.021675527956350082,10.010947121535112,-2.248174558459015,-0.009082210328355197,11.412269632472611,-0.012166637962517619,-0.018143115375793634,0.002846327825718493,0.021720574675908804,0.1139922567467296,0.0090307733453044,2011-09-28 12:27:04.424278607,8.190750861
49.00989753160843,8.417943473307766,115.27710651354234,0.04206566385468721,0.043818116084638745,-1.6429371178661751,-20.752139307263118,1.321125171314838,12.446421429193105,0.038722244000708624,-0.07038594324290094,-16.851923773892835,1.1269458911473071,9.907651758847129,-0.1582050378208868,-0.15894113662394055,9.855342301100078,-0.053310888126461634,0.005528852700377236,-0.0002960615909579651,0.0010671234336634863,-0.061648907596071015,-0.0032038087856049056,2011-09-28 12:27:04.524616128,8.291088382
49.010883727861916,8.417990898594674,115.50328342106192,0.0379916190931045,0.01728515273077866,-1.6682515151191297,36.09930174558969,-0.43574939737144414,6.689872547045029,-0.029773697525153242,-0.009092351464217042,-3.501086232993789,0.3441546978365565,9.225457804427265,-2.679882239867669,-0.1002655782723039,9.579262085744126,-0.016852904309881848,0.018503852370092614,0.006505280473624025,0.018852357588611205,0.01942621546330529,0.006271466806834889,2011-09-28 12:27:04.634290288,8.400762542
49.011208341436685,8.418395666117037,115.64719812333303,0.050210405779816294,0.01573565281533669,-1.623432365747894,-16.83948793870065,-1.3158911400519826,-4.860674989076688,0.04424630963470322,-0.031981020604449954,1.1889897838725874,0.39239079042190106,9.59053784604269,-2.771381284974655,0.014742264086492464,9.744734259628064,-0.08662687907890994,0.0016545862369855972,-0.0008669813566622461,-0.08478559709159164,-0.003082169987925673,-0.003891957474094903,2011-09-28 12:27:04.734275345,8.500747599
49.01095790188691,8.417978044448468,114.24004260709822,0.03828396345101562,0.02197186395989896,-1.6307968553967518,-1.8567987548724068,0.7305817060784658,1.2718034902503772,0.028702106283351098,0.014307428761368127,-0.3956574916199749,0.2771005059093053,10.0549017218474,-3.1786816066629147,-0.043401146617386574,7.045431975513104,0.0122837533271105,0.027067291114634025,-0.0010406810061759568,-0.020615071590048904,0.01585759511434734,-0.003790118108285459,2011-09-28 12:27:04.834313435,8.600785689
49.01113519962383,8.417906538785191,115.14527607933519,0.04597063890594165,0.029822680931855684,-1.621317187961033,9.190984962531866,0.9346967907035013,0.6266179445357158,0.02381201937833867,0.061435046791492906,-3.660375343872362,0.754830046439957,10.285605263837123,-1.1380776623018762,-0.09800519058411492,9.560192784727569,0.001577871210056438,-0.02314898821433908,-0.004196932784661765,0.0032239341520784526,0.015262636659973098,0.0014476003854208032,2011-09-28 12:27:04.944307308,8.710779562
49.01062400470526,8.417948527238412,115.62937303482695,0.04383386506180948,0.025871097803830432,-1.6047985663216808,-6.096118670308522,1.1431987381076,-4.295345254540934,0.06267087216195033,-0.2962144813028293,-1.9916711451456757,0.3235770990420763,9.835542988508989,-5.276027028699952,-0.2037093048902112,7.311061711145681,-0.015096812854876608,-0.038940153212173985,-0.013712830497078372,-0.03735620393950522,0.020444919542481226,-0.009949838520151534,2011-09-28 12:27:05.044564310,8.811036564
49.010750721248435,8.418193941081398,115.60931121984477,0.021602812393075176,0.022617941207375182,-1.6659703146432678,-13.255045360731252,-2.8040080046439524,6.39956993077058,0.010382547565580654,0.04799224748865721,1.2975475222716673,0.25323574050231434,9.888811311087585,0.08391732502445604,0.06360156684258761,9.857085383004588,-0.00441925397517591,-0.0030166528544996575,-0.004487361147093445,0.0014720585594585737,0.012507352663122605,-0.11599411181484917,2011-09-28 12:27:05.144314842,8.910787096
49.011461678615106,8.4178630476272,115.4936385761954,0.03671257508923546,0.030511022958952624,-1.6546269566688043,-3.147110648316991,0.4413159668356322,3.213915940970444,-0.07281788226741072,0.03905607198991658,2.7208504874534145,0.1539777964181895,8.699566512431765,-3.3108900129910266,-0.2458440178641782,10.175348046969967,-0.08761454378799638,-0.04272637383172906,-0.002959282021081623,-0.012260171982063622,0.0027520939151638515,0.000941372287716714,2011-09-28 12:27:05.254345688,9.020817942
49.01077114733639,8.41799572022884,115.55412320984591,0.03223793466134335,0.028845343637066305,-1.6524462312816344,0.5551082110480074,-3.9758316624360766,-17.641672211668553,0.06707642194181176,0.053680590079153205,-1.0851746991414228,0.31695820277756664,9.71336666086228,-8.705537143659372,-2.239550657146878,9.74989946403786,0.01853158111261851,-0.020829569465200762,-0.005466008459752283,0.0036989711127257225,-0.00895003712513693,-0.006329282326246223,2011-09-28 12:27:05.354354473,9.120826727
49.010787086292886,8.41802893001021,115.24000854427635,0.041534695682314327,0.024554053450158615,-1.6328600674000078,-11.502694460285232,0.41137510562349067,4.582834177083129,-0.8376952720210167,-0.021650151181422727,-1.1454939440537637,0.3058142416522211,9.47599142202599,-0.5472284071181812,0.2673757151084541,10.322661942899938,0.013004070155382606,-0.031086490938128195,-0.0023090762293174042,0.0003453459458878788,-0.034465047278311706,-0.005567123924156783,2011-09-28 12:27:05.464339559,9.230811813
49.01077049934366,8.418021040625705,115.32244424467484,0.038285791124694574,0.027809651055519087,-1.6239257289433529,-24.478914776149878,0.2558355886719056,20.753297454247203,-0.10803050580095655,0.2665642147560106,-3.0108809984947094,0.3600683240864358,10.34877416476399,-3.4116397968754892,0.18110323651365914,9.813566570902399,0.012285836455073638,-0.11848971329184754,0.0024923478076079556,-0.05411273521984185,-0.25155484983800325,0.010235093048245316,2011-09-28 12:27:05.564447935,9.330920189
49.01163735038301,8.418047373796814,115.69576329525852,0.014496961127711604,0.026130958168361817,-1.6219794243273302,14.251210874680272,2.7142260415802277,-3.7254681311438613,-0.0013879605696462717,0.0778747242870253,-3.1922144271845276,0.16964613281396376,9.622835382370566,0.5327977943700022,0.3691108933567175,9.960535236890175,0.05213308125882138,0.01687116358579449,-0.0024846296017846724,-0.004204998805824357,-0.020467639997764794,0.009616344260701877,2011-09-28 12:27:05.664409790,9.430882044
49.01067704912213,8.41796245234181,115.4458792263094,0.0568848354891536,0.01344541631066707,-1.64265251575004,-8.486072435931536,-0.8475219261453948,2.1307469897353837,-0.06461804704282177,-0.0044977355557009515,-2.1479874242992016,0.12577875654124832,10.059482626546915,-0.9341778397297956,0.229434110231688,10.43172391508008,0.0008634824635141713,-0.03981135490262458,0.01304020244096009,-0.014911345273822934,-0.009954523336810881,-0.0006167154386556496,2011-09-28 12:27:05.774396873,9.540869127
49.01114116644011,8.41792423379641,115.4749519867128,0.1321042902941393,0.009262663912800612,-1.623250934657446,5.236548855897205,3.7792769101915047,-14.246733593382363,-0.032169592396967726,-0.05844925091935791,3.562847710141392,0.6651089180104819,6.9590353814653145,-11.376151071651112,0.1041895911714064,9.908350365905116,0.0036783017839113656,0.02647224370205042,-0.0037255250773335995,0.018752583255763434,0.136036249561223,0.010833527993488698,2011-09-28 12:27:05.874457817,9.640930071
49.01159487467145,8.417934758822735,115.50992018185734,0.05121537517281388,0.01107761808743059,-1.6463178584942322,-0.44087860550959185,5.50063870800369,8.378596513179675,-0.2045028859323816,0.33014835566628753,-0.21988723665572302,1.715325879485766,9.589719871406718,-6.476137140552066,-0.08524419391688248,14.773345338169676,-0.02478344699016289,-0.02292863791952053,0.06719230134697003,0.004196556507596427,0.10691678665189934,0.0009758108216117154,2011-09-28 12:27:05.974453410,9.740925664
49.01352622714619,8.417963042065221,115.96790888590881,0.056606057454020156,0.01025593788067559,-1.6057934681733708,11.061716079241995,-0.35688697272318953,-8.95443570946792,-0.12352514017298243,-0.018057242185253015,-2.4961256629122075,0.5904662030809674,10.160395713024283,-2.1321728681817063,-0.1701119809100196,9.968235985655026,0.03614713812476826,-0.024551106541932325,-0.0038979065012523517,-0.02572930020913715,-0.010215244536090682,-0.02302198675815908,2011-09-28 12:27:06.084586973,9.851059227
49.01090214925169,8.417892767202096,117.48164155229337,0.04180967388195593,0.019383796600244467,-1.6335772926028467,-10.033625719031775,-0.09821301351737247,-161.88841691191072,-0.1277207399591116,-0.021187830792320894,2.080691509534223,0.06182704559462465,9.862212226713414,-0.6858336479565081,-0.04503672661170486,8.91875853454181,-0.162414369287984,0.00028003893233325555,0.015504577668524755,-0.010627369673480337,-0.008301015942123926,0.02525516782682643,2011-09-28 12:27:06.184463477,9.950935731
49.00866292863385,8.417998367096503,115.71586879802487,0.03503302503209624,0.003028659145853256,-1.631805758660173,-9.088803539316569,-2.33328117856276,-6.837096121122429,-0.13650097820217025,-0.041767438945802156,0.859056780570709,0.7168481401913245,9.485141043890671,1.996646239433468,-0.6221582464360793,9.468376079499809,0.0008956769462949484,-0.0019338357960933428,-0.005428035148135942,-0.02830161900900753,-0.019044249412407007,0.0032881314462410924,2011-09-28 12:27:06.294432312,10.060904566
49.01166428033707,8.417603322954696,115.90957897062341,0.04356188234795767,0.00501786964149829,-1.6364850867515068,8.939435038904866,5.844801302334796,3.326020948398533,-0.09093619469670462,0.0015491624854260325,-15.407708800795104,0.9652239038986853,9.641696885424235,-15.860157628470093,0.022362063843697058,10.726492843042871,0.0013882951225566444,-0.008064511609853792,-0.00339809701513523,-0.009128736296830189,-0.0067070864731462645,-0.003309569577032231,2011-09-28 12:27:06.394430829,10.160903083
49.01099569223102,8.417928775886928,115.4977201879911,0.05301734134412034,0.00787821115134454,-1.6192375766336466,-2.9550467754338556,-0.3335094258058677,-33.99362496645819,-0.1105585036071746,-0.006096145125732553,1.577242067879229,0.5190267099147641,10.344146438868783,-0.7618706041363796,-0.13320863614550987,9.362252911934075,-0.005442398118991137,0.03798423211510577,-0.0013972575480573823,0.014025403091138994,-0.04175953685020092,0.005170074939681766,2011-09-28 12:27:06.494469240,10.260941494
49.01173819353802,8.41799170281932,115.16471211260077,0.05551289762124581,0.028573298587399355,-1.6228138104076026,2.317101136007892,-0.8911917375436781,8.325396392528843,0.035309624021468276,0.013116302541509871,-5.352059828737951,0.7143080680628817,5.935812299817849,-15.705866621232419,-0.2744179042934512,10.07232038893979,-0.01264361729033558,-0.007911626223980029,0.000907947323363337,-0.04645083441216169,-0.016466380705856563,0.008190311425850234,2011-09-28 12:27:06.604529352,10.371001606
49.01131509818796,8.417968431752714,115.66047423363736,0.03989385449761562,0.018897109562035972,-1.6236098447916698,7.053016752801234,1.0883441343035996,-47.08789738051119,-0.08082062995266794,0.12492322427582186,1.4711590517497581,2.722512034593025,7.5063288836688855,-0.16666659953703727,0.3608322336278158,9.515429564790907,0.001075935830798378,0.006281625956796341,-0.0019442228732442978,0.003049929853114725,0.014547974602080956,-0.045895841317746044,2011-09-28 12:27:06.704486151,10.470958405
49.01112750236562,8.41784455113757,117.36598676720592,0.04145153384211873,0.014347024297170427,-1.6247697457513437,5.857433306092392,0.8406208937079761,-8.973773859768896,0.001640739370184388,-0.5453254716576512,1.1548672176765757,0.32789204091424823,9.550424275657933,-2.8996537982903554,-1.5274708729084034,9.917838242434375,0.007826307314653625,0.08424270963883232,0.011079707971415111,0.01647738503003212,0.15242798668302393,-0.00209681123627457,2011-09-28 12:27:06.804482681,10.570954935
49.010677841699604,8.418066519463418,115.75398633812661,0.02194747461321934,0.0023726115736634502,-1.6159126423534924,10.239916898100526,-0.5580526678519516,-2.6433960732172515,-0.06599402093011696,-0.10863160002074629,2.466040016921081,0.6353996020804957,9.482586923481401,1.0398535530588608,-0.07978756545256609,9.461969162323713,0.009810939169604897,0.00021698014773848927,0.007731838093954739,0.010896797245261141,0.21141543450106445,0.0011133829854269575,2011-09-28 12:27:06.914504196,10.680976450
49.011425520463085,8.418036715725872,115.76782945051623,0.030620336898239113,0.00912801858578911,-1.6413753916857456,-46.66121113545141,0.06619447977495126,17.19099603874609,0.11173315517694261,0.06827127309819246,14.343432541096997,0.31610670132957697,10.916984341161143,0.14421492565602748,-0.11204656922773333,9.576057187134417,0.018418057509997945,-0.00944554177906362,-0.0033580251704511126,-0.009905272337277985,0.027740443504764168,-0.0010141074972047203,2011-09-28 12:27:07.014619922,10.781092176
49.01015983689944,8.4179457993812,115.46569015800895,0.031269819063548254,0.011231201226902568,-1.5901687962217923,-9.762036992342571,-1.4211034697341256,17.112759901839556,-0.0025507337580571395,0.02841322874809256,7.2788078911321215,0.46689542470060275,10.245425100271737,2.528669810819091,0.04115008837366226,9.909670910516182,0.017550518429908513,0.024202761976407968,-0.006228430446976526,-0.002731445387009652,-0.023068706716777437,0.010773717711926903,2011-09-28 12:27:07.114640402,10.881112656
49.01131484023501,8.417918284079095,115.60708565966232,0.02863007452488047,0.018803544230732487,-1.6298056098144316,-5.838304838021478,-0.5063377149250835,-86.65414887054723,0.021277612381129837,0.001384386227208326,0.1944142244001594,0.38463788442740005,8.003439676908316,-3.2521013763913467,-0.127699204426606,8.740103015336398,-0.010155573299306915,-0.01457655618870645,-0.009231252751829901,0.003114443576049777,0.01567218387900605,0.00027851891075114264,2011-09-28 12:27:07.224522008,10.990994262
49.00776219014596,8.417756453549254,115.85025511599703,0.041365162483673105,0.01920569997454167,-1.6230777506737608,-13.979420230012506,-1.0253904186664675,8.619040474540268,0.041989894043925474,0.15449008209780604,0.704237918724704,0.6170460019166734,8.785713806460013,-1.9447559531138,-0.15764663002264112,10.032820849695502,-0.011869919290049961,-0.010457370265414878,0.015521879073063051,0.016913926923851984,0.0019135196896245704,-0.01031847867740051,2011-09-28 12:27:07.324573254,11.091045508
49.01128817461445,8.417979535837928,115.9276088852181,0.032708212653885356,0.00953944706792338,-1.6612211283215437,-4.988585371764125,-1.2250393071867582,12.586770609503436,0.4404254885120886,-0.05418553810962595,2.870892054070123,-0.4688506284941573,9.709373921075718,-0.7558213709119658,0.2490622818599667,9.383080347247354,-0.02360736108981657,-0.05440030884253752,0.008709303771529233,0.005107997376256792,0.02839259631416485,0.0032597436376152543,2011-09-28 12:27:07.434565362,11.201037616
49.012029921819995,8.41798916759583,115.49945702731682,0.020240587538607885,0.01739231144649565,-1.642736132585947,14.546477327091472,-1.6456159930878087,-4.789475835703459,-0.6546529533126625,-0.001375131312927133,3.742785987925284,0.36780817615766254,9.412219670550309,1.2653006122057446,0.03817735325242456,8.869957604378016,0.09591017910518262,0.014613887602638332,0.004927630199936254,-0.01253591132981041,-0.003846315532614557,0.00019046291228566733,2011-09-28 12:27:07.534764827,11.301237081
49.010408848080644,8.41794198930533,115.28305511031003,0.04022493041527495,0.014306250349725437,-1.6299301613182016,7.983603703180738,0.026750970181654496,1.8695693235914501,-0.07548092275159002,0.008481572812088587,-0.3053782205739701,1.143223784490517,10.514708139138177,2.3386609612452722,0.24419008837954884,10.366866559111823,-0.009952922488558141,0.08029445060503436,-0.009745109934111786,-0.0005938733494716428,0.00851945669545888,-0.007450130595322536,2011-09-28 12:27:07.634595703,11.401067957
49.01045557826889,8.417979963417602,114.89069143938924,0.04340505092137233,0.006838533237734471,-1.7409993973622755,-52.35613842882751,-1.9153404325082,4.957516134618381,-0.06485039812491082,-0.0034071368442010444,-0.3441569743577803,0.42891521035915864,9.825366853890191,2.616185879360405,0.09006576077562196,6.076085834308138,0.012629862412944531,0.15546909078406312,0.05314302043026591,-0.026419290358475237,-0.007479106418068925,-0.007266652366804162,2011-09-28 12:27:07.744592123,11.511064377
49.01110299492018,8.418014686950201,114.41439347488792,0.028356603853255728,0.012255618276026909,-1.6204318481054336,-0.8377018039950701,0.47790312648494354,23.733373511500165,-0.005085189133911434,-0.05030068418844634,-1.314383556000433,0.12535320681733936,10.027616042230292,2.741068753620726,0.10168623453716784,9.863478793761573,-0.02086358899855565,0.023349542338521257,0.0005533275322978111,-0.02291312351659158,-0.03166896680588544,0.0038246075714168906,2011-09-28 12:27:07.844591126,11.611063380
49.01030763855204,8.41752943203613,115.93922102372517,0.04191240583412677,0.006252185051326446,-1.6742669557945427,6.908718257057903,-1.1134918143616275,4.713897864922589,-0.0806021602960666,-0.02502965905449454,3.948813257804554,0.39797716757060997,10.862233417070904,0.7506647691817632,-0.08888113199442575,10.12395048463305,0.020764713594530634,-0.02898050579643684,-0.032003628811273145,0.013704249267414073,0.0037201347303997888,0.0011638558904825264,2011-09-28 12:27:07.944605696,11.711077950
49.010735661081625,8.418035429722584,116.07505383023116,0.051712212248909685,0.014163763109493077,-1.6350250066919367,8.195162879920003,4.878723454355856,12.899753147005912,-0.04158356892648945,-0.014573550710935492,0.05013265829184799,0.4731774048247129,9.982213827156336,1.8703051624741445,-0.15629426728164497,9.807629568689368,-0.027238186815049175,0.016006784281598064,0.0017058619238263784,-0.0069018698482197225,0.12070107191100493,0.028377590896678705,2011-09-28 12:27:08.054869072,11.821341326
49.01071638162712,8.417900514784833,115.3584290106293,0.02984860872657606,0.010440321738331279,-1.6518283662644102,13.607312503035986,0.565929075424091,-8.616400801763742,-0.05563072823325872,0.07409686156189661,-2.5971673311428836,0.08492265744604743,10.014631484839288,-1.2033045429141318,-0.0007990277470575375,9.82498439715292,-0.0442153014080921,0.0174166516489027,0.003428898702827206,0.006972856705059111,-0.02953712447801447,7.397946977291025e-05,2011-09-28 12:27:08.154672382,11.921144636
49.01091436911522,8.417564194568033,115.44571813371275,0.03148754252494513,0.006741197492818032,-1.6433587044819726,1.3614426087377451,-0.08691389191615509,-6.358317758348403,0.0694646133121516,-0.020856191206659335,0.9484505816818554,1.1160612331358255,9.796899243740429,1.056093266758384,-0.05768518703330586,9.566039476625114,0.06384810523782518,-0.000612511844759241,0.01451165637308076,-0.014637532939172002,-0.001118883856701928,0.021312478768944765,2011-09-28 12:27:08.264635470,12.031107724
49.01029336431597,8.417896956845233,115.35412347312624,0.007010142648764393,-0.023014398661855832,-1.6420528701603545,-5.3001528672022555,-0.17427539801704883,-7.717385097839185,0.02198552178664663,-0.033750900145868915,-1.419984306090607,0.35552583780379243,9.796634143649227,-2.2032058152909757,-0.118082905842868,11.426300547567708,0.004726852625975003,-0.08625087215930045,-0.0001745991776466823,0.01033134564111562,-0.08346901740161242,-0.0048467528420693086,2011-09-28 12:27:08.364634034,12.131106288
49.01065063934529,8.417988842489335,115.74840236041491,0.04493882200292004,0.013889619096752622,-1.6356748801877363,-27.800314374807915,0.1423782761701627,-9.798037405373632,0.0014627232227856783,0.4044311464456932,-2.4758320782918197,0.09027733208326477,9.575136101535236,4.494404174497048,0.035098535955206955,9.184772388204536,-0.02094897562525031,-0.028816992831319627,-0.0030073408266699845,0.01556849157317288,0.013442360109661988,0.0011758003371297766,2011-09-28 12:27:08.464655107,12.231127361
