lat,lon,alt,roll,pitch,yaw,vn,ve,vf,vl,vu,ax,ay,az,af,al,au,wx,wy,wz,wf,wl,wu,timestamp,rel_time
49.03170613248346,8.440443298840865,109.79929040578952,0.008051096770615124,0.012319928994554492,-4.279574591841981,8.775239586808532,8.407896658123379,23.821178600852505,-0.12572948676569434,-0.311729717693497,0.4759289318448306,1.19114950048814,10.02191110574528,0.23855856707063766,5.842185556071454,8.785922492017221,-0.41973442059205174,-0.1342701044363779,-1.7034701604739184,0.005553406898114996,0.0732207877550885,0.4062697563355019,2011-09-26 13:14:14.274189870,0.000000000
49.025762357043305,8.446205073469388,107.8423303410746,0.04552007305181323,-0.0293371479042411,0.5604830415316062,0.5111521872025993,175.29095428272458,12.266301965910369,-0.5850706219385244,-2.5270444488745665,1.697244607278292,-0.2639568325047359,10.056823166201482,2.530704416143699,-1.0464017501699956,16.699333075559032,-0.07525425645671592,-0.0008198561470417962,0.1509988339695943,-0.06347301178992625,0.015967040250002208,-0.11934912719361196,2011-09-26 13:14:14.374162269,0.099972399
49.027117336488594,8.46695389098225,120.10571463018869,0.05768249360192046,-0.05907058537222627,2.8089761051877704,10.270519393286609,-9.775327940383281,12.690976307722895,0.29855125364201607,-0.1384190538367458,-4.629647458821131,8.168598759704,9.891031066879213,1.3899435558176698,-0.5929042586075989,11.240649122591806,-0.06213213826265703,0.014850822626321692,-0.22433202814145198,0.028134238879204628,-0.056750089585180484,0.06373596741301774,2011-09-26 13:14:14.484153036,0.209963166
49.02602278224572,8.415583103050912,108.6234462374136,-0.00798994437731166,-0.014659836748941668,2.036780212976365,-1.6558724189477454,3.7383649918232784,15.343447019573162,0.4209851612502658,0.3781251275442987,0.29826472012999583,-1.100255160002572,10.791053740879446,2.729308155290861,1.4818440531240111,11.671969284234194,-0.044158107324522015,0.12715024034686517,-0.014965079096030908,-0.07699509209696903,-0.12492710373955764,-0.0019763755483197397,2011-09-26 13:14:14.584217749,0.310027879
49.02708221902833,8.448318755681962,115.77778086320868,0.013127853484840565,0.008378532798193965,4.262828100266256,8.35261534496432,-4.609128624514383,15.718095725247222,0.006161650094731089,0.2112221658248829,2.0445403039125836,0.5148598315352254,11.525509358520102,-2.207778498239995,10.128561173088311,10.233156861100824,0.040706399274257614,-0.06563861709627089,-0.10632987956895414,0.060802689885377854,-0.24157690121839812,0.4618581264634669,2011-09-26 13:14:14.684237582,0.410047712
49.02596190445739,8.437739545796932,108.20430265971532,0.07083283973976853,-0.015430051265912908,3.9853552214943972,10.852170477712468,-12.828624752785734,-8.766081539675644,0.045151961666981114,0.5252028236338817,8.190217805127544,1.106314965816056,12.536870249044423,-1.3287756966045863,1.0290202931284165,-1.2340536729238085,0.03455884858412746,0.1259087561789801,-0.08694010196995366,0.2697962815318403,0.12283304440053522,0.2479335498584121,2011-09-26 13:14:14.794168305,0.519978435
49.02765040592293,8.45313500440331,109.58411520530288,0.054247145946032416,0.061435198732667604,0.3437929215638742,-37.78767176692101,-22.719026017439408,-133.4145275028607,0.5407185312355934,0.3514828067533878,0.022747386888237547,-0.10848329212545327,8.845008802657967,-3.081284063465925,1.8211945861898522,7.819942970206128,-0.007845969740169205,0.07314790316675158,0.3469763608686488,0.024564448741468757,0.03322863477891229,-0.7927773680513472,2011-09-26 13:14:14.894150525,0.619960655
49.02839589358173,8.444719538872388,114.61607835735283,0.05410725833237967,0.051310971111978826,1.530951843951329,12.077496494750296,-0.3985472953854057,14.471378016461154,0.1316284951225651,0.24995274833216935,-0.47838502756354284,0.750392917429081,10.268099021988,22.605800196257235,1.7790616242305044,10.167992929518393,-0.02637361017156764,-4.130394602236756e-05,0.15844807892423718,0.0638335483895105,0.08767041819657917,-0.21868324752771906,2011-09-26 13:14:14.994133669,0.719943799
49.02609549584918,8.460611778183411,114.76367724634109,0.029633878198993963,0.013987775125046644,2.1866836991185874,14.835887129034568,-32.529102143456115,31.17230367195571,-0.11293181825903918,0.691020919926459,-2.810926392431572,0.6977916896526246,3.040070258363354,-2.2014641404792097,1.0793551532535814,4.262376952534483,0.2260673290442506,-0.18613998594129358,-0.005340992364911853,0.07848460283180533,-0.4135719224426496,-0.06232206975473444,2011-09-26 13:14:15.104158964,0.829969094
49.02657052360076,8.442615264374389,112.21028234495499,0.04006190527533577,-0.014872704600877671,4.768077394824683,6.393396251555023,2.4742929621910186,49.4653642732956,-0.10733146168446492,-0.22711020455345252,-1.7851384251366733,1.5614152446664185,10.173598875683792,-0.07241677769202665,-0.1809933465257133,10.307209445773024,-0.061426275883067705,-0.41839639978307475,-0.08847091749070286,-0.07964549367409585,-0.00036996361200114167,0.897160452772548,2011-09-26 13:14:15.204285324,0.930095454
49.02716211602219,8.44999765567137,116.6297931563788,0.020781540016860174,0.0050058800661739655,1.9487272347055198,-56.93527207270293,-34.89825151362044,-5.849689987850075,-0.36725092071515975,0.1958884710660881,-9.83178074667987,0.45611254246588245,7.582104831450085,-2.1274267918544894,0.9409442311798137,8.79795351570595,0.14394274818098382,0.05988191564689216,0.3553481212545557,-0.0753419269593119,0.04879941741665336,-0.16332276642135027,2011-09-26 13:14:15.314207299,1.040017429
49.02668294447237,8.444170499596856,114.30760714152717,0.05779447846207369,0.03940938258177893,3.935376525917411,3.459872481155869,16.856487420760388,-23.851697541999215,-0.23223868567890033,0.05315130096961723,0.8807818301576923,-0.20945817785839702,9.666647128975194,8.140957418304406,-0.37966048931754326,9.455434891110363,-0.032745835942869686,0.592336451032881,0.21890340819885698,0.25890467672723727,0.07274137416994084,0.16443632226483867,2011-09-26 13:14:15.414305536,1.140115666
49.026262763827425,8.442808055834092,112.07299713133396,0.024481392242336475,-0.02875339195108566,4.212355645300936,14.844805215510508,22.43055334793389,27.953640685753207,0.13399001887121426,-0.18983682407783573,1.2615515312731556,-0.5551914271292004,7.261883574143694,-4.472837142905677,1.5035864913029777,10.476896107540721,-0.007453019291784756,-0.05038080572215137,-0.07312607310279605,0.038502053970647813,-0.09172082726918783,-0.10187599796479199,2011-09-26 13:14:15.514164770,1.239974900
49.026156534476165,8.437965239217212,114.17697266340545,0.0057674224764943174,-0.24119086726373193,4.495725115166078,4.091940868388255,56.453929817681036,11.762080774701175,0.1281323179045814,0.15977334220448103,-0.45109134710463655,0.008942880062746239,9.075288486698838,-2.134610682019918,1.1514080397810984,10.020112305789121,-0.053763073725771035,0.4131244229320021,-0.15119088407422854,0.007613155505252562,0.1309473208205852,-0.08401604621948457,2011-09-26 13:14:15.624168581,1.349978711
49.02606179616206,8.437353495171982,112.09907690189372,0.10050665766721653,-0.13687247223069238,4.0910805564158235,-2.0527154772164167,-1.4879030760576732,26.825422999639514,-0.42803457133086925,0.30672397239738364,-0.14391826121672907,2.8130337489740658,9.223181768859305,0.47594325894677986,-1.5761949305176146,10.742534598547659,0.0001611127139654507,-0.04673074950086307,-0.4450883135131834,0.07630646528416372,-0.016467812260212534,0.06632806833569788,2011-09-26 13:14:15.724421320,1.450231450
49.02662860060879,8.437125690414295,112.65091898763845,0.14763112223041763,-0.027626244706839796,8.257155260439237,12.34510380694232,-188.45581826423904,6.186011955729823,-0.04586470600890699,0.3690631779379417,-2.289408874441586,0.3356409467774751,7.901843592225314,-1.6503752320209006,-1.5852108643205776,11.606873750632733,-0.5301698195971574,-0.15886666836967905,-0.03111811775537789,0.17453617806880295,-0.009998883342538538,0.08782938642474883,2011-09-26 13:14:15.834156384,1.559966514
49.0262636251948,8.451724163889397,116.28330298734637,0.02216076044049903,-0.04479179660373165,2.6493132696501904,9.733597671716103,-22.474509166937075,12.517693810075638,0.16082308689135383,0.6793350590628713,1.4544749400237367,0.7327579849968343,10.462924946354459,-0.6122045524669992,1.8656875506094017,9.926975122974827,0.029258339568306486,-0.0331427098378497,-0.3357957863213306,-0.011641663159185965,0.09263350824109096,-0.157097432442191,2011-09-26 13:14:15.934173839,1.659983969
49.026304422468876,8.438763011030227,118.18802856618855,0.025101634553601634,0.04898661751250656,2.907267278126053,-3.660343115789927,-1.6370903154952234,31.060269302283775,-0.023764498157504456,-0.4224545719240548,3.980959594500691,0.9275446392342324,9.861536775066323,-5.053861373487328,-1.7885278118753904,7.4069617921235125,0.06642180358882153,0.17821121477247356,0.13014504866144755,0.3554088295946875,-0.1946925652396031,0.09480363570407607,2011-09-26 13:14:16.034192973,1.760003103
49.02677642525501,8.447761709414076,98.0609123297074,0.055999857898995906,0.0034158015062900593,1.76253395380478,5.668382669587768,4.456935623759843,-10.794663015342149,0.36116535884261125,0.17279764798708291,3.050347313990737,-0.739631255327689,3.109681523117967,-12.039706959387765,-0.4427187512435181,7.716702160776412,0.0839902717692056,-0.05879974790270039,0.4232941688698989,-0.04068910684242946,-0.08647530368312802,-0.6073921479871095,2011-09-26 13:14:16.134228244,1.860038374
49.02740830005443,8.453607491382364,115.51403976300742,-0.018894265481951673,0.009816878821318993,2.541372499050404,11.31182516954069,-32.560657119555216,4.676662040495671,0.9203511405770163,-2.3927195600586812,-2.776558719059432,-9.33952499712693,12.71352020572861,3.6074937300946246,-1.6158866478811231,-3.14964781861476,-0.04015644636158393,-0.04157169554868106,-0.22716155062525992,0.11048310957465386,-0.008263357382803852,-0.2268406547453728,2011-09-26 13:14:16.244258643,1.970068773
49.02663114863731,8.4515381844714,112.72973175510887,0.09144759994415186,-0.03772783887016517,3.959872840169972,9.088265517594685,-7.805909786961689,1.7492786739979298,-0.1488138899857104,0.33906944721136767,-0.5322935893531189,-0.4529250426156147,12.430036552435705,1.2831129799922754,0.5758727336823786,1.693878500036238,-0.12041266474208472,0.023169460527991032,-0.011325371972870275,0.002046592405414334,1.0150712518520737,-0.07164290319432447,2011-09-26 13:14:16.344179824,2.069989954
49.02653456554056,8.454311486523086,109.05946851751926,-0.039671195108449846,0.019488300320009585,2.1310469961351357,2.5877038390123075,-11.94746362516377,0.4643827047189255,-0.34720534989205226,0.19333357996795758,1.6008777525709479,1.592513751810424,8.723266009099456,-14.812998761837711,-1.3671803902782482,9.652882341276712,-0.2306805014681045,-0.1990467481605683,0.12381490346346266,-0.23194823238032622,0.01358674973487732,0.29583980190336,2011-09-26 13:14:16.454197462,2.180007592
49.02607718506687,8.452936574720686,127.07811725801206,0.030087981305195504,-0.3073236757184707,1.774935733860271,1.8502092366297642,-2.0334949886171003,39.88554880966012,-0.2456403325837307,0.4657379299148061,-1.2597699739386474,1.3762250892051933,9.21993785386985,1.3455615005577406,-0.4691327420920727,10.266744722005274,-0.0674522451557929,-0.06186368436412363,-0.28063001202892646,-0.03709048326972501,-0.04665493639588174,0.1978453330073582,2011-09-26 13:14:16.554238255,2.280048385
49.02597296241088,8.440628580737355,112.32189583647697,0.28307749666445525,-0.19597067001842272,2.266945103429637,14.304031662377,-42.53597287191849,23.15628058986664,-0.1498443503699217,0.10877497257460497,-0.5641808319371721,0.5992298045426645,10.597333043113293,0.04952569920055793,1.4299263888225249,6.05625805816107,0.5498482735094967,0.049731721896204506,0.49100344994789846,-0.014787545615224353,-0.004069109472365875,0.6315125708383714,2011-09-26 13:14:16.654221048,2.380031178
49.02452893882158,8.446510474615495,112.15225322497093,0.000701850943663835,0.004857938458990477,4.694589470955034,14.46958134017058,-5.845140315636628,37.16270207327327,0.3775282430633879,0.1588796869124984,-2.1476019051155695,1.1155913306297738,8.623828795358895,14.688806922711219,-5.8172666288757195,10.398349149734221,-0.05533238137132328,-0.1320199613077301,-0.3065450408026943,-0.048358019730408326,-0.05439845297856889,-0.8659811618575871,2011-09-26 13:14:16.764258181,2.490068311
49.02648071873197,8.443118211690097,116.38992539456765,-0.0408318036149156,0.06361356157842753,1.0185560927251416,16.19187010857326,18.635131362609183,14.376641226801118,0.008900874819329663,-0.2712432562079239,12.342935292553623,4.4145557943597336,9.854621680650368,17.627996266583477,9.649207067545412,6.935734780544221,-0.004801504577008665,0.012553137449684545,-1.2241087342083736,0.053776474477034084,-0.1873846378404625,0.19944534201250422,2011-09-26 13:14:16.864231812,2.590041942
49.02607656281462,8.440969290116225,113.50151454153622,0.04245343194649821,0.025011225261304098,4.422646024548022,-4.97840281417713,-17.06112673134391,14.976935996819032,-1.0688894743927655,-0.10358433936156543,0.3242601285473497,-1.1202560693281571,9.09873179286492,-0.7774884589669584,1.2401941083840216,12.311864932485452,-0.04022715690632309,0.12296042450151275,0.11566064200240332,0.014986951806366377,0.42372844374749985,0.025178724445109723,2011-09-26 13:14:16.964229930,2.690040060
49.02665071989299,8.444322239055944,91.21809513804332,0.05065322299666668,-0.008369507331283412,4.442373104046912,8.185877257693253,-35.16742929753421,10.896948447141213,1.8142106949837937,0.09409561060153628,26.146473965746782,0.9311523144331055,9.474947478476743,-8.877973478965332,0.9806598396500756,8.421294051170905,-0.026011054935177465,-0.11768963363180139,-0.03626505331650337,0.06392950907993002,-0.10239393380710102,0.1349181194968684,2011-09-26 13:14:17.074283366,2.800093496
49.02739461471578,8.444248329955325,109.64029483417522,0.033860926848231145,0.0039028980782996065,2.081551106448225,7.074590753207293,48.21462990631178,-3.376435491351529,-0.9576682762088466,0.2863580289839597,1.1211907774397547,1.189380846622984,9.002486294193087,-3.7445768357042137,0.14995970838004283,5.710130214050324,-0.01639447516515552,-0.06134513763406979,0.047461678803320084,0.012159565219217723,0.03377800711949558,-0.02569391208300377,2011-09-26 13:14:17.174286604,2.900096734
49.02621698584578,8.449773831944476,111.2566290083027,0.10088585118652965,-0.002148982232529871,0.2965890112208265,-0.5342559616042459,-24.24850040674128,4.03137892176381,-0.5490092867220555,0.14617425233185943,-2.69361953069408,-0.26982300397541314,11.210023060601436,15.295816533931939,-1.0260652491511002,7.071016094290794,-0.022226640846677893,0.07415776922412855,-0.032378808557346685,0.08598129587669376,-0.26053829850179994,0.056107218174666317,2011-09-26 13:14:17.274323414,3.000133544
49.027456482155344,8.44486610242202,116.55911447176487,-0.012683122065459542,0.011021763333594576,3.3450875646980958,7.6531427304873745,15.634080050802305,30.56800223898872,-0.18040908972082223,0.45716558399753626,-0.8240351973956772,0.9384335074017878,9.71914520870253,-1.962420552538029,-3.0971504238484853,9.853000743669122,-0.03622699983775042,-0.017877003952431924,0.40499946065591785,0.04635020535705217,0.01796294524746652,0.3004509241689978,2011-09-26 13:14:17.384255599,3.110065729
49.02608341427439,8.442652229749974,107.14760556041892,0.00361598333946175,0.00679819565063698,8.094873416438233,10.149259228661524,-39.36880539221673,32.30376340071399,-0.00615600521482472,0.10917895635572664,1.338505375526796,1.4359797332803166,11.26386464353037,-0.4946674680857478,1.8792650329634768,11.051039829418844,-0.011229853156329982,0.04882543479044682,0.22245453518111685,-0.005320223764281385,0.06691704151200774,1.0194495468732907,2011-09-26 13:14:17.484436187,3.210246317
49.02828732901986,8.438526997834956,115.63810424213534,0.06280781892024087,-0.030356801234527657,1.8496504423621336,7.87889510624931,-49.290489850524835,19.86126580701032,0.06680882618501727,0.317845579706569,1.0804915932170243,0.9764179932688087,9.2196939910563,-1.7695875996037806,-5.106382619075646,8.561588088107328,0.028498974752864108,-0.14910533540317517,-0.14120251300475234,0.044898749205018046,0.049801281653280544,-0.037220555612305084,2011-09-26 13:14:17.584443850,3.310253980
49.02721963329564,8.447716518508813,113.73260147242715,0.02176001400572373,0.034125698363270354,2.3400289017527807,21.931133247918122,-115.51417020605338,21.144815259973264,0.639306206034453,0.07535329919595195,-4.237811353169525,3.7002188781238443,9.984970598535295,1.8604670807975914,0.9227397773747387,8.59160766694353,-0.015958680258036678,0.16068065549708896,-0.0545751652397868,0.011636423798013669,-0.0108805021287087,0.20639146407373204,2011-09-26 13:14:17.694340341,3.420150471
49.026067397178494,8.447547412623525,113.28184498522859,0.03467103392707032,-0.0014286497333015086,1.6917554601119673,2.2818077319778034,1.9793804570453783,3.7746875315794366,0.49632709594338154,-0.3871888189227359,1.4416219491915157,-0.6119660179130362,11.93566008713497,-2.086678196018557,-0.19546433818941467,8.426407288304505,0.016912311855174163,-0.08634164148383848,-0.09766050833881396,0.0808208956063907,-0.12838679746026976,-0.26287349849204483,2011-09-26 13:14:17.794315983,3.520126113
49.02580025286635,8.44292945946144,114.48205798611295,-0.006313918679607636,0.12685549183077474,2.2695079448945923,17.49053408542508,96.71923152432451,-4.300981107041242,1.3065424819928464,-0.1050998908631854,-3.232383756930508,0.8784135501235262,8.475612813744293,-3.158307578793478,-1.0272351314765933,8.874820847204912,0.04483879555837077,-0.1968704914039951,-0.0707640500702551,-0.0402200115647217,0.08283575317853988,-0.6088564252885019,2011-09-26 13:14:17.894286483,3.620096613
49.0266492950914,8.448813554894265,117.56297850672094,0.02244771780271154,-0.20921769388848074,3.664723974513147,9.428875895724836,-8.083051587031683,93.17271985892943,0.10719323989809355,0.29426110076621576,-2.722221387234686,-1.5093742596758668,10.814640899756458,1.600089037472626,-2.453147778049375,11.746065607006932,0.09850932018422356,-0.1237227701990134,-0.02532774014350488,0.022424878591155016,-0.028336097113086784,-0.13535597992505866,2011-09-26 13:14:18.004269687,3.730079817
49.02634502742573,8.44595819241507,117.0105645787788,0.05958695505170014,-0.02573673625696883,12.446836552812641,13.265521772658126,-31.953863393967296,14.504526828889169,-0.2777060863312825,-0.5424599510027036,-3.262891127688701,-1.2636676245599627,10.564666722690566,1.2380643134290534,1.5363334003357454,11.638238658457848,-0.05230144238526881,-0.17248578117722002,0.11124996766029155,-0.04952532455834596,0.4671998318913031,-0.20198804596905878,2011-09-26 13:14:18.104272348,3.830082478
49.02762300541275,8.439443268156085,114.56218934443005,0.045972455923168606,0.022049578870003708,1.4281064447301817,-10.66278739524365,34.915557431570946,-76.5492107288704,0.3357660011760764,0.06812476832601905,0.7589840189731217,1.2697642078380165,11.256175124864962,-4.2600745705909615,-1.4367087940942107,11.781798470050017,-0.005900927009031731,0.15484220847670363,0.365686353183151,-0.0018556851544833056,0.07404947975999118,0.3205133104698401,2011-09-26 13:14:18.204404348,3.930214478
49.02685398002821,8.45117558534495,114.99557756793656,0.06233042818389101,0.022209861718345006,2.015823850258058,-7.559955372021131,-10.864626912126571,7.04570403417025,-0.021166592202704157,-0.16519497050615783,-2.857980047190579,-0.385365365178586,11.450057384846906,1.971819587937355,0.7434895626751394,9.28119604505719,-0.011180481620609375,-0.05017568169445137,-0.30977902588396256,0.04195654519931098,0.002482864384263239,0.14417334574099225,2011-09-26 13:14:18.314319507,4.040129637
49.02512610873933,8.442739770856827,113.22845465028652,0.030849827525949072,-0.03480031899071841,2.2805991030452564,2.6896408069951367,10.068820813250149,-3.3452295953553683,-0.21216268823979534,0.2012610192885811,0.11150598621665747,0.8013391108788623,8.650737312760926,-1.6292105535538648,-0.4919609110202241,10.572748086333124,0.04264745952279682,0.26931824351719014,0.12877207784692896,0.01901609668709773,0.1348276094561484,-0.10743134842481383,2011-09-26 13:14:18.414368152,4.140178282
49.02681633871423,8.446646148734292,113.48767946105218,0.026287012946384844,0.04635441830790517,2.0033131482232855,5.884597985522331,-18.75057497563969,32.19472241912743,0.3443162958458719,0.10215792716164523,-5.442302250212059,2.4868861705327103,11.02055477690851,2.1706552848047527,0.5972949615243754,9.247934159252951,0.045343528193599554,0.08451099946968833,-0.35619838012451877,-0.08023935415839702,-0.20032058004458897,0.13388664027693434,2011-09-26 13:14:18.514351130,4.240161260
49.02718268142579,8.449574647068797,114.72706924294171,0.070783683712874,0.027004416775196438,2.8293186432671593,-3.1347819587343855,12.048852275109232,-12.013238436982434,-0.0234651124630212,-0.15848966357684396,11.234684304796207,0.5451536707057862,9.24056864454186,2.1331689633898985,1.8608162263508405,11.14293791197466,0.1243256794243945,-0.0635342652865817,-0.24238530099021113,-0.11296652749832127,0.08277969759775924,0.09312757955730529,2011-09-26 13:14:18.624332478,4.350142608
49.02659919387552,8.445971791871468,98.76245270849677,0.02630386569546573,0.01980786144585033,4.646552874918204,7.72676397546385,-31.0387480237315,59.744150098813186,0.35638267996130496,0.06056819074187797,2.532728832147562,1.2645056324094366,9.731627359268595,-0.09681022651768455,1.612799145769785,11.260238186149614,0.12088819688703334,-0.07662700918606206,-0.33064256743611536,0.05489792332270164,0.14196624588612491,0.3393079028981406,2011-09-26 13:14:18.724384272,4.450194402
49.02611146330039,8.429575076226103,113.13267426990343,0.037651000170053156,-0.016547183053885153,4.218701863255572,-8.041592342042964,-18.981324055269113,16.76718164360756,0.3825480575987692,0.02475349896237479,-0.778263218194159,-0.13077638830437777,9.42414029502477,-17.726975616317883,0.496363591547345,12.28984011260745,-0.04271895457665141,0.021806528957779774,0.23559377912922885,0.22436854484204993,-0.033254846609765853,0.11986065127986958,2011-09-26 13:14:18.834318932,4.560129062
49.02673583618687,8.429841928828287,106.59691846817522,0.05758839636850861,0.3250317399233558,2.3428907461589255,7.87550585177744,-31.177772637692634,7.909429405279067,0.05975802054985764,-0.017017300086011086,1.5969913661110582,-1.3046293099639783,10.859407713921156,-2.2690325168808307,1.0012497945788223,10.441868322995688,0.08001855279265241,0.12093336412506692,-0.18165120590129247,-0.01127826424385389,-0.10938680724990109,0.434073242210063,2011-09-26 13:14:18.934348003,4.660158133
49.02441513196621,8.44564097179957,116.53124587809596,-0.0008393869792405542,0.05790499971686524,1.5435660327917335,-8.959711238325838,-3.5685258057345326,35.64608804370574,-0.02021940478341902,0.1309879520016403,0.5037870251394339,0.9372706014886925,8.706191112432393,0.176123567582654,13.791423185780442,11.901015213998006,-0.04855517536051181,0.019667414635996,-0.1694448315928123,-0.025136539559060027,0.13289052748567973,0.35962668862051494,2011-09-26 13:14:19.034350226,4.760160356
49.02794989202813,8.44148663258601,125.22082929093798,0.009677303687356753,-0.12692741820693482,3.174801522318464,6.877397599291293,-10.39388663529098,20.710962221817695,0.09100970657747169,0.3127956613041974,-2.4304888337411867,1.1729215377051803,8.531065366346253,-3.5120358333080075,1.101801896452065,9.971986914956515,-0.027806218227482016,-0.07126744291354782,-0.1236567183710742,0.011844324468052635,-1.3452851621689048,-0.11054160839786348,2011-09-26 13:14:19.144393215,4.870203345
49.02691612438797,8.445337606270341,111.46522675862857,0.02663299828515684,0.1190414172377147,0.1613966056870071,8.602171574446245,-37.12081573739868,15.88381466998182,0.4458952470336641,0.2964360213805364,-4.84283955896425,0.24454164929724082,7.79881198232906,-4.143925914839836,0.0680831190377233,6.695100483126734,-0.0011418918854277653,0.0162806427485184,0.12953493776633934,-0.043448220614504825,-0.0004025638258965056,0.11083184160612164,2011-09-26 13:14:19.244622037,4.970432167
49.02675829518387,8.443456801082098,111.32341321001775,0.1634090137308266,-0.033494045845310225,8.202830479885721,-7.234047225523516,-14.801563960274354,9.74165049802875,0.1786154728798061,-0.1918144767831934,-2.879309424652395,1.6284037336201842,1.2236047104101733,-3.494015966684795,0.9066614068058128,11.086619350325986,-0.020552802237512477,-0.04186234344394171,0.2745162878282894,-0.02306517983592383,-0.04546968008733143,0.3749022981410372,2011-09-26 13:14:19.344371848,5.070181978
49.02662135678564,8.446630619327,112.75203108337428,0.04134721700472707,0.026366645248759972,12.71863823111433,12.36944045781678,-7.850356277653171,12.201129142367346,2.2377485086140076,0.12620558843429158,1.2744935458917142,0.2735516599446739,8.036564136184753,1.9984913417297407,5.373463504474731,10.652658916876874,0.019353758708717434,-0.22943320274582715,0.032806684613764986,0.24323959140659837,1.2242847336481086,-0.046786686324206954,2011-09-26 13:14:19.454390172,5.180200302
49.026090963805906,8.444683261290745,119.24913060552925,0.013662345643659849,0.08030405153753956,2.037011395792846,1.613645338821331,-17.338289286941745,21.919118254579033,0.3456465165309005,-0.057755651092020056,-1.8975963777664835,1.0958264065066445,9.810426551075576,-0.4179065921385509,0.47789987811400547,9.840337052010382,-0.1138697770126968,-0.08333860937819877,0.2775343867225164,-0.00465854251527008,-0.08695637610595054,0.16053491617437485,2011-09-26 13:14:19.554344408,5.280154538
49.0267511456618,8.43425662307562,123.3615585017541,0.03710474266866649,-0.15686506558144528,2.1414667415000896,7.4513901424473215,18.29154296824327,28.684545659091334,0.3768587303012033,0.24644693697899892,-3.6856670962755147,0.8043717847296189,7.998346734385968,4.663341458968408,0.5402808327616985,9.814724842968515,0.04017805633593483,-0.004424105307176254,-0.21260141185839632,-0.11313705290569347,-0.32774278784542477,0.4793567014158986,2011-09-26 13:14:19.664380055,5.390190185
49.02570097921432,8.446051019010024,116.48098921760759,0.00036296656324580345,0.020349447079171308,2.4268590503170273,7.192853047006557,-13.987232864667558,29.640960929012564,-0.3055342019108264,0.09177507230351369,5.396383439978674,0.9951175881356368,9.991984049714329,-1.2315228415218078,0.5416630173682423,9.106020070075171,0.004429494011691074,-0.023327293422619175,0.24861126022486219,0.4135805515561779,0.01928408984953251,0.13370993862787997,2011-09-26 13:14:19.764408659,5.490218789
49.026577740567035,8.437627692328206,123.93167105525806,0.018770638035992965,-0.02085954806037372,4.613537903930007,-2.939915461491773,-152.6962101559013,110.31308937520467,0.45235812190224517,-0.08866219544786691,-0.1600278649941863,2.581456677845849,8.696492104802502,-1.3046405132697672,-0.4233888850983372,10.861006050739835,0.04112423512140069,-0.10123222478904974,-0.013490847009618168,0.05417215413878885,0.0036572426423225036,0.20468499353720856,2011-09-26 13:14:19.864422308,5.590232438
49.02630445217529,8.453472114159425,119.59370775965873,-0.06810071477485821,-0.0226841547219456,4.15406191781133,10.670268338046506,-36.57112596764605,1.3913010216808601,0.2667323901841586,-2.463629996183872,-2.439381618848192,0.9885978539190219,15.047455879389418,1.6640460686625844,1.2325593188580928,10.219600524130778,-0.000269279619355009,0.18553915233858814,0.2774433022163297,-0.0592453970377709,0.10040596432911503,0.013115606595942006,2011-09-26 13:14:19.964430127,5.690240257
49.026439995858375,8.439913077553848,110.87306589449413,0.009400136195314962,0.06868647700098439,0.162447771334997,-7.279970543419557,-91.79223070689186,-140.76095523732224,0.2865795534441853,0.3090654343093578,-0.9025153366689924,-5.17485145604521,8.91212903947751,0.545978378445308,-0.24386932581606358,11.973843588120262,-0.022036597094716923,0.1862416787844134,-0.30657118895504853,0.09251681879153369,0.08032720302553086,0.12221472057659342,2011-09-26 13:14:20.074377307,5.800187437
49.02766123592257,8.445928835774295,111.4916023803043,0.01247405126305308,0.020438324270997083,4.088512246567045,9.476698495029291,-6.06838397713445,16.755661392275428,0.41159522972485585,0.034680991080343115,-0.09578374527735342,-0.3288446746145821,3.1527646886765988,-0.06906247005053534,0.8403161412670883,9.780944668778982,0.0561787286217946,0.08492616750943692,0.12622554595751423,0.05048956484653065,-0.0479663459421044,2.3158509462743324,2011-09-26 13:14:20.174412791,5.900222921
49.02830143608806,8.445057853177131,115.84458303296203,0.039607678016184276,0.024892549466617134,3.2691588994617042,7.944507104837113,-17.322763708761983,36.32851255372354,0.21072230386912566,0.13490359617453665,-3.5873867758842226,-3.1821958006254856,8.971543450756776,0.7512009873776194,1.2296092949911175,11.8391644558006,0.09014415097702026,-0.6415844170659663,0.16038177780116877,0.03303546545975836,-0.15727429887198108,0.04432903073565096,2011-09-26 13:14:20.274422067,6.000232197
49.02553165724147,8.440170946165473,106.96833690053859,0.021097754989380893,-0.06586717018009325,0.787689942359123,0.2519621309794724,-24.37199257658871,16.594928858563808,0.26124095628018745,-0.3703191979738966,-1.2591523192136003,-0.21919234775955654,9.480138874262483,0.7657080627890616,-4.424937359524306,10.21247718851857,-0.11553527548381183,0.0019396349845112668,0.060305205501865605,0.01800799444587947,0.0068985132416892955,-0.25616005677252435,2011-09-26 13:14:20.384560679,6.110370809
49.025671360658706,8.443229277381384,114.2182480056736,0.0009720170687895005,0.00895830676273588,3.105911069957825,4.157507269968561,-19.664773035002263,38.30095304286832,0.12611739209255335,1.2795480142252986,-0.42914090550888717,-0.38992714313797283,10.222213366701881,0.5015343246222956,1.2718836519684438,8.495904925528658,0.4432217856543922,0.030880138584762545,0.3402617930406412,0.05604756447613554,0.08232592861839216,0.13658954149329564,2011-09-26 13:14:20.484587556,6.210397686
49.025351704067376,8.450227422090599,112.12829006542248,-0.004939722808793588,-0.034333273490765766,1.615538583563666,11.427373277054034,-16.146785549941384,15.055831677519775,0.12128095908706137,-0.12025864187460109,17.306737249124986,5.345071455217134,9.30462016367826,0.22352132081587336,2.1781522761096994,10.405914148807184,0.18583908149127676,-0.09678495849781255,-0.10446872553673642,-0.0509534594393019,0.5249974506219615,0.1255671855507759,2011-09-26 13:14:20.594413518,6.320223648
49.02713299772939,8.442273162047476,118.20063531846247,-0.00840437567828086,-0.005178803696424192,0.9377096818253032,7.126017487915574,-30.98563375744038,6.759713731286695,0.22760208487365569,-0.3066864113287102,-4.295777771152173,-0.48250171350342286,8.894068049616749,3.959349525758986,0.6671115701451398,6.674825391770966,-0.01614662679635758,0.11111777701915573,0.24923107799920477,-0.017542870825780172,0.11048190084301732,-0.09082790705155663,2011-09-26 13:14:20.694581503,6.420391633
49.0262976742305,8.448450560605846,112.16599635736212,0.028680735448498765,-0.008981112151830601,1.5096141304104704,2.018343322830457,-129.86447971182983,24.74939814027855,0.13260932469961595,-0.4200019013618339,3.2376583537110655,2.126731882598515,9.39339721064652,-1.8028579778177107,0.10810353748007784,10.006934589724382,0.0043319773187755015,-0.21321092999890423,-0.4031902171801995,-0.09368129896595576,-0.02999403184996714,-0.10451435700401943,2011-09-26 13:14:20.794485836,6.520295966
49.021979396742104,8.43748224197625,113.42965335488039,0.01502755859947029,-0.007195597768103816,2.0697000663407694,15.839931977040887,0.9104939231176115,32.49915186806122,0.27577237998186666,0.38939505145515024,-0.8212951692531878,-7.072977072012925,8.656151765018404,2.959902020950153,1.3197584325144047,1.5805109997983031,-0.009908015973039908,-0.06667286840842718,-0.3106354356317429,-0.017736823921033092,-0.09081045091678691,0.0845685513488924,2011-09-26 13:14:20.904441940,6.630252070
49.01747620082367,8.42955795491584,113.4436609695771,0.03131102076943777,0.010045337780674502,1.8875313638300464,-20.89060946613293,10.585023675381981,14.141681531367992,0.22135428802650123,0.03980373797386686,24.934896646192175,1.0798973431560674,8.766022891973078,-2.1084669006846415,-0.7488476680578857,10.958155333723981,0.08109974846281844,0.016125916857435942,-0.6345283360088387,-0.056201178204964654,0.0803527913838099,0.3547010859332772,2011-09-26 13:14:21.004450074,6.730260204
49.02601016243958,8.444218675820814,108.18588636932753,-0.00845233432375661,0.0461230043764783,3.177944473850138,2.080566058634754,-27.70140410714017,1.8148876624330104,0.19530640006411837,-0.15699754743192648,1.0257839952002779,-0.10389653970796864,13.324065969086059,-1.407801469018458,-0.5492444964266532,11.393489602201292,-0.017756806114228016,0.30855901030930905,-0.20353336891309765,-0.10013561401443315,0.14596223065597502,-0.06309721723838911,2011-09-26 13:14:21.104473721,6.830283851
49.02656352313074,8.451637421783818,96.3045452099216,0.09263492533310763,-0.026541880956308463,2.5557552042314495,7.104589571499243,-42.76485049527363,15.999911062731437,-0.02895531227311242,0.582931581948301,0.34361372653780686,1.03644859335474,7.398648635123537,5.145405245949655,-3.1681632965230047,10.443573477266156,-0.06235050934297137,-0.003688113521873198,0.05844508215278442,-0.2065258747028859,-0.21889492109463002,-0.3887011311411323,2011-09-26 13:14:21.214640425,6.940450555
49.028870521557174,8.440429181004005,112.86033450394389,0.019902389602157275,0.047780993458624174,3.563268910423306,3.8002103576378174,-2.4733475858114815,-6.256787308716392,-0.0612898632032504,-0.1494810309067049,3.6659185759863617,0.08397559858094505,6.911013504893332,-1.486892466359214,0.1830199964835612,10.486002021269243,0.03786414363004304,0.11700024578870774,1.2396273979142685,-0.1686017249340772,0.023697692965629256,-0.10443150626978878,2011-09-26 13:14:21.314464029,7.040274159
49.027461763849175,8.44907736744616,112.8592770576514,0.0017552135686367022,0.052055570379821,2.8692734721380138,10.872148603661497,-70.79006334708502,26.047928370532663,-0.21438068460631193,-0.3304693530341902,-0.8460763904729978,-7.026159670225022,10.00483508621116,-3.1060760830765632,0.08548285954818563,5.864477302644046,0.038716251747917534,0.0011837967735335367,0.007499606363968568,0.0083357825605853,0.03369514606732239,-0.14337676853231246,2011-09-26 13:14:21.414541573,7.140351703
49.02590274523532,8.434846349890599,114.63204438843626,0.07673389354340318,0.04478755653490518,2.500486524538254,5.829211527414129,-7.664108862783414,19.302796281014775,-0.5932635150053386,-0.4361357525198872,0.5838362950270952,9.844387371403965,10.050556737948586,1.4459621453357732,0.4292421357384957,11.547714559539694,0.053792931063143486,-0.010144148195463117,-0.0769185651913201,-0.3792153493515806,0.15947603816164152,-0.14860850859099253,2011-09-26 13:14:21.524452628,7.250262758
49.02681886907435,8.443517411343484,115.15368636947163,0.026289396692695966,0.00790339236221013,1.842200368817104,0.35539863558688767,17.11183307441718,-38.9043654018166,0.7643357258754527,0.07270694581989198,-5.401576342034023,1.0557780998247546,10.512939188958384,12.640123251457181,1.8300849464695055,11.508398371619315,-0.034055373410346736,0.010734502229222573,-0.12272416229183222,0.0002264871723635757,0.14228935050574917,-0.19627253970004366,2011-09-26 13:14:21.624461477,7.350271607
49.025662595263604,8.449286612985464,115.2284596137021,0.0008337084002083238,0.023729820338003686,1.9273793775893704,6.482546928719152,-40.29698759721862,-4.432068292670749,0.09660223085330898,0.04253928155424082,-24.88830244059984,1.0485739432223404,5.038796765135365,2.813502852377778,0.7597763585140568,2.77377144717984,-0.012780075074253255,0.2390459562196888,0.32167361399113625,-0.04810764638153907,0.05335715857013655,0.1942526629548209,2011-09-26 13:14:21.724634502,7.450444632
49.0277749044206,8.44396737506794,114.70065514405893,0.03454355474077886,0.04092120485172298,2.4757141630601183,-0.35107143613038616,-29.991431331864423,28.024737234133568,0.22280974946240883,0.39615922653484004,4.868469270021091,0.8684432092630839,8.261628937176711,1.632060611021277,-0.730641225992873,12.021789846069082,0.32414307662750835,0.49011047863507484,-0.18725998201535565,0.06695967509119458,-0.09332225581085157,-0.28522496498589484,2011-09-26 13:14:21.834476986,7.560287116
49.0276123907565,8.430576432955922,113.45643045757632,0.03716021619567821,0.001362635435141266,2.406404368022091,9.691953943346427,-23.643006100169202,14.367062983665082,0.4629683691587987,-0.28996104472710055,1.8216005387492002,1.6517822701516356,10.749458444106086,-0.7627052728094162,-0.3343314985543592,9.554698801483463,-0.0340738885363966,0.8511849975804704,-0.13069254260178048,0.06435610999486377,0.16874614929122664,-0.17495819765358397,2011-09-26 13:14:21.934507049,7.660317179
49.02745788203227,8.451386575231766,112.51640286288581,0.0480244697041429,0.01480126995540208,1.6944471125185347,7.418195148227414,0.3354807650863396,32.07337369827185,0.5354542174875301,-0.3397563577982575,-3.564783123490094,2.699857500634639,19.126671601669095,2.8228243596617433,-0.5509765663118857,10.94012577131064,0.07891083177451005,-0.09343355291093418,0.41795888181784135,-0.04111282850761998,-0.3265070288682236,0.06754001380549722,2011-09-26 13:14:22.044511125,7.770321255
49.027589158106586,8.438925021331986,116.82731586187259,-0.12180018160384115,0.07940027306258743,4.4452085166244455,4.141972439325921,-123.4856946349494,16.59731362315992,0.06985276659754712,-1.2181110553424195,-9.874108677499496,-1.112419860531943,10.134685412720449,2.616729254799424,1.6376988255204679,10.175261816561662,0.06525754759385753,0.019682521027405416,-0.2301421866273214,0.014186430731830072,-0.14157691317916493,0.10899957816959482,2011-09-26 13:14:22.144502975,7.870313105
49.02238415654259,8.44411423077576,133.10607264807808,-0.0031383883504810736,-0.1172805170982636,1.6873961708295144,-3.3321539188618434,-11.15491829437615,11.917766474143049,-0.19959553003334385,-0.2983341134003177,-4.028677737407016,-9.34707558348582,8.799338203489064,1.0156947436034889,-1.8010432372572065,8.717141702052276,0.08555674053352558,-0.3944743304189638,1.3137001848393162,0.31071785669102403,-0.053198000668915744,0.22303139103144592,2011-09-26 13:14:22.244646854,7.970456984
49.03071367736472,8.443262228024667,110.9579403388226,0.0024842741431261653,-0.03310031467672021,2.274922273224731,17.194617420943466,-55.41227615089707,30.723282415253735,-0.13268798353816164,-0.44557983445761773,-1.1502650973827135,0.21850733657091975,10.836943829675782,-0.3313841334590338,3.9162912859205257,8.544895382143892,0.010776308452963297,-0.6555900777686591,0.009731406046992616,0.022092369825310293,-0.09569001127696564,-0.1396237860021176,2011-09-26 13:14:22.354508893,8.080319023
49.0277897899467,8.461573429365629,116.38350930310891,0.047979684234420235,-0.017044025531007676,2.870636125436403,-52.80913076560594,-11.328006825581198,10.898633000435712,0.18700061236002344,-0.0729665412821013,-1.273374826118592,5.181617644939596,9.320266408898597,1.2728995106811376,0.8484851830873292,11.893949737741519,0.11080793222199688,-0.24735501453981412,-0.7864634471829781,0.025066855343541108,-0.08558757959007213,-0.22107626080249715,2011-09-26 13:14:22.454476298,8.180286428
49.02638150655901,8.447097826534263,123.62037361463594,0.010870293816454612,-0.08338233697194503,2.998241270408354,2.6226249133698794,-16.075917027181966,1.9778203904576728,0.31654992146735417,-0.036737756874417896,-2.5919293391500773,0.12066824279192656,10.809539266290793,-1.304321575367565,2.8523727381747483,10.223719984754606,-0.22046924394332174,-0.4000820801364446,-0.013536389555101547,0.04027666175264836,0.05851750095883669,-0.018263614799156645,2011-09-26 13:14:22.564511117,8.290321247
49.02648434671766,8.441410462348117,97.03779589280873,-0.06125615076355355,-0.026435302108825522,2.7446999408103023,8.420591246847817,-19.773575391828572,1.4633170482322786,0.4390304477609905,-0.12072620737415442,-1.2154290934290939,3.246160728118609,9.988344312843447,3.637223701964574,-0.14510741440899555,11.56667785612502,0.06555800380852014,0.07746487507090588,-0.030758074768161586,-0.38360094489755975,0.5226258284322387,0.031387607543283805,2011-09-26 13:14:22.664519916,8.390330046
49.03019405873988,8.451469803641045,114.33959273060317,0.10866579823465794,0.004229617397443457,2.099709321413781,28.942363869443263,-35.14192772123283,45.93338390049813,0.6526204255141035,-0.2136065117540752,2.0509611643035766,2.160452008562852,9.511856559251452,-0.5318965033657267,-1.0770415447911723,13.863575592726194,0.05587387002517567,-0.17479411461401625,0.6074330946179533,0.045133145798389306,-0.03725744632989281,-0.009139114588014224,2011-09-26 13:14:22.764566793,8.490376923
49.02618299373717,8.440803077971985,114.31389314522954,0.026865778649890773,-0.10230723039940866,5.074062863738227,38.94854119039518,-13.4977414211558,20.595071883969275,-0.13311119693025944,-0.028101787637242918,-1.89259181010225,0.9462534982125114,9.436657252998462,-1.2965847301499247,1.332828359526073,8.586437201074963,-0.059399723892194105,-0.10893576767515747,0.06725025874976648,0.01646490588496006,-0.0393242176627861,-0.693235363095847,2011-09-26 13:14:22.864546171,8.590356301
49.0287330050274,8.435481348174523,116.9112383706984,0.0634909417623433,0.021956896681252315,2.727674672977886,1.7016871768411188,-15.39302825227186,24.25518130061713,-0.11081052724351184,0.1785932822951337,-0.29837808330737114,0.8129897719601553,11.357492601113972,0.28144863155785277,-0.5557178781574015,9.09460332042053,0.3051443821709936,-0.09596873479400296,-1.449473825015322,-0.016269223525231576,-0.03200084283964779,-0.2744571653539971,2011-09-26 13:14:22.974524802,8.700334932
49.02875979240261,8.446442706141879,111.45073294604221,0.052154937123180485,-0.12504874644380043,9.73429356814252,0.8219510092510434,-8.251871366514026,20.18145422593495,0.093230342988214,-0.01981596067913001,-0.9859578893027512,0.9495076681551755,9.679582808386913,-1.1971012130749712,-0.25497300501691766,9.586427724391296,0.011535850305727357,0.03724082044224163,0.16196737009169113,0.06615755410151374,-0.2982848268912319,0.22681202887079038,2011-09-26 13:14:23.074546093,8.800356223
49.02795065134686,8.437690384469889,110.41529258631421,0.03329972489570651,-0.01924700334914224,4.128046218148724,2.5904616121611816,-120.53911369250766,2.421153403145844,0.3768582435223835,0.08109092492415561,-9.37576589012453,0.5365918423078356,8.484990784248549,0.19100751254067158,6.090869122357125,10.60195379674892,0.3124176493748204,0.12656334003744077,0.17160889833458393,-0.007783361014204028,-0.056786015322392296,-0.31465059194377815,2011-09-26 13:14:23.174585645,8.900395775
49.026839904164255,8.447036741280474,118.06424127840427,0.020323957798139728,0.21700026097760294,1.350823629616243,-6.014671537445989,-2.9000987092739337,17.60864914557645,-0.2783883857438562,0.13058756041940855,-2.031227518551044,0.7073883420714825,10.675710146388536,4.54628932213504,3.5767867965122115,11.454944112966004,0.05359026089823165,-0.04869453281056421,0.11470287955423336,0.10202446456404742,0.16329041620184012,0.10990700836834746,2011-09-26 13:14:23.284715399,9.010525529
49.02680238432769,8.440783235408723,102.92205196580538,0.06857026396673577,-0.013952996470939361,2.7940268632466254,7.787582495127822,-52.111985165089706,-10.306894020144304,0.29756419883906104,0.05715484023616907,6.170227645497157,4.176779209642583,9.736053397459592,-3.110614952177439,-0.8174761376414938,9.671681545863054,0.10225337835242211,0.01132166222815504,-0.31741745308082164,-0.03360853477825082,-0.0411018488460914,-0.03514259975839018,2011-09-26 13:14:23.384621419,9.110431549
49.026639213986414,8.43017797585021,106.16712893760948,0.008175629527204499,0.043269028869791816,3.467721163129595,7.236872066071345,-18.70979586411805,-11.10613458881693,1.8579908008240513,0.1555922915961276,-2.7212509594763263,0.9593987823996504,9.595499386501162,1.747356047362358,2.715679562470716,9.329293902445148,-0.011615889620470991,0.09097302848483887,-0.022003804467180282,0.07315997311372326,-0.06263986531407112,0.2497576072729205,2011-09-26 13:14:23.494536374,9.220346504
49.024300662436445,8.446481861351339,117.80460992623291,0.03823977317611404,0.06186270410841821,3.388053457040047,-1.5980163962115808,-35.41773986371244,28.547222449806988,0.035726590438355285,-0.04193434468059554,1.1737846251901176,0.8323014802187999,9.948171952364245,-1.1285869559561676,1.0266786573865478,2.904431547753723,0.02656791648939087,-0.0005063619510345813,-1.384835227853241,0.035545354838542126,0.1251253591594117,0.635279637491378,2011-09-26 13:14:23.594598408,9.320408538
49.02861387236746,8.466448663125878,104.54975481854557,0.033974896959591064,0.0235922134333975,4.084241546380265,5.223781049100401,-11.954819987894654,29.560100073891338,0.6227830192585364,1.1077231199557382,5.708810151916926,0.8437298521168604,9.682378798593291,1.4989993507890735,-0.23132436605723605,9.292255493304012,-0.1549266375222113,-0.089347206812206,0.13755138386036228,0.020683361660207088,-0.14569017580399923,0.04918454852081483,2011-09-26 13:14:23.694712487,9.420522617
49.02660297678905,8.452979859630391,115.85514506013256,0.06246292113252942,0.004113768679650808,1.868058612592549,5.256828148925943,83.39600037379125,18.4712779317588,0.06794942569837571,0.17009012062080653,-0.10819441206454654,0.5900423669118695,3.3402798056548466,0.4908928973612481,1.9367379499024482,9.271495491286831,-0.04336527962516096,-0.01300302883282913,0.02958613584787873,-0.040760534042656324,-0.11730563009320283,0.2602180510055412,2011-09-26 13:14:23.804638678,9.530448808
49.02778826075037,8.44546280565954,114.3311372615125,0.09960094539906444,-0.021099869134763468,-9.590738202425648,39.86726270400656,-33.01357517832934,-83.96069930711742,1.3774000950726708,0.49796296001271884,1.383661726001435,4.438381047938087,8.467405291135515,-1.934240553847383,2.0358073282305176,9.827276964590206,0.008413606745295229,-1.2767696558986155,0.0494057185368256,0.020464807223349653,0.08352581926886109,0.4736512035047455,2011-09-26 13:14:23.904591433,9.630401563
49.02727098777687,8.442001826142873,109.8683550432226,0.04993415007187846,0.018799237197797268,3.00531477633548,-4.613621398531997,24.547486119750538,14.281942312468082,0.012177453742625716,-0.09210064286637583,-0.35227278223308744,-0.8733590287146992,8.480223786476275,-2.7840568731578816,0.2942877356088015,16.476982557429842,0.03133091573214309,-0.40020316884294743,-0.27360752459951787,0.044569986211349326,-0.007920088745214233,-0.17184440737892367,2011-09-26 13:14:24.004572444,9.730382574
49.02443392624432,8.444680350689234,111.22680230135033,0.03782398698262728,-0.033006713779203105,2.002547303533463,-28.864117347354167,2.32821639956226,18.36145851862232,0.13965459951698178,0.9251642435267272,0.6658172266566221,-0.7853788866503639,9.11627674621117,3.6644685377805084,4.917764446836817,10.299710511128914,0.10795804517386504,-0.052226588938995934,0.06006931419072148,-0.03189266535654095,-0.05522936217890126,-0.18966913384089082,2011-09-26 13:14:24.114528485,9.840338615
49.0293653258721,8.438123777129823,115.56685568905064,0.06925977041202411,0.04667195173904183,4.351289191202306,2.6364179389456126,-84.5496794554537,-0.20333618077716764,0.29708887819828433,-0.24881931539470176,-0.9346906803777157,0.6452354724107363,7.454142845512347,-4.669143745978087,1.520484729211626,8.853005592105088,-0.02461266437367495,-0.00577654321261355,-0.01137503840582859,-0.02541263801690307,0.09438565357156589,-0.04017162762667868,2011-09-26 13:14:24.214680134,9.940490264
49.02725222192038,8.446368394771934,113.96902266845477,0.02720727900889472,-0.14002457632958784,1.3297589542036914,3.8144551642929176,-2.736558588980408,22.069307016806786,0.4506505186254125,-0.3587018288294607,-7.517506231177834,0.20751141285706365,10.351227057897088,-1.082471799652617,0.5355103209231327,8.16206688972963,0.008745105193532759,0.1865986798254055,1.3039315368140998,-0.03167544451112591,0.17142061784107865,0.27457651978416797,2011-09-26 13:14:24.314593468,10.040403598
49.02788697965112,8.444998494916794,114.07534923247823,-0.04525217361618513,0.02059023666213669,3.739324891187653,7.908733830937565,1.7944729666440615,2.0995056514279344,-0.004084321356171275,0.23458565440314733,0.44994623642820314,-0.4486946845680171,7.70126571947037,0.32969319160893107,-0.09363385959858445,9.92851218360119,0.014607008790280348,-0.036256065162425424,0.26163289634367465,0.025526806566237646,-0.08555998130366137,-0.05657425263791313,2011-09-26 13:14:24.424626367,10.150436497
49.02646239386106,8.44160128765527,114.66442088329515,-0.2043774240054448,-0.017212907461016436,3.015343189567082,7.548195823126292,-22.22265663718592,21.50374167446433,-0.07248164767184755,0.08449241106303837,6.800870989160499,0.5852890122882946,12.788651005200816,13.884607436973626,-0.1635844471687239,8.416392510297303,0.021306543341334413,0.3203077038446928,0.2706317165613442,0.004804987204092574,0.06053393599926099,0.19887413129837359,2011-09-26 13:14:24.524596312,10.250406442
49.02517638049587,8.448410215760438,77.07818664915241,0.05386859664406774,0.06818738821099621,1.839496803558147,4.931869933408939,-29.89447111653635,46.146632307201564,-0.1359021472298942,0.022770244921090588,-2.4421752604488267,-2.6330129541358067,18.810530707988924,7.089714438941165,0.050131746255568765,10.749256554892295,0.02839326002277163,0.07642611613868937,0.23678187856290253,-0.030606814358622784,-0.1783653672516482,-0.39370512866098195,2011-09-26 13:14:24.634611077,10.360421207
49.026530767466866,8.39211903053798,108.50168668783265,0.034637707871515905,0.03478972878354349,2.761402830139444,26.472094578506958,-8.346900532330132,23.4815962978832,-1.8270175616154651,-0.16635314061135348,4.848637113514488,1.2260481628969981,11.28572020835152,-2.289128417384143,1.7727761681078866,10.484885488220751,-0.014846210225987996,0.05509681840258646,-1.7402888221877801,-0.0741005073752822,0.026975218900133567,-0.4158469815631563,2011-09-26 13:14:24.734809582,10.460619712
49.027318191885435,8.452166218821002,116.34256361045395,0.059807140955085936,0.041431146498894685,3.790224998706723,6.065474419218568,-13.04497960075068,-0.7179023817678782,0.0016259163412878364,-0.4160650648541361,-5.264971340858639,-0.01705100846060076,9.564928066974915,-1.0239862505635193,0.33816345963625977,9.634013133929022,0.03358566795398526,0.1101606693100721,-0.17143962891281933,-0.11720241751710281,-0.08892868387994157,-0.21252808675125523,2011-09-26 13:14:24.834608356,10.560418486
49.02743810732945,8.437196552531578,110.87821205885447,0.05748173886800343,-0.15479468623053289,3.2938829357728894,-2.0800336869740437,-18.62330077173741,-30.181906954457876,1.6661849827787687,-0.34721133438277174,0.8400499541319533,0.9143036643623479,6.7107208129431335,-11.958977033196117,-1.5201105601259408,11.194200966863004,-0.011140230695766183,0.35607723978991596,0.7100324037617984,-0.03768274336955569,-0.04588005493450749,-1.1504885935800244,2011-09-26 13:14:24.944610176,10.670420306
49.02533472004041,8.467292997360953,113.41380165453371,0.040497198382101085,0.07448340600932939,4.74754130905484,-20.204334285430576,59.31544151332224,35.95898282424723,0.17672456900829073,0.21649364506611946,3.27888624621391,1.1007923242260762,9.471529853527564,-4.28540257315265,-13.661255291031148,11.708107131904647,0.0029473213381885337,-0.2059305062168142,-0.12290505418784631,0.283215428135125,0.06909952766112394,0.22643268226497174,2011-09-26 13:14:25.044621142,10.770431272
49.025374584798335,8.462371337128554,106.63174865524014,0.058886079960605194,-0.019996612742910785,2.838693195798778,-2.813327674640899,-9.610863223008675,15.402041676171887,-0.36706034195837767,-0.09758082522518546,-1.6202652056860645,2.5044892710717,8.910012968988205,1.6231499231701685,0.47213464659292537,9.716499079750752,0.007968989692872283,0.05935041073922877,0.12038156100939959,0.004540562343975894,0.03260574990142731,0.04711136566565653,2011-09-26 13:14:25.144635150,10.870445280
49.02706167023679,8.446887030874262,118.16170329702688,0.028758359981973302,-0.006308219299083533,3.76549334054217,-7.690387722386117,50.41318089986929,157.4492928082098,0.04039545532076039,0.285609089176307,1.9032712934224567,-0.8334897190262849,3.434521012268089,4.425670893537391,0.4688922390810428,9.537231703291043,0.020160091040434435,-0.033153607608071796,-0.1584146808665192,-0.010954426666601565,-0.11527546820748717,-0.28764136864636436,2011-09-26 13:14:25.254911060,10.980721190
49.02749055714438,8.442936839306652,113.40888743044653,-0.056929595361078084,-0.30441783310907,1.8575896415095963,3.014078352730373,-8.430649635621428,25.84853817209509,0.09798198538127764,0.3495627431787738,2.2056504517800732,2.591992410088076,9.390161097587601,5.090303822649524,0.32855767327759805,9.032045285387735,-0.023617277350159952,0.12859094481596664,0.010023217587716352,-0.013220095621321912,0.015208005134358459,0.28675153679621695,2011-09-26 13:14:25.354668882,11.080479012
49.02782917675028,8.440605979392593,116.48249391897414,0.03028630653258439,-0.000610813978118201,3.1686053179096216,2.9962990056111463,82.01902665512816,-14.09654685581819,0.0477336769855526,0.08663107005301558,-1.4029944821395601,2.474891154058144,9.014163965010255,-1.4619501892747568,-1.2683717028456993,8.842501632442348,-0.1758059660832777,-0.0013911957852398476,0.0942658957298556,0.026148969877725463,-0.1585353402312192,0.2543458104913485,2011-09-26 13:14:25.454637153,11.180447283
49.02854104043598,8.44367707763072,117.20689450812549,0.05011938365440521,0.045563460851574394,1.9212075341826904,1.441608755275674,1.3317266036313047,35.51509142811886,0.15168634052062696,0.41574705980241944,-0.17898400164692563,-0.45198633831373086,11.06068426578498,2.3692797765010387,-0.1593326615962861,9.780880103139106,0.010800128401092585,-0.06386443718484189,-0.22532898633036977,-0.013420605710705628,0.36763923465076986,-0.17616628906804624,2011-09-26 13:14:25.564662963,11.290473093
49.02860934699716,8.450738206351156,115.05707327859228,0.04734224830916798,-0.047151484868094576,3.466949090246432,18.55092383222306,-0.6863685267145154,29.416581645469435,0.09524576183570217,-0.12457123575904078,1.6302208561615315,1.449247141142838,8.625434768211592,5.44443292804668,0.7271422738566343,11.779916451706228,-0.03549214605114487,0.01702917440144973,-0.14297740407502663,-0.025963424809175906,-0.03132961125892855,0.11917886077363782,2011-09-26 13:14:25.664661392,11.390471522
49.028164075129766,8.44424100067507,113.21492769744098,0.22211151875161822,-0.004533312717343019,1.205002665025868,2.1663019067455807,73.19418330699412,6.567946546351955,0.5320685833916905,-0.9243294834045221,-0.44197061236289736,0.4376934333404706,11.558107860617364,23.335423524087773,1.3465448912963154,14.030270723806233,0.09038952651917798,-0.002913801406670239,-0.4145576772076686,0.09757838537327729,0.22553419211382839,0.07002934585321965,2011-09-26 13:14:25.764691671,11.490501801
49.02821967046016,8.45037558288694,112.55808746386965,0.04591029672439247,-0.011690129883957998,13.395783332756617,-1.4611590864526578,-15.099798573980712,41.78063196709163,0.24068811679057284,1.3376436915210044,-6.374897938236101,0.5492599440658144,9.620500168669585,-0.13906428003203952,-1.0952154686887252,18.572011761018963,0.251350933900107,-0.20518645429771118,-0.31931266333715286,0.04353763432388473,-0.012918062523903895,-0.08257265184161217,2011-09-26 13:14:25.874672798,11.600482928
49.02419615077828,8.453295553990703,109.37013745969296,0.03323025243018772,0.009648003764747821,1.480278483761114,6.047041382067331,-23.683753037963946,8.637949993260593,-0.46293417763436956,0.031217549207393017,11.610264498729457,-4.338757282929983,10.979450998137686,-0.9453863932820834,-0.17866151580585862,11.168251563663835,0.0010445303176107885,0.06666327882511286,0.10926919797272118,-0.03391845961938256,0.08301650268289514,0.08794156921277678,2011-09-26 13:14:25.974679901,11.700490031
49.02710150159273,8.447005414085199,113.9330734658034,0.025475930253372865,0.08014756196106682,4.342389951347066,-21.856992906643413,-4.008378209560993,13.573893874072045,-1.182814491908753,0.19158740530740895,-2.254855719995183,-0.1987455146422722,20.15338613169989,-7.370191375613429,1.0979348389106531,9.298006475849995,-0.024676714104441014,-0.04047914763684844,-0.07716944220571222,0.005645342771818017,-0.001980721289313839,0.227001506090383,2011-09-26 13:14:26.074709422,11.800519552
49.02740885527659,8.446175434517382,106.44562648942329,0.03095586660906794,0.026860541241824347,5.493278838497908,-10.885469041444667,-10.825534037794325,26.867907975365153,-0.9911365102246654,-1.0333977124619191,1.4333303457737177,0.48099578091942424,10.641714373084929,-2.7412154625381784,10.224863836551824,8.756618567508543,-0.5636103891998095,0.14159692125235865,-0.1674160490495641,0.04961457865263137,0.03404712812857469,-0.018628332028760356,2011-09-26 13:14:26.184709829,11.910519959
49.02675267282257,8.438557171712798,115.2388193463461,0.04143415528202244,-0.3097382528788626,4.456901108423901,10.416881989572484,-34.2846994105185,-0.42580733674153315,0.0775187557285349,0.36622032019268475,-27.232274279950914,1.1683201845165598,10.522132685580708,-1.1796503093032826,0.9843964324850251,10.642577550773762,-0.04326658422572409,-0.1532752087267315,-0.030305982718360037,0.06393201173607188,-0.011774833555371992,-0.1744969633279032,2011-09-26 13:14:26.284888284,12.010698414
49.02858870300571,8.443571431621752,116.16122443292667,0.07200081320480595,0.14806398020102307,1.4903199716620517,14.364322922172759,-32.265364007425724,16.3793008551129,0.36690773802134197,-0.130957740630137,20.09069709631677,0.3478643280451341,10.905208786433812,-6.547501141764588,-1.5360223307276641,9.751907986437743,-0.05436203192777422,0.016538220799201392,0.018832154901120727,-0.00433213600738723,-0.0046391269322604445,-0.04368316894753668,2011-09-26 13:14:26.384842970,12.110653100
49.02716474981033,8.44082539897786,119.52074918087854,0.011088973453983169,0.19717423233214293,2.9490248592152764,26.15866840661291,-36.45389374699951,6.2617617769365985,0.3429336344265626,0.02861827431965762,0.6887698995293445,-8.293007424600532,9.132316522028146,-2.4502016826678314,0.4458199767600813,5.830478345556836,-0.3009735454418343,0.08843067985206374,0.04504874479851939,-0.022751097434889463,0.02218727419250828,-0.21258746487373675,2011-09-26 13:14:26.494681878,12.220492008
49.02381972195423,8.445448480366966,123.74807362133666,-0.004845410628834458,0.02757323328205105,2.453855163940592,5.5189355285647785,-28.324964985956207,25.07561523005838,-0.05711588111926069,-0.22712949016856018,-1.407377775164429,1.5249429741229408,16.98174410036052,3.2847312213866253,-0.0767705477421066,5.979392329803414,0.02408436442290528,-0.05706310602162833,0.007103089447671206,0.03294987007461291,0.06251481069826133,0.09127543671292,2011-09-26 13:14:26.594702098,12.320512228
49.026123467884545,8.43702240145751,112.47050843164263,0.043413670135970805,-0.322219362606716,3.646914140030705,5.666408219131732,-46.95268816535746,137.21564650662913,-0.17034480861898332,0.22509290807368432,-1.3684492820754466,1.149827222767887,8.723543876309293,2.2640248442472726,-1.9144791294415449,8.073507285309432,0.019902262323584503,0.07032070617981996,0.5460083633718343,0.08312545623946567,0.014149718502330797,0.31584180697333286,2011-09-26 13:14:26.694796602,12.420606732
49.02738266454023,8.444404072815304,111.75580803621355,0.043379735706382636,0.05129923071155898,2.389313796496261,7.527679924356173,-26.750674866661935,6.33284209896704,0.01414663574501649,0.1682559600854602,-0.3656663759387674,0.8233286486697359,8.677664646159364,1.111264567363206,0.5202989425139776,8.161471153782697,0.04891320573423555,-0.0008704855024638685,-0.10404644672482333,0.0506451719329377,-0.12770587806301192,0.3564758104944887,2011-09-26 13:14:26.804687400,12.530497530
