lat,lon,alt,roll,pitch,yaw,vn,ve,vf,vl,vu,ax,ay,az,af,al,au,wx,wy,wz,wf,wl,wu,timestamp,rel_time
49.02646637000732,8.44269992920402,112.6768962319921,0.053619392854724376,-0.13035166709496926,3.0201743795625178,-7.4007342213824785,-49.43250141029597,34.07209776183856,0.20027629313930795,0.16590632033181207,-0.688050325081044,-10.499722822663808,9.70304368062627,2.329976687737685,-1.464426477221789,8.361808130302459,0.04983346188177303,0.16379076535491452,0.2217804652392124,0.04415780724717466,-0.022572580440786423,0.0895246287900925,2011-09-26 13:14:14.274189870,0.000000000
49.02573332546013,8.454771701195027,112.27181874881995,0.013248891245213775,0.04799553086075943,1.0295804298611233,14.623583974876125,-18.941563848411217,11.27852460492369,0.22552662426657089,1.523839785691149,0.7720706916286763,-1.8174915988428668,10.20115565900759,-8.71291286824639,-0.8943809471984349,16.229260354384458,-0.05308574571016262,-0.09223754570161773,-0.24959213339257155,-0.028330981037554454,-0.026144509651023114,0.215575198364659,2011-09-26 13:14:14.374162269,0.099972399
49.027173004089256,8.438682774252003,124.97161553450175,-0.0245655758348442,-0.24427751668840397,-1.708761862600364,13.53492883978431,-13.144524444212836,60.093833710346516,0.166305227562916,0.583830774744249,-2.859200185170603,0.0519856757315115,15.293401622859633,0.9690551582488759,-0.6471070756164529,10.305678758253203,-0.021991551577646404,0.20626801435070952,-0.02306868634097578,-0.010746636312378818,0.02372962391985735,0.06831940173638848,2011-09-26 13:14:14.484153036,0.209963166
49.025570924123734,8.443216172666329,114.96421538087313,0.01986071429590604,-0.013571102367040809,2.4314242934266317,37.243562924869025,-15.523117198671283,14.116329538177679,0.11357624976040481,0.052061037721142206,-5.750433515670146,-0.07375764709821736,10.214493482346523,1.1303730151626357,0.5581506670036768,11.478752871056457,0.12181413366042604,-0.020645936010093045,-0.23219778396452137,0.03088478027897027,0.010501530822088337,0.037094500447871714,2011-09-26 13:14:14.584217749,0.310027879
49.02766363062613,8.445863265094992,111.38100868822646,0.033068958254699056,0.04530949747799216,2.2992631491172713,33.49516866423085,-13.315961258747267,82.01130356253816,-0.004586760002314616,1.1249290060076014,-2.2612363905526918,8.023972251738774,20.635623475442664,1.717613006271994,1.4552452725649518,8.690891229699925,-0.0027105111009164736,0.02711515040026661,0.5806529218525085,0.03133567876678863,0.07168323236087686,-0.4863195832496078,2011-09-26 13:14:14.684237582,0.410047712
49.02668056257262,8.446403205547256,112.25220826698673,-0.022417188878996963,-0.0271620394682223,10.075817079534893,4.736242276106091,-6.632423889161968,-146.68557057641593,0.1799728654973823,0.045134262836857605,-2.4898783225220606,-0.523105253638122,9.364831169086546,0.2554138025749826,-1.908590456324357,5.521845160925218,0.010542437948281557,0.04365887584525091,0.046229460724091745,-0.05487357896615392,-0.008524132178779203,0.8050228497540812,2011-09-26 13:14:14.794168305,0.519978435
49.02590389667302,8.450743345211501,113.60909742090038,0.04660705116212352,0.025425743922966183,3.148431266104528,7.053344475585289,-11.040540063554154,15.034029564420416,0.2996966977458887,0.27443414715459874,-18.211963324314183,-0.8754214445269118,12.867532971581674,-1.722761539314447,2.6636364521092832,9.937179183054102,0.0472449211908649,-0.027033011763673606,0.08026898429964177,0.1243206137029714,-0.02047572275964056,0.11082253787963323,2011-09-26 13:14:14.894150525,0.619960655
49.02617914643423,8.440545872101394,114.03260095162537,0.03708573588798558,0.013507681228065189,1.224887594710085,3.1973474043815697,43.61940011794623,16.521074107224948,-0.16447324933069632,-0.2348502434536318,-0.8914360605389906,0.9666770086930438,9.474597457276854,-0.4659631743068728,-5.300085798460283,4.707926810061593,-0.022636584364546374,0.646390358600134,0.029506622103850577,-0.042436354562035566,-1.0749844737163117,-0.1612944153508438,2011-09-26 13:14:14.994133669,0.719943799
49.02652474228047,8.443011256500547,117.80563877884893,0.049439457628688614,0.039854989037454006,1.4776189366273969,3.6572881689077428,-46.37842413256416,17.916210567651543,0.17985320680528344,0.1818224487772294,-1.5443325688340335,1.8592023763763257,10.120491585448374,-1.1858420081922418,0.814813396611284,11.087524246833185,0.12977739804066346,-0.1634654957437791,0.2149546321449285,-0.07016118405366652,0.014085676103199659,0.03164283470241333,2011-09-26 13:14:15.104158964,0.829969094
49.025786877045626,8.44903438179722,115.44255887418609,-0.12632390084422732,-0.05864225245096847,2.0260953158405677,1.118468238447134,-26.527943799467703,32.41207245720101,0.3556644469802944,-1.3630483687056574,1.3346659206392046,1.338423284002754,9.831011388885152,1.5518612224643762,-1.183355459649119,9.871747166924532,0.05149322224221622,-0.0370876770977676,-0.6972305496862308,-0.056166048897071795,-0.39646329893755183,-0.2901494088012532,2011-09-26 13:14:15.204285324,0.930095454
49.026865451786136,8.456265715502347,114.37642022107438,0.030054681416801884,-0.03667577555560661,-1.6848572484717717,-24.05981400825383,-37.984787545221934,17.766514831010806,-0.06572231618325874,-0.025276467224781635,7.8715739905326565,0.5658904303820915,17.320780161033326,0.9155667642455383,-0.17984960773091357,9.294857313432104,-0.025644736998303257,0.3038597899081181,0.017778001059781966,0.055221031384634064,-0.017162868799421645,0.16535507821538184,2011-09-26 13:14:15.314207299,1.040017429
49.02594623079981,8.446902582301867,112.266016773952,0.023712346214408774,-0.05039389705122823,1.179943253916151,7.013969843716321,6.430257982369918,30.323705507355243,0.006482982696278977,-0.01906299936392873,12.47905631261935,-15.634876580373525,9.34298006805276,-1.626443940127429,0.9297254572064575,9.86961271094983,-0.07368571319235605,-0.15864742931441514,-0.09043123549739202,0.06407316193778108,0.07977901760947259,0.38639870255647635,2011-09-26 13:14:15.414305536,1.140115666
49.02687377096836,8.44857235179424,116.82074869295128,0.06840190337022262,-0.007433975967355246,3.8831928985500186,10.188116514535256,-14.224707765423522,10.218760281370548,0.17395109874590736,0.4844051888600256,0.26431732567667066,1.7570073440646297,11.578191926778658,-2.952139466849198,-2.806716270241983,6.604293430904288,0.3225981835038616,-0.04735818001264676,0.3079508400386155,0.06643678239517868,-0.06184273754944562,-0.1054600432946871,2011-09-26 13:14:15.514164770,1.239974900
49.02602695300191,8.446403642639321,118.29266801530386,0.03948810225886947,-0.0461820212340992,2.1324121069356674,4.876759560753987,-24.8518881935565,33.485129350102866,0.11289450172996221,0.10095508819799763,-4.642445424878859,-0.4599331894155263,7.686877986117802,0.3175403835507778,-0.17605433719911687,8.182164479877553,0.3982440147480335,0.027332069893434653,0.30047547930013135,0.0428097855433907,0.2455012587217415,-0.8821987489965669,2011-09-26 13:14:15.624168581,1.349978711
49.02904498624147,8.438271531362831,112.97223596655274,0.033733881533731046,0.022048670016662553,4.394503268071954,16.239026395249883,-29.137414947407073,-38.164780567135594,0.04200337981962876,-0.3478333979104586,2.0281831696479067,0.3824117266456242,9.377733342451311,-4.3579494631104945,-0.7240669838877244,9.511223320908961,0.007736503983982004,0.16090402520255895,0.3063880805665505,-0.0546691810852441,-0.019171017886446262,-0.1651760646679269,2011-09-26 13:14:15.724421320,1.450231450
49.02788015495126,8.4405113089619,114.1095151791831,0.03914065310077383,0.053554941814080714,6.282664651145746,4.453774961198069,-19.543823153315078,-13.606072852432288,-0.06691651485932824,0.19766290100230516,-0.33096555039524667,0.5735490472803189,10.232343189677922,-11.595116125038777,0.19876115374647071,17.67651533055168,0.08565100324660359,-0.28672580222033056,-0.05056653064469089,-0.012808229837297585,0.27707061047944537,0.11852622401532571,2011-09-26 13:14:15.834156384,1.559966514
49.02608882679338,8.489558727354474,113.36149832016167,0.20318153062947225,-0.028416228309983346,2.464996803052977,-6.2468037476390466,-28.9087805134036,17.61385999005675,0.41321598936737713,0.40095672732051507,3.1897790648955047,1.205854803645393,1.417842478459387,-1.8520499878944903,-0.5773961764302227,10.718759510961787,0.27739136441734696,0.10099176413240674,0.37422449601521973,0.009360249912802956,-0.17926684411449947,0.12124715120935917,2011-09-26 13:14:15.934173839,1.659983969
49.02738671560778,8.444870905937279,105.55466351789208,0.0428662665956563,-0.016867271050643562,4.814738889483666,9.668447618673387,-21.23038244112408,-3.216846137375633,-0.40074549230252277,-0.10872799198082952,-4.321514921490716,-0.159363518827188,9.351065309957372,-1.5272161023227737,0.5347096147267687,10.60924098788481,0.0838423486224549,0.4378223818473066,-1.3093059131975122,0.015255139687586006,-0.2535610778740617,-0.20329973200403098,2011-09-26 13:14:16.034192973,1.760003103
49.02669056350587,8.444688491740019,113.16684193821915,0.04525014140723517,0.04447980957863891,-5.390054706748721,5.913445837314527,-27.17843272875556,-8.001359519356651,-0.01845954846929594,0.2263215947468906,3.236112287388141,0.9559101647889756,11.561938431246995,1.9532536213844691,-0.24403566699856818,9.875489213959243,-0.00048052022334889484,-0.2975314415305036,0.10423632406965215,0.03394488571495556,-0.08511829432695146,-0.2440565781070196,2011-09-26 13:14:16.134228244,1.860038374
49.02597994270659,8.45317137221346,122.43540234381251,0.07559523744902953,0.02330020338538541,3.082817263144401,4.451246779701155,-13.29247632829487,27.80866861227065,-0.25105313926537054,0.25038513694618386,-0.9403698233642546,-0.9913059502620185,10.835859183754623,-0.04487559966728702,-0.9150272838237814,10.258658335174765,0.03747895083702773,-0.05109723869877928,-0.12305273519210057,-0.01851113264831297,-0.0884932012258462,-0.061627101474914806,2011-09-26 13:14:16.244258643,1.970068773
49.025444425271694,8.460024203855932,110.08227174147322,0.01609854024186102,0.01299247097775242,1.6434423440313544,24.518752751497278,-6.8577060630344135,-7.664465482443665,-1.467413883684106,0.6090661305000663,2.75857987369061,-6.8225732405571184,6.568087723694013,-1.8499978860791602,-0.4327485261347239,9.923506141590408,-0.007092634996851439,-0.023441013335256406,0.030574538099189082,0.0034065867438488363,-0.10721724609977584,-0.23858964591262666,2011-09-26 13:14:16.344179824,2.069989954
49.02535295623806,8.455134427292604,112.60452917420129,0.017556752959071727,-0.11831180598457718,3.285711613948878,5.865908552921389,-8.432850088385738,28.397014227612225,0.3156891942414691,0.37930024027125797,-1.5200962235244786,0.31587316167146035,9.195927006184204,8.149939004240085,1.029681690095676,10.20263378574646,-0.03930495627991871,0.012063325222934379,-0.2825451786592274,0.014484200798832732,-0.01883612235170439,0.2612553157100761,2011-09-26 13:14:16.454197462,2.180007592
49.02600320636839,8.435433203551785,109.04602679638985,-0.08868989927695439,-0.00682381450409054,2.8484216763001307,11.068193606982124,-37.1256869752557,40.886411081966266,0.06251695704262562,0.23776142959765512,3.8529529614392835,1.7953755766731414,3.7310044625444085,0.11196516215848779,-5.918110135267777,9.440211663667128,-0.028576714909525562,-0.9015231033961334,-0.05132071609740484,-0.0637433500987174,0.02811785576222562,-0.09124744896500668,2011-09-26 13:14:16.554238255,2.280048385
49.02655225679606,8.422130729365234,119.93816233444713,0.02135346081566458,0.026749837141401746,3.1964274240334234,13.51460512722883,-33.86509791710554,-19.00729904333598,-0.6844957017731467,-0.17732190048090468,-0.7987667963398793,-2.1101669783247066,9.910486493225195,-1.7860859306037966,-0.4086416307206828,10.454012900691357,-0.02954174306791285,-0.21651693139525763,-0.1313361740760159,-0.1089568785081078,-0.08695424895810273,-0.7540859443279295,2011-09-26 13:14:16.654221048,2.380031178
49.02870151167595,8.441068456558838,110.51641012668863,0.022936490101064765,-0.1656668557153313,1.7656722152537059,14.514727694854459,5.222953190780988,-0.26706983058880773,-0.11514816143636648,-0.34020169266292755,4.540832849974956,0.05411448592406945,9.519120099392442,2.9205287052844398,0.3119765354166635,16.746356241497978,0.04427122684882806,-0.11351339423877974,-0.14173710159767502,-0.007585685679736031,0.07418107834279068,0.20986655658662132,2011-09-26 13:14:16.764258181,2.490068311
49.02233357454753,8.441716707932951,115.26564373133247,0.04461053603245104,-0.02215919500917831,-3.0818025628181274,27.331514055828023,-6.866927820980931,-91.78846875465793,-0.056075594943383864,0.1013073718847664,-0.40243290650633556,0.9226419047837258,7.275988089213927,1.0106268868307038,1.73965091744815,13.41463600184697,0.013380379941367308,-0.03401357969113077,1.638739819765139,0.42806162264436515,-0.0008650504090403945,-0.2139076041221429,2011-09-26 13:14:16.864231812,2.590041942
49.02696121114689,8.447563357352172,116.43870903509986,-0.0016094111748194626,-0.03786505865944667,2.0645185809494295,3.5382098978528083,-19.54247736273016,35.75868731423176,-0.10383553513855016,-0.12299579672292958,-2.2701244250440418,-0.29988085942286513,8.989036317673012,2.2917222483700668,-1.66764623982178,10.760847686098812,-0.027176056285346147,-0.03672207936733385,-0.028232762138772252,0.041608683696317,-0.3013882626026112,0.18420943565745398,2011-09-26 13:14:16.964229930,2.690040060
49.026552593416675,8.45089376351286,111.43083038783377,0.06323099251332044,0.055996582914848096,1.0683086195403084,11.629342371071619,1.4137937059177776,26.497553636045865,0.009618741299501299,-0.18279693613319828,18.53077061753525,0.7248190590542368,6.79790363321765,1.6936471628972924,1.0715750662068655,10.991485235607396,0.1844432061443217,0.08893647857515646,0.055278910609110284,0.02673317201987906,0.20903252011422954,-0.19680716674251217,2011-09-26 13:14:17.074283366,2.800093496
49.02506043709317,8.447486619956063,102.36731003212103,0.049462664991717156,-0.033291925239245,1.606635542568992,7.985461595755759,-1.4344275363091814,14.060434705898183,0.1888590492098501,-0.12557254962567346,-0.7613034142556995,0.96281573836371,16.408236444969724,-1.6447244791661253,0.555452937762779,9.185876025028046,0.0169902306677045,0.12925486190225627,-0.04651245672866036,0.007924887290854428,0.6513758800070142,-0.6976836116042429,2011-09-26 13:14:17.174286604,2.900096734
49.02740256889607,8.442955170445716,111.35120655752996,0.03597384287709559,0.02651649734544851,0.45206580504769,-20.946312054971177,-6.88687222604299,1.837158339274584,-0.3793006781971298,0.2059824785920562,-3.302729629298846,-0.7434283524521635,9.029990862631152,-5.381622300694191,-0.7999286641167852,10.925851674313243,0.11689308307989622,0.09557607887764753,-0.19582815108314638,0.013502289518369112,-0.38346714506636864,-0.012243363030757128,2011-09-26 13:14:17.274323414,3.000133544
49.03086580452891,8.43282776629279,89.1955705485211,0.35405725537355165,-0.035338882303734755,6.567930958906745,3.3855779881580697,5.554099522538371,20.390329605159387,-0.07237558740581307,2.1285368805063394,-2.3376372163340062,6.63227590077764,9.821200595137276,-3.3374441408183415,0.11417691665211913,7.3179190332185655,-0.00290529889218954,0.15363430786389218,-0.049110372256383795,-0.06878590596057635,0.0731998088237475,-2.0317576320383504,2011-09-26 13:14:17.384255599,3.110065729
49.026913494299095,8.446764325279807,110.6910044209763,0.007423682399674024,-0.015020448493797472,0.12806934625901434,-3.128371826864626,-16.45580706111364,4.773088944035964,0.22503227685556945,-0.14709677747924418,0.17000379184359793,0.486448777687261,10.019611829430715,0.41501571302291546,0.37833009936645257,12.914572521384192,0.0298181009285047,-0.2586265821165106,0.14528262830755728,0.004023527605437782,0.004695233560393012,-0.29594730589088236,2011-09-26 13:14:17.484436187,3.210246317
49.02727514881318,8.430920212591575,112.27379084681564,-0.08409263601987885,0.08645489013973733,2.004500930825851,-0.6375057075260511,-13.120703069770201,24.292536240886687,0.044908250714724554,0.2073173668238327,-1.1103610918205464,-0.13007479244385622,9.691134548393572,0.6869947529604277,0.7413116634275547,9.561775334204304,-0.020324294885519185,0.0915810520548169,0.08739195491319049,0.042589758546117754,0.10241943556515075,-0.3863754442854792,2011-09-26 13:14:17.584443850,3.310253980
49.02708012857353,8.449245759365096,114.66775164399061,0.0006369286246295652,0.0009538728093384363,3.601062378223296,10.843798293988005,13.53912335089172,-6.969765494673574,0.4924805754171535,1.760656741948645,-0.5332285273031989,-2.163410617908781,8.930745831593486,-0.6822071820160042,-0.33789374424327,9.231570922177973,0.04367599757587636,0.002250745615084473,-1.5572914993749005,0.0231871552169902,0.020914396607568227,0.13908310899125395,2011-09-26 13:14:17.694340341,3.420150471
49.033126692345576,8.448649142114947,109.48493472519594,-0.003206986315312313,-0.030241525065559976,2.612748663775922,9.977214189103865,-8.663749271520473,-4.924562375824792,0.08109253038199105,0.3323671894066748,-0.12037747133979051,-6.812570242374367,8.884497326380007,0.5475071960781797,1.4888748206870375,6.513154060028228,0.03909098035422108,0.5015959554228474,-0.08797865740811357,0.037523173356861436,0.31767258453386227,0.08764738604181375,2011-09-26 13:14:17.794315983,3.520126113
49.02783106460587,8.479102159751418,130.6981048217169,0.05502961728158087,0.01656314247901323,0.34429527006621985,-15.613269134108569,52.852355223475215,36.473041893771295,0.2943434812424771,1.6545235777827523,3.045837894226011,-0.2868375067749124,7.480997921249742,-1.8245780857493734,10.25542378693486,11.516574859908278,-0.1447473108436072,0.1148021572254324,0.23407117021349663,-0.0742249792259232,-0.995081332042231,0.14755721901149746,2011-09-26 13:14:17.894286483,3.620096613
49.0229118683725,8.444627780647746,114.07335146834093,0.02921914290016842,0.005009010220336147,4.811634845938791,-5.624730883461617,-12.38167579841113,126.11632049758786,-0.16507389418338522,-0.373952197207022,-4.020854315830844,1.308477606381944,8.350093021743367,-1.1345353965497302,-8.569172072982736,6.412821219959617,0.09652508208792236,0.03130328256050863,-0.20271172348614583,-0.012515007025361789,0.01435798426439135,0.03056727154563227,2011-09-26 13:14:18.004269687,3.730079817
49.0276550839654,8.444566554567986,111.6569401152959,0.10884560856668071,0.023515396116001556,-7.995966587765307,11.395225278072843,-13.41838202679986,6.914518701140338,-0.00901941613052086,-0.1541203295409518,0.2324771108876087,0.9708313049303254,9.66986494203972,0.6684897693697285,-1.9826372700780734,9.662809352720453,0.029658158713051108,0.0975582221753113,-0.1553628334969307,0.045494842320140574,-0.16917454033522392,0.39890045490153314,2011-09-26 13:14:18.104272348,3.830082478
49.02517693109099,8.444618118034663,114.50904724992922,0.023621839423931732,-0.011175511954133636,3.3584828305006056,8.93046580225849,-57.74150981791891,-169.6952403951497,0.3132004488955745,0.10680644837693892,-2.707791529299845,3.3696893021723557,9.975578874974671,-0.6909774512763112,0.655466762163617,11.548092973565808,-0.031386994973132125,-0.10391193161794207,-0.008111579557684823,0.031647119425427556,0.17572803281649427,0.07962982866134213,2011-09-26 13:14:18.204404348,3.930214478
49.02715374282836,8.47718985733296,107.03791757593012,-0.02330476639649115,-0.028109074415820536,0.8930343077082827,6.0615383908489395,-20.65317360150129,27.557672886792446,-0.17686673505374145,0.3200163096247462,3.986001441117651,15.49234731233393,11.022766340562614,0.02583533505909208,2.0137029344723723,7.722630191675248,-0.0925439897174127,0.310726210863232,0.1219289203057985,0.01450270374268333,-0.5153777160716222,-0.15986862228113075,2011-09-26 13:14:18.314319507,4.040129637
49.02822858378794,8.43939110110906,114.24436559347728,0.07753648857703901,-0.0522715796979001,0.6999979960698401,35.69353013566,-23.548929385287504,6.876436684724216,0.25016050400857137,0.16428431318596387,-1.6522328577471608,4.980597063495637,10.383099701126019,0.12027564013952674,0.26698468304140854,9.261895119251063,-0.011525229974268265,0.09354614929930719,0.25299357920754983,0.0389502261144538,0.08834024926373123,0.04588955058731046,2011-09-26 13:14:18.414368152,4.140178282
49.02633526173684,8.452292700670423,112.97399597620608,0.05166795121820571,0.19843422215795956,9.507625682428191,5.99935746879082,-23.012493182183,17.507189836749497,0.2506477524340199,-0.20425007380487917,0.4570605622686446,1.1383909296351824,7.0787148472319465,3.1537816796443683,1.6052600280849822,8.087381690311544,-0.00409068421138934,0.013451570023263623,0.4608734368437758,0.008848933216057335,0.016172722341325163,0.5457067870646632,2011-09-26 13:14:18.514351130,4.240161260
49.028762593191566,8.444209886770762,115.99273348485968,0.03474876074698559,0.08087537035567426,3.7183487972922755,6.174643082106938,-6.4518790756360636,31.364472665638278,-0.03258682508977144,-0.08057674240579689,-0.21261066650381516,1.0123015708385612,10.830730099043851,7.767534114132631,0.4075785533710811,23.687175055724328,-0.020333322446276603,0.013296258696986415,-1.4262668905002354,-0.09731566815810633,-0.04680373048099198,-0.029862927931815136,2011-09-26 13:14:18.624332478,4.350142608
49.02541713973261,8.443678678889796,117.55870989336282,0.04759379324818788,0.03063244346429155,3.0744219223481526,2.8880411028840687,-110.47194414182535,5.816463030928304,0.3099728378260507,0.102797032494228,4.131854310474454,0.8014671290605319,10.621694147918348,0.511314553473654,1.3118464910589607,9.734410517397235,0.044750426650881796,-0.3835078437146112,-1.277757472504939,0.004819302906396636,-0.0241448524275308,-0.2088099126547715,2011-09-26 13:14:18.724384272,4.450194402
49.02604250095683,8.434390528098751,109.02655262824715,0.027539571054144223,0.06168326953818926,3.793798228821683,2.209634211237452,-14.870074308684016,95.00616073548596,0.2899944730029367,0.3660458793278829,0.08587711259803674,1.2275428517781066,9.950570311726494,1.1082837269281365,0.8204662797786539,10.245622406391927,0.032394316473498566,0.10822125457661622,0.16291397690075082,-0.10916489508224286,-0.06065975590829285,0.2638553182692765,2011-09-26 13:14:18.834318932,4.560129062
49.026298915174266,8.44396818730614,114.66879175215416,0.04216794251642121,0.0569447029802733,4.403141996535793,2.329163407445386,-13.936458205168547,131.98677123521264,-0.25104486600439996,-0.6772769810338701,5.784317116520046,1.2523626877796405,4.937924746978336,0.5617005986959616,-0.30205123939717105,11.151226350020988,-0.04717449558832492,0.022841022255274266,0.01801774434474042,-0.01128641583209903,0.18900103107983512,-0.0992292540734159,2011-09-26 13:14:18.934348003,4.660158133
49.02711757059363,8.4499193267349,114.90335742388368,0.01350997779093005,-0.009755557072821964,2.4354040384175457,9.349753153419709,-24.85786636414968,20.830546483401136,-1.588812224916174,-0.2552886666689891,-1.068355347292262,-7.677283895092092,11.29654803701067,15.583175305555786,0.505457589878204,9.920534609636704,-0.0499559322884907,-0.10943131228707537,0.4777281266857484,-0.04117546401016899,-0.06519400820617699,1.2368595743847564,2011-09-26 13:14:19.034350226,4.760160356
49.027489923231315,8.454523079078108,116.42700451825048,0.0007521630169688605,0.20766035051613996,1.9804146878426252,2.664929986556042,-25.345211668224835,16.086569608270587,-2.044288347317841,0.3022979389091834,-1.3316658116550235,1.0522601894226307,9.724735478134166,2.224571361996699,0.6747953409813942,10.410225251197136,-0.05680751268622247,0.0910599387450897,-0.09186300834961425,0.015150391983841887,0.696051925279422,1.4178148492507592,2011-09-26 13:14:19.144393215,4.870203345
49.026591391214275,8.437970534678987,112.79164865154962,0.031720843071992834,-0.017696802136747132,4.141492656087593,5.584469872659507,25.7216026404337,17.757081519959478,-0.342923064226696,1.454121036991037,-3.288082419630761,-0.10517228060114658,8.719881809132506,-6.448248357622029,-1.5916432328332883,8.67189172230259,0.03672524263837124,0.10612346439922735,0.19063484824881344,-0.025291122771125243,-0.06952561737248038,0.18730422958119325,2011-09-26 13:14:19.244622037,4.970432167
49.026647708647864,8.454855273209366,113.91638557706459,-0.18633873710304816,-0.01853219422401944,4.577796323641213,13.764060708472886,-2.3669663279448834,28.824413710781464,-0.03290096813969512,0.5486859063467759,13.304377157141591,0.06628028588775592,9.01866634009343,-0.21326038570374725,1.2329758075605364,8.553531703684154,0.03624317843924047,0.0139967955739606,-0.020445363144466266,0.04214541852163271,-0.0452451309967762,0.04642378838154547,2011-09-26 13:14:19.344371848,5.070181978
49.02661981812262,8.443478336273772,108.59441357039599,0.00817419614680719,-0.004151456893863302,1.7347685707712424,17.15214444338221,-28.410341462044933,18.708406656444556,0.34129573083070674,-0.05849349948302493,2.570630507340763,0.4312987823243388,11.056240087909707,1.2041984914795607,0.9434783935682118,9.575792482179368,0.09269642394985801,0.07678750117244706,0.005757255261454118,-0.2042880978215538,-0.10719585672388092,0.20770434847671052,2011-09-26 13:14:19.454390172,5.180200302
49.02679720967595,8.44578445354197,119.663467452873,-0.1315081550434764,0.0567500238936043,2.060947629839072,2.748144137707737,-20.92391729658961,3.4158250097422354,0.5448030097941654,-0.21814883697704351,4.4708680071830855,1.8911769225862973,8.688266750605898,-0.8281768944384631,2.2302393474235043,10.518458634230383,-0.033508656370932526,0.059814655399949214,0.16881890991427143,-0.09089485884241079,0.013862359513426754,0.08349825857044485,2011-09-26 13:14:19.554344408,5.280154538
49.028359904111966,8.445975634698424,116.78009392612763,0.27053011486376044,-0.020091165563312634,1.8649585403004891,-0.4202386120910022,-1.5839375208605109,22.641348124688903,0.10400146918752284,-0.05160589584515075,-24.82633822716992,0.8302800098759276,18.99412847602266,-0.49828497600595034,-0.4962164801692861,10.098994149762051,0.03457325583342157,-0.10231878999009333,-0.3456010638166959,-0.09083232854124372,0.37805444205505156,0.3271411152340812,2011-09-26 13:14:19.664380055,5.390190185
49.02708068200207,8.449451168449437,114.74869358441609,0.046346414909711205,0.21324513879262666,3.7477857666303844,3.3192717381663663,-29.022278137211536,12.135814246981143,-0.020424031361606643,0.28173055003883757,4.297908683804712,1.753947279038437,15.524667308453068,1.129404510818911,0.1179150627455734,9.825227309348817,-0.2795431046831484,0.03299330084163002,-0.10225742148348771,0.08600948329835746,0.14355972040873097,-0.033149379313576186,2011-09-26 13:14:19.764408659,5.490218789
49.02709433380083,8.446818968047522,114.93115450759723,-0.00623595343072712,0.03722489969433363,0.7144239322741197,1.2783322117205365,-27.639991084595326,75.76677644753627,0.19116762706889157,0.024692200880806196,-9.57867489614349,1.4694284347660833,8.953900055444935,20.434669826755737,7.7171279103241925,10.026510528337106,-0.39973758174251445,-0.1644643705522853,0.5658166291923944,0.004763611548750922,-0.08081765340964499,-0.042268354398153754,2011-09-26 13:14:19.864422308,5.590232438
49.02730980787861,8.467792372023606,114.15351731841652,0.027639087196326607,-0.029616377514076926,1.2416888108627502,6.696093754475115,-24.47092830642594,-3.7770236740209295,0.16253109274838604,0.23678821427367752,0.05195107481301675,1.2867190662361114,9.737481393190519,-0.7019251598646924,0.8357784561709474,11.946616984648758,-0.37901256696717156,-0.018185100926174008,0.34611976899612173,-0.04083910761396885,0.36297197742756043,0.11185562341050477,2011-09-26 13:14:19.964430127,5.690240257
49.03320549587292,8.45485370369209,112.77485627262615,0.06833442988633137,0.028890870660692625,4.414662211589243,3.936435589208934,-42.44420024633397,11.07236747418552,0.07733699829806545,0.8015740191364946,-2.2964629816741016,1.0352365669854091,9.467175895441132,-1.2110464117660396,1.3757465126706707,10.479174448763633,0.057002065224667095,-0.18873934640341097,0.0870285886846407,0.02188826648663862,0.055434246415422925,-0.14407369295509398,2011-09-26 13:14:20.074377307,5.800187437
49.02641017178721,8.44897192551392,115.79560545056765,0.014461763900466551,0.009482507782093265,2.2114841918523402,6.5641980116981955,-14.888334545538475,17.475668185869065,-0.18422536334339093,-0.029643787354460608,-0.7538119062855756,0.6210843262848065,10.845993625735943,17.002868813834404,0.05889798097321103,9.430023134437782,-0.044097788125237056,0.052432991756836356,0.74238917531225,0.02378330107954934,-0.07794848510540694,0.06614458377951685,2011-09-26 13:14:20.174412791,5.900222921
49.025469576094174,8.447773394988287,114.7380000588289,-0.041176078578511896,-0.03292622922200806,4.389633150091145,3.2524112345195446,-10.271456738036248,18.445412183987365,-1.1747147408605754,-0.2710573218222274,-3.994424497588981,0.7285663310576546,10.721778182360326,-1.5275491113610564,0.028788349982595607,9.810455029338849,-0.3384400754025712,0.3408204983197364,-0.6624219169515935,-0.33219038547242646,0.07258753994790336,0.15542873698789386,2011-09-26 13:14:20.274422067,6.000232197
49.02694640454912,8.437806717706046,112.81107251433647,0.022930637098774326,-0.012163449166671168,2.0046372585996624,8.41278646727823,16.51090986309716,161.36770003574728,0.01273046177838398,0.05887548285769589,3.7192481693995805,-2.794022869986402,12.652444764318494,0.4087984613088291,1.1454225645887544,9.07006154088615,0.11122935321846927,-0.28717586286321606,0.12228516928966478,0.08918035512793147,-0.18258123072679575,-0.2212429188542061,2011-09-26 13:14:20.384560679,6.110370809
49.02815603588865,8.44313284142824,110.45520855181975,0.07059219093655877,0.04909053533003849,2.3930184620611454,7.713482935476625,-11.189012814939122,9.020016357624346,0.1229709056657294,-1.3867644258915737,2.7812595650863328,0.6582975857284492,9.310225061760637,-0.4973080570473525,2.020880433420792,11.375209628358213,-0.11397253270678855,0.012052010154306833,-0.10183959580428775,0.25946270111843284,0.0777125140174621,0.6778345032575138,2011-09-26 13:14:20.484587556,6.210397686
49.02550771781196,8.445840678956829,110.95369489702203,-0.09028656929762492,0.04132770208936551,2.7926359484341683,13.206421970859168,6.115271871311361,24.138330518454893,0.31083597562635734,0.16955613016218804,4.649982630972165,-0.5773599985484352,9.773888768752293,-2.7074072261636775,-0.15992765069932585,10.054230204293338,-0.016301974360512176,1.07031561698432,-0.08057889426664253,-0.0011306296803130986,-0.09439652894316598,0.2669302960443174,2011-09-26 13:14:20.594413518,6.320223648
49.026666508003565,8.451556867707524,115.46211425503313,0.0883088452324472,0.0010162760033075764,8.898853103400555,9.94692358604161,-2.744062161451117,-7.380865282221791,0.17209972168218585,-0.1876900872075804,-3.650282217807,1.6584412103433976,11.849300682276185,1.2597650851537041,-0.5800551674327729,9.790571259610582,-0.061411079889179127,0.13967932303723163,-0.7775329684168938,-0.08477106324686523,-0.32435973854612243,-0.05654818388124319,2011-09-26 13:14:20.694581503,6.420391633
49.027713903311785,8.504748267440014,112.81789500713549,0.040327662258615456,-0.00867058371089788,5.018551393062214,11.73536560312547,-31.335638288782057,-2.1895439541198005,0.23354248105056014,-0.0735186766510308,4.1304777808367605,-10.072680146182334,9.117387127182552,0.7165614249833303,0.45993246785158215,-6.929061887936205,0.018285871587790693,-0.030390800303060118,0.1921999951095752,-0.07807696149844626,-0.16181947815380907,-0.18038850619967348,2011-09-26 13:14:20.794485836,6.520295966
49.030793866723826,8.441610990843243,115.61185644528274,0.04877881922772622,-0.06188642619898259,4.101631951477344,6.206465100202008,-84.25641765723722,-7.7738917924037665,-0.44426508840477796,-0.510757810171702,0.7855196267203846,3.2149685416076013,11.407966295419113,-0.06502249274987798,8.188336617326602,10.86154271800362,0.0036807018079842743,-0.036043480659660794,0.3988766058379954,0.07147404494569197,0.11987155509680102,0.10164052949116906,2011-09-26 13:14:20.904441940,6.630252070
49.02211109269236,8.443471036283185,111.44120924973818,0.04654681877335981,0.024482671549523133,4.4415374259028,6.311616314052687,16.283056482719537,1.951108678788101,0.030850075827316387,0.038129917546677085,1.4233797970167026,0.10039022952757537,9.694131924580388,4.1442311305006765,0.7020363733224975,8.822281426041737,0.030064545263902683,-0.1654112198168711,0.16827346082191402,-0.37100523852885603,0.03735504698024293,-0.3801027805885566,2011-09-26 13:14:21.004450074,6.730260204
49.02736853697421,8.448579641531724,113.50602352362341,0.03013419107854043,-0.20703481692780656,1.5710821492742273,-0.8166745886029849,-12.099134066227103,40.1197122768279,0.08188293905436926,-0.12386080856398371,22.257266863197795,2.412369841233463,9.057722666748703,-4.540361851025693,-0.48098232670298113,11.074182928032025,-0.08903150965452246,-0.12631201458177513,-0.16798756741418516,-0.10188821491173072,0.42514443062846674,0.25140233868783873,2011-09-26 13:14:21.104473721,6.830283851
49.03011149992095,8.44778004152257,112.2797889472731,0.12673034632101673,0.05366834398152935,2.46335644070255,1.5372447219803167,-52.589179303776426,19.00183748784133,0.22103169513136972,-0.17463490958142114,0.7312776775178332,0.3773244684937884,7.852632803362373,-6.691628625663495,-0.5428473180350264,11.295867809844085,-0.04485908545714071,-0.08454440624184568,-0.998427603991087,-0.043526307281777865,0.041392615361088236,0.5338005289259111,2011-09-26 13:14:21.214640425,6.940450555
49.02706086956847,8.443773571333706,111.14780830927884,-0.020300074503182358,0.015743598476231947,1.5065437789616836,15.991009478721606,2.648960295534078,34.24980242543123,0.06394511254855147,-0.5897631138853439,-1.1223762576364609,0.40910266069395096,9.104610623823293,-2.1076991978368143,-1.7358313771322735,10.513758698309601,0.0025228990036136835,-0.1824185178522752,0.2784956221628219,0.012848652157025964,0.07654558939724623,-0.21763662594077926,2011-09-26 13:14:21.314464029,7.040274159
49.027221233377,8.438171574492856,113.8772043394263,-0.002351293359706484,0.03033793104444764,3.5217419481476737,-0.021684720898369925,-19.87017861703074,26.311317666648314,-0.14008334460141983,-0.15083141307209091,-2.8504926038312313,2.446704408404444,7.167289909240729,-9.359333330068967,-8.183922695800984,11.145335382396826,0.412132245292105,-0.7582423439561126,1.1479131844890853,-0.07831992050599945,-0.008733442047102087,-0.09762332632094221,2011-09-26 13:14:21.414541573,7.140351703
49.02770324541477,8.446169738243555,109.52880193866994,0.01169065534661886,0.004196620482409662,1.3497045343531813,14.007358498968651,-86.6266454068899,-19.053925013712984,0.2626473236283312,0.18463121084745013,-9.212161265145678,1.1333066425075642,7.761923851654206,-1.705600416125315,0.15673902880812543,9.312328776567874,-0.04949252096105695,-0.02923964803590831,-0.17864068898502258,-0.007054364187861314,0.6098265917588055,-0.1121659901232416,2011-09-26 13:14:21.524452628,7.250262758
49.02893012241096,8.452141799638296,112.15232742617442,0.029613177828215292,0.04828114287388793,3.783512203820192,17.375290443648172,-24.34582704857407,-8.50004744357005,0.13320509179488754,-2.748886422571915,-3.5924626819893994,-1.4407168071191143,10.989665244946808,-20.343078503460553,-0.5091577292442361,6.523921381175056,0.020875461508984228,0.2102022853996705,-0.4295718125467513,0.05462758960705988,0.1003696068910596,-0.1640827235950909,2011-09-26 13:14:21.624461477,7.350271607
49.02765823679422,8.438656877330581,112.63166643519702,-0.21543799204444153,-0.011522537231513629,4.089987637120515,4.8644330785905385,-45.79634290350115,-12.458473998032144,0.06322318205775776,0.08516180208800542,0.8865110045684976,-1.4881770895252926,8.43853049278747,0.007321429043662814,0.8492566661834233,9.50774014227503,-0.03697441894671761,0.047232539769055754,0.21555547842332215,-0.06299801730109367,0.12813491545165137,0.1677010797188635,2011-09-26 13:14:21.724634502,7.450444632
49.0262537044528,8.448876516714584,112.67579407490796,0.05864219094481608,-0.011130231291167613,1.0290768729259956,6.226177122733074,-21.53401856363662,-23.60375102322095,0.07467261336919223,0.5807784639809972,-4.339913002583775,-0.7571917796192094,7.861245845426673,0.641321477298122,-2.009469852760348,8.55423575490149,-0.024072403603221954,-0.02082214672681605,-0.1678024098626541,-0.0310313024642637,-0.004943453066910724,-0.2895122825493477,2011-09-26 13:14:21.834476986,7.560287116
49.026213968573074,8.446588452795641,108.74688717217651,0.020357037774909235,0.0076065789790878,2.5708339158347626,12.2327614964333,11.64765306696293,8.137626147481381,0.5203768747644284,0.25969039105215813,2.7060248217250185,1.1119929797028512,14.386159821046682,0.35830356541311137,1.5254306700971862,6.197611839099203,0.039320869499552075,-0.10686902953990089,-0.13350865083378954,0.05239667468698693,0.25592294704108237,-0.11446852931266638,2011-09-26 13:14:21.934507049,7.660317179
49.02825430093064,8.441652547791,113.05660467887903,-0.01746899273208958,0.028814877813131454,3.018472741191663,-3.4820229384720616,-2.494170783319918,32.32853665370972,0.030680121286721942,-0.17666389951208145,-2.730179680699863,1.5539915700123998,9.589277356281519,-9.796020692120308,-9.45136754187171,1.8549472013592965,-0.008144172761222484,0.08805444350541965,-0.3172817287002855,-0.026532394562083905,-0.05299080077936872,0.11596682534514241,2011-09-26 13:14:22.044511125,7.770321255
49.02731572524036,8.448371704248217,91.29452921855759,-0.018188747189121043,0.2217592014287587,-0.192788830932479,3.0998732526872907,-47.78679996880633,19.844841523698058,0.6085267052958517,0.17299475452802562,-2.888269458200569,0.24888964310213968,7.590142012929444,1.6654938654783753,1.4964786767804306,8.046783345723739,0.11583555399842273,0.08299357033410339,0.051332972367686455,-0.05343914244633756,-0.18369634292466483,0.2036961581007044,2011-09-26 13:14:22.144502975,7.870313105
49.02608512005382,8.442435020119929,113.43362727631805,-0.005603853466183001,0.04229251165270899,7.654936905813474,7.724879895383549,0.4273091510119027,33.10993282883793,0.1542118794821061,-0.025971846870774376,2.4681500148676996,-0.615887030983694,9.1949465642974,0.6032235853505629,0.1561483408575808,8.37986477569456,-0.005008992244003916,-0.10046012169073573,-0.009376509380168936,0.022145092545589974,0.013361006715229638,0.059984663902547426,2011-09-26 13:14:22.244646854,7.970456984
49.02871076682697,8.446302001026124,112.79920208880841,0.03691518076509438,-0.006063460003617013,3.7539916919908585,7.779947465252972,71.71821173324395,-15.112264142279026,1.6969469255129779,0.4149563333982952,-0.9666606861157082,0.6094884369798931,9.784094864258197,-3.1793389838841217,0.6593037712214223,9.198689690385908,0.027116538911931817,-0.030496904119720232,-0.11234800019751201,-0.13014703264737829,-0.005227988998763745,0.1513694520151927,2011-09-26 13:14:22.354508893,8.080319023
49.02688502617062,8.484881861495415,111.19899758307916,0.017307017112887006,-0.013619199281521995,3.0831091028031725,7.511885389942927,-20.65056611264184,-12.322887474139337,0.3623283091511639,0.019205148926656614,0.7319509742832226,1.80024969791571,11.34093614408632,3.0927728285020493,-1.028388923048739,11.55520602117877,0.025035895866065985,0.07459400845734289,0.24363095913430702,0.027126743941062417,0.01625823578920365,0.2530743464118476,2011-09-26 13:14:22.454476298,8.180286428
49.02715369114603,8.437726823876861,107.9423221613296,0.04251071600008168,0.04702712710625622,0.6959787911038307,4.419218993051438,-35.57911148022491,28.26513500783579,0.35606243349317,0.2260239927749521,4.456293743645783,0.19371075768807433,10.752082513880126,1.0440193426406819,0.5207277199425624,9.85528701312886,0.02353087614871946,0.004360238829642163,0.15561768391574307,0.27115725242431465,-0.7158337292544521,0.07213879337762191,2011-09-26 13:14:22.564511117,8.290321247
49.02713543448894,8.403128825926002,108.10520826208935,0.24823867682828357,0.040739412974572994,7.663254854420089,6.349645515974792,-18.83458246796479,121.7129954886585,0.556960167004545,0.3440133821569135,-3.606298794897509,-0.6244862787960062,11.380915026556936,-6.221829569192379,0.751910187305172,9.52255019969024,-0.05254761299406068,0.1560661010774345,0.14201047983784368,0.021548166777144426,0.06971881894894277,0.20636032966690462,2011-09-26 13:14:22.664519916,8.390330046
49.02905575281784,8.440982809044982,113.53090402950214,0.02101132860316847,-0.18447313043195335,2.752756568048391,-5.486282543277121,-21.47094134994114,10.727875583662577,-0.03444170768055915,-0.17380359918863655,-4.194941977327579,2.9832897338540816,8.808150592514973,1.778227759421805,-1.7599560862482624,1.3581671816815444,0.06899102648987344,0.4679506889728507,-0.2239688080809025,0.07861444471360221,0.03218281126184722,0.15383055295449224,2011-09-26 13:14:22.764566793,8.490376923
49.027762903005694,8.452789172609736,113.67633543759405,0.04124018459198357,0.36294744616679075,3.6681124430263194,48.0515297105056,-40.68170531593797,26.951465335375303,0.26725983329157765,1.3807572064670794,-0.49933455394621884,0.883885460950748,10.410727399020566,-3.1902398668598115,-0.8322726057480313,12.45960881867444,0.07052997065675942,1.0604164414243413,0.25904618396914747,0.016284790697051993,0.10832298802271988,1.0625796413834612,2011-09-26 13:14:22.864546171,8.590356301
49.02738276470118,8.450339458996222,115.67316760855468,0.0765496823377152,0.009948818442600527,1.0460698461061495,1.5499816797840813,-11.169499727438843,19.09862019139862,0.22474597919362993,0.2194640171960964,-0.9820864288978578,-2.2100790211299,11.301472914936229,-3.473556793132596,0.7816045829024242,10.081466289463734,-0.04010010780451076,0.08184719187185127,0.07837746395644933,0.002081008929967626,0.02116665144906125,0.044803349046829775,2011-09-26 13:14:22.974524802,8.700334932
49.02795561427779,8.437655594494169,117.7204601534479,0.02236116156865635,-0.015134572130220321,2.308845117135224,0.00861841378378747,121.84539501511881,18.37279632885558,0.061690919470686445,0.07112177494560064,7.848779859972686,0.2844875258647271,9.42939366468779,1.4655387899828187,0.07062506092737476,10.537845784791235,0.05322707013409752,0.05890800240110415,0.23141789916825195,0.008952050974751909,-0.041084901336775816,0.11066340012008131,2011-09-26 13:14:23.074546093,8.800356223
49.02541736789462,8.486386076377856,114.53390481259427,0.03534267926026423,0.039021522342636526,4.512619609069782,-2.0174223525678485,-86.46697627803938,8.499072818421157,-0.7835964678048433,0.4021781569432721,-2.297420604888481,-0.03863448150072579,9.159679174667682,1.163673257759728,0.9594376629381349,9.143505078497546,0.02916260512122515,-0.01147806725721828,0.3156419258102399,0.050023737916023235,-0.1539463295649684,0.1222311449922832,2011-09-26 13:14:23.174585645,8.900395775
49.025730181087624,8.444206887255811,115.52657138834522,0.04545378813319837,-0.01810630402932402,8.106072818119872,-0.16259105709270294,-17.636802957296137,2.2752577239119134,-0.0313788131544407,2.086067168171262,-4.031049003353849,1.0222369808152716,9.31097642859519,-4.804814884377484,1.498812043699706,1.4768314052916303,0.015439792839120826,0.11113277483999044,0.20618885452058736,0.06969858013091372,0.07469533670603144,0.16758048155271194,2011-09-26 13:14:23.284715399,9.010525529
49.025917257820446,8.445316525088614,117.54873949734326,0.03614786642326807,-0.2938806981083107,1.9824247578832823,50.851985753240896,-86.0062084597819,5.11731616030529,0.08437736341684379,0.12940970786600217,-0.9464257046923452,2.2007363985120536,7.604175107246164,3.6544383544496553,-7.0841248791221885,10.695580341515127,-0.05689424631469059,0.3200731120288304,-0.1405097208521735,-0.06914488652974395,-0.07768713063590295,0.49890458763629814,2011-09-26 13:14:23.384621419,9.110431549
49.02715437603142,8.4534357887514,118.071226390129,0.019064792809543533,-0.0790112142709244,3.3690150187102805,-27.60531663620761,-19.100130787861154,14.153215564845281,0.11498866794008293,-0.40454293765468546,2.525344775612213,1.8913363343620198,-0.4586283442570718,-17.77316638074119,1.7122335694781456,9.879896718037273,-0.12485943316223849,-0.07945265417079053,0.12476747645879858,-0.013765301407934333,-0.05469272139440709,-0.12224787492415716,2011-09-26 13:14:23.494536374,9.220346504
49.02681763330238,8.433537648261694,107.21352018759794,0.02003738657860985,0.22063903422430656,2.0383003011444023,-5.439530638639422,-4.398634673665457,-88.57491974641843,-1.5192810253078457,0.1055565744351477,12.8206149025155,0.37948735888099516,10.476530938188423,-29.282317116165554,0.33422794389804594,8.431357891747558,0.04381564562498165,0.0013484651627767626,0.09119574369895994,-0.05310478052009268,-0.0694253671730588,0.14326456841866894,2011-09-26 13:14:23.594598408,9.320408538
49.027109895872265,8.446791707076683,100.51356690878009,0.006932529566863625,0.012644163108891628,2.4699294804024086,3.857503607019332,-94.00203357263361,-13.953119301070886,0.13652744161715927,-1.557898697408316,0.7590305971239755,-0.2738050934232543,11.921409167842118,-0.05743089228961511,3.381765678129719,8.83132406803104,-0.18961404223474979,-0.019358934427510813,0.10769410702743112,0.09238623518555644,-0.04476067070082539,1.0841081775596486,2011-09-26 13:14:23.694712487,9.420522617
49.02733993496976,8.451416312114382,114.29362536928448,0.03945998998071542,-0.04580943526009421,2.2185345221107617,4.67773353981688,-22.40564760097702,25.907777592580025,-0.4484111421598057,0.03123682274692475,-3.700291159415014,0.6622275533908231,9.774544132789636,4.389795537718372,1.37956696555474,9.545575728643259,-0.06867408235633372,-0.11187579212452119,0.19240008521281046,0.028079657775618695,-0.0881889811280118,-0.14790737094470893,2011-09-26 13:14:23.804638678,9.530448808
49.027711436940805,8.449210315369617,114.31177681166717,0.03446451965899925,-0.0924506856505776,2.304892810266749,1.1233384382571154,-19.02282913280622,26.720540078498303,-0.043781735200127264,-0.061036379516483795,-5.034139084060257,-0.5510671420685992,22.70707856679676,-0.2204401265662308,1.4612565142944698,9.602350744642262,0.04132327172346735,0.06517570787491117,0.06486490716367942,0.03482315081615416,0.378270461082547,0.2873848869733417,2011-09-26 13:14:23.904591433,9.630401563
49.02918882982337,8.437272845874062,116.6757629316307,0.04109224400032086,-0.0012722008382948262,5.089496590947933,8.693708057892628,-8.438763078117848,179.9373253019676,-0.08566074464449244,0.11410334809362567,-0.9360403765515599,0.736837751790488,8.379390439412466,3.889686510742873,0.22737280433026416,11.555655784631025,0.060754655353119594,-0.3272527542765019,-0.1442174397184935,-0.05315607224631853,0.059120426217487115,-0.9049136356118217,2011-09-26 13:14:24.004572444,9.730382574
49.029419812346106,8.447275632093971,112.24956147946187,0.023770561273397946,-0.04344955082024928,-9.78745272637192,11.676459867817224,113.25189517285014,50.39172140582096,0.24405665599905627,0.14611636662873856,7.096856189375109,0.8078402214149691,10.293305125874644,-2.6395981517580904,-0.6017804707566012,10.337606273509119,0.0007898989216850935,0.13957986563558006,0.1526391793102037,-0.024886263241321503,0.06898890360923332,-0.042121273216665076,2011-09-26 13:14:24.114528485,9.840338615
49.02664989355209,8.395489662025694,111.80687732229934,0.048278648359492575,-0.031811475612727576,4.001931226351806,1.540390124311923,-3.0544383804838624,16.04515144730114,0.8197466598612528,0.17412285623459295,5.317472872225977,1.2161353918817768,9.538222534764223,-24.57524320493914,-0.17632861506759764,9.796231028378026,0.0728279212818539,-0.12437286990530563,0.39067756615645727,0.060333919148747896,0.036738929981838836,0.055581098177810484,2011-09-26 13:14:24.214680134,9.940490264
49.02648758595887,8.411755716440455,144.01618714353816,0.025722290691124278,-0.012944654623745371,4.540534400575037,-28.57634311051948,-112.69280949768037,0.18043538399169812,0.3410891796175253,1.2445810004230626,-1.3033779712040203,0.3302982828634216,10.303086359987,0.8843006383990879,-0.08158923408640117,5.782308069232928,0.08014120470182631,0.23089489435996685,-1.3833350428630722,-0.062037493019557695,0.11172699317895177,0.4171135275738719,2011-09-26 13:14:24.314593468,10.040403598
49.02631409487081,8.442006122035218,116.06360930620579,-0.006299339479020415,-0.016056530464197295,4.064101713970288,-12.659590939968856,-10.51332051197659,-38.77344347929159,-0.15532102736543696,1.959162884233374,1.5340572646586363,-0.08967956055493115,9.03889844665543,-0.8390966372525808,1.1920890058170988,9.742579826626224,-0.016522637148863012,-0.007746635019982178,-0.19694027734551478,-0.00971962075737977,0.31859895001283756,-0.18080249686240973,2011-09-26 13:14:24.424626367,10.150436497
49.02586449425287,8.441278334016062,116.3173485226296,0.07421197132193391,0.013314135141049368,3.5728983028707084,-3.3398778944018472,-8.96958448304091,8.540410453399161,-0.004909084443236733,-0.2408154614003212,4.774977689585942,0.20341803491390642,8.565571558817984,-4.38309934098074,0.11766575226220344,10.009992407050436,0.05962297852909919,-0.0983936753194118,-0.21904857611742604,-0.040704991246175215,-0.07289288381148806,-0.0897761823386768,2011-09-26 13:14:24.524596312,10.250406442
49.02867978575731,8.449312337542798,116.26352545201513,0.07585974360096753,0.014563089308113914,1.9007068022542568,-49.84242379409012,-5.613725981203402,31.49916994888392,-1.6873296401579096,-0.28462483246637577,2.4018911859942684,1.2937359234568246,9.505249487431724,-2.3241177872374443,-0.46744318339886715,16.012804676753348,0.004838113407362718,-0.20755528499430517,0.1686279962969012,-0.04538951972803107,-0.17678605394921065,-0.02206793515552255,2011-09-26 13:14:24.634611077,10.360421207
49.026718927956715,8.443441629981189,122.42475733167781,0.022453748719573043,0.03682670233927547,-10.540276554478712,7.055548288554105,-26.184401993559398,10.041328206486886,0.21689463829344738,1.8620512340513362,-1.275560677228519,1.6909719974578756,9.126078639774665,-0.33170287244439745,0.8873078308794676,-1.431009925708354,0.08693737812225165,-0.2004758120433849,0.07170519891723494,0.005232533757119188,0.02586103997481373,-0.7133222169781808,2011-09-26 13:14:24.734809582,10.460619712
49.02776333150372,8.442794501645874,140.4809857401413,0.0419879068395046,0.06443253242244681,4.989138591823641,-0.0809906680720256,5.065949572183705,48.00204719949169,-0.004655845227496819,0.1575933956226882,17.619743039167084,0.5711076524472065,10.949072787256533,4.093816923210791,-0.5043002144158207,9.474169417279176,-0.05114906553150496,0.0965002140235462,0.0833917889761374,-0.07069845504707899,-0.06114544669887331,0.2318170246876638,2011-09-26 13:14:24.834608356,10.560418486
49.02605091923996,8.437797302950168,113.04821738896229,0.03537443716295352,-0.03513577719354332,3.711014958281385,2.9081915727716185,126.93282419166938,27.899943313823336,0.7066752106691139,0.17566846577620934,0.13007066953782873,-1.2119421759310185,7.481620823351426,-2.0252971285736914,5.552520449213002,8.065107991726425,-0.03787634551237553,0.08581682305049432,0.4409487668300738,-0.15269970585297846,-0.006317801579219212,-0.1024458798581321,2011-09-26 13:14:24.944610176,10.670420306
49.02770906026276,8.434027441238817,118.2961460336809,-0.016981015380510195,-0.007950520809479635,3.026872128406238,-31.702577650585482,4.1618044251378805,28.03997382494828,0.461629465689688,0.4639416382349311,2.6648324530092937,1.547394084939289,10.316805657114887,-1.2946143374219483,-5.432336145577077,10.621527654621547,-0.04678811814434577,0.038371384937840154,0.10810846446130133,0.0322977219078406,-0.16722070479752038,0.16808589089027046,2011-09-26 13:14:25.044621142,10.770431272
49.02608451183288,8.440182724094084,116.98836449353291,0.028507206778924852,0.044296264991240265,2.5536440826427507,-0.7022684589334647,-2.8767833996531493,15.98386362962287,-0.15173183987131986,-1.3855731842484789,-2.6461663872871344,-0.6749416856799341,7.561509053764396,1.2956187077582808,-0.41939906776552155,9.632121606917854,0.050439883635561386,0.43224926440073275,-0.02345005947048602,0.06891067400472822,0.07196741184579392,-0.22974075644387681,2011-09-26 13:14:25.144635150,10.870445280
49.024993415688975,8.44480254284679,114.32639978519288,0.03634803725441292,0.1529624885167337,0.6839098985982228,10.321874373557007,-9.941534658790122,33.4885369380621,0.2278894328512258,0.6199532444016421,-1.8109910877458086,-5.422664010141462,9.198353542040628,-0.15553608981524192,-0.12016511073321316,8.489969023766637,0.02422576756452456,0.16361935557964466,0.08565372220803734,0.0658269649916494,0.06347888441094722,-0.0076886001867762475,2011-09-26 13:14:25.254911060,10.980721190
49.02484416068446,8.43439559831822,116.16852568769791,0.07123972942977269,-0.04015437047951338,4.225626000934756,2.2233536384922683,-17.31839342573503,6.069452083004936,-0.12827341092935202,0.013814535397941283,-1.508660889481538,1.3584206921086706,9.279882160526961,-0.7371996898414228,1.7445684707094924,9.175921511577423,0.030240398165754235,-0.1456030506910169,-0.04257192870881997,-0.01247642772925418,-0.09211989058775617,0.045485062626096175,2011-09-26 13:14:25.354668882,11.080479012
49.031244546831395,8.447105266322666,122.98607371270614,0.03459836146901092,-0.016796264843345985,12.163981050830127,-1.5838595765325625,133.80893089626935,12.860202396333833,-0.22366681290720297,0.9827564666516914,-2.8873509247943563,1.8949603525246708,8.993211441014658,18.771940362647616,-0.27191262241886305,10.076366835125231,-0.32519290233479814,0.1423683364894097,0.058176519487653504,-0.050119798817568256,0.01854443328758923,0.14961158685854004,2011-09-26 13:14:25.454637153,11.180447283
49.02715282191504,8.440048810776515,115.81969732307162,0.026784782018799688,-0.02591437719842677,3.7287105441871273,-3.059060261738728,-3.7492156684235756,18.4146959355283,-0.0268193584500359,0.051401841284661756,-9.087722188471327,1.1593359302647377,8.630706932668474,-6.847282884479879,-0.4805996836816727,2.7583552637797695,0.02881537686611737,-0.11301802110057242,-0.2542287746069436,0.033813107787244834,0.15448495808825596,0.3484610336593654,2011-09-26 13:14:25.564662963,11.290473093
49.031784809488435,8.446286179761264,133.1126674900671,0.023294608763540815,0.05699655404610985,5.567386927650668,-1.2697796079695065,-42.48559311040752,-19.6356564914393,-0.11229303843009265,0.1947298988738995,-0.618181885208961,0.6165482847640535,10.98471125240879,-0.5187530973315326,-1.4446761799765175,9.365424494249554,0.0321809350766989,-0.09228165212573826,0.2279668749936657,0.01378986987428445,0.5767792034397927,0.17649400625505185,2011-09-26 13:14:25.664661392,11.390471522
49.0299297651761,8.449631005499084,118.629731464719,0.0195967412637722,-0.1290511538410545,3.3346057541748557,8.914750737037117,93.42925584110927,23.477625739425765,-0.11939826766153175,0.2141660680476437,19.66591009782241,1.8454850329027932,11.64331267447825,-2.6807980435150296,-10.793089656507657,8.432378163976555,0.014922237936184139,-0.09786913098642651,0.024383560287907814,0.031836793748426684,0.28589480717681454,0.155297394423161,2011-09-26 13:14:25.764691671,11.490501801
49.02813095993232,8.442103340613096,133.40936186543155,0.027568738292509838,0.022130717625274195,1.382034602803396,10.651140840386311,-7.473034868922227,184.98830022251298,0.19463409526196068,-0.014724191658785968,-0.46844884642684204,0.7249201096320508,6.896604481770928,-1.8931588685405616,0.7989869031794665,10.7299056134583,-0.01129513582231774,0.0830967824700692,-0.010801738651317441,0.004664626779346766,0.05002573658238017,0.1410935459138703,2011-09-26 13:14:25.874672798,11.600482928
49.01837760136134,8.443935283788406,116.27952931835446,0.009756498822584926,-0.018111515620762453,1.9297567654741257,5.577205964707758,-36.66445262704659,17.972109648276657,0.24961735132738533,1.6394004807578004,-2.3192097335904203,-0.8987860841497564,9.433855315121994,1.7054663462119928,-3.239530540786363,8.248269502328785,-0.030296934483562597,0.05303512260725938,0.07506195894444308,-0.01935505885767079,-0.11943966268180606,-0.1653694412283878,2011-09-26 13:14:25.974679901,11.700490031
49.027767077852175,8.441572330920687,115.40258638386894,0.054811691783762086,-0.022862140402189514,2.7917109187475,30.371489467250598,-109.4125979272309,33.67105884823401,-0.0378012056978073,1.2386900768327516,-1.7007967438169451,-0.3069002348240763,11.006789419290925,3.5554544582533585,0.12427062660786357,11.064018210742868,0.06649024353769448,-0.08483355302646026,0.27151453707672285,0.016902686578719642,0.5550356968349578,-0.4739504090912777,2011-09-26 13:14:26.074709422,11.800519552
49.02703522281771,8.440162623542756,118.62523908091595,0.03311157504079014,0.025485043732420883,3.848535262205343,0.4769809659691173,-11.518589246141545,29.20343091729694,-0.050380171969020726,0.22685765099830874,3.452471227046087,0.8234238988646596,8.833276234326862,-1.7374661403173888,-0.8128861884998291,8.677486836834525,-0.05112722801971194,-0.023057672961047434,0.10927031968319639,-0.060670975614575524,-0.12634093425583007,0.826054904310198,2011-09-26 13:14:26.184709829,11.910519959
49.02745234749847,8.420890423431535,112.47350618976559,0.005801093983567776,-0.004059396086363378,6.7733110467001305,-0.32321131692752525,-3.0283085537162364,20.976040686449203,-0.1997243753311243,-0.0890880447519026,-11.39115269956632,0.25428794586014036,8.256909329338663,-12.582719488326818,-1.7019757155081758,9.380794685717902,0.028736927237665816,0.25969834714759904,0.4510264415910856,0.10109783262093622,0.07809861241224211,0.1501392677601045,2011-09-26 13:14:26.284888284,12.010698414
49.027606867297294,8.446987829167796,141.7702699130192,0.02976070536313913,0.0484327931559215,4.5406994002418894,5.433833691454494,-9.397612432540845,-5.606377698259875,-0.23515841516189628,0.005447120431437085,-2.6257165853562205,1.1214036328635373,10.247733122959211,-0.1272844900187146,2.436413411556936,10.380500355853473,-0.476997403853407,-0.03434273033786421,-0.1635968675109381,-0.04763905209870818,-0.046197718470710344,0.10480919953516843,2011-09-26 13:14:26.384842970,12.110653100
49.027501482992704,8.449768476265891,102.12085001519362,0.03572877555933985,0.006864252503590481,2.9750644681441076,60.77840343770041,-16.814892428903462,25.221131618506057,0.04373721655193795,0.3074893651683547,5.562187986486971,1.0543730962212043,17.763025282135125,3.3815386356755432,0.598988699381117,9.992796601297865,-0.059508705627078176,-0.04940082877368736,-0.2984170207526884,-0.2329072607553483,-0.2834072247508011,-0.11052697077761892,2011-09-26 13:14:26.494681878,12.220492008
49.026363196358815,8.431820127265592,112.5969415641611,-0.22147997512073597,0.039903967327801645,-0.920852486130761,10.563891739847953,7.622826569909408,123.9179052347437,-0.1951317990317997,-0.1855838161125547,-0.020061713226602107,0.05770149289176374,9.687177029686582,-2.2988875432331377,-0.05652793087421985,9.6739453746112,-0.05472109049648924,0.025270972043072503,-0.21201198356414952,0.06420004898453982,0.42178610435360503,0.5745183834946025,2011-09-26 13:14:26.594702098,12.320512228
49.028062697084344,8.440571651770739,118.78193853216808,-0.05667104151537063,0.0330192095490574,3.8308205255733743,9.56608577578558,-2.193389108926379,16.034195623330096,-0.34896550060188497,0.22352471095703844,-12.787581037813494,0.9908244554001726,11.06686542907954,-2.228376756375305,1.0374163560077878,10.584589206452419,-0.2485658015600821,0.1484681615662441,0.14525418677110286,0.006803693659104275,-0.05856586901558899,-0.33094886613013114,2011-09-26 13:14:26.694796602,12.420606732
49.02588519615118,8.444192375252175,118.75046154018894,0.02306056176414989,0.12283236194752271,1.4569249470694932,7.330560531742662,28.45422347677488,29.841305395074357,-0.0922936555282401,0.033614347259375114,4.895435354183673,0.42051327842463837,10.075816662451302,0.15930052547252138,-0.5028644792525042,8.192896611073133,-0.013996533768616487,0.029506315653582416,-0.005356982308582937,-0.02191565012906406,-0.050015096086280644,-0.013970285876822017,2011-09-26 13:14:26.804687400,12.530497530
