lat,lon,alt,roll,pitch,yaw,vn,ve,vf,vl,vu,ax,ay,az,af,al,au,wx,wy,wz,wf,wl,wu,timestamp,rel_time
49.00077610176871,8.48393288520775,173.01441294164593,0.12767933167061152,-0.009694948131570715,2.3847093288821473,4.134640728548928,-0.5107906597382279,-0.30073789238663823,0.3158038149523907,-0.3739409548716632,-13.33779822409956,0.6148340645120998,7.5082296399723845,-3.545088466702032,0.2968189599385752,7.699262276011723,0.11674585142652963,0.07954103042425062,-0.08635042116265873,0.04795824707491666,-0.4081111059977977,0.10670420120511245,2011-09-26 15:05:33.492908832,0.000000000
48.9986786063817,8.482592616508244,149.24579872617903,0.0892869940592635,0.040418829855279136,-1.5659090605416215,-1.0349604688067382,-2.187923628208396,-3.5826766799004917,0.18367996624880767,-0.2613674751678361,-1.7073767563520366,3.3986466828152495,9.428014068203792,-1.917795379261108,-0.4285595066673865,8.865873397301796,0.04367537894669928,0.02122904003505199,-0.20415424133071214,-0.05405381633817523,-0.06068743144794626,-0.33473909655360784,2011-09-26 15:05:33.593043173,0.100134341
49.000352943356134,8.486800695872237,150.19376172420985,0.1618758948494567,0.0240741573446773,-0.1834611051351176,5.492650336743436,-2.8143043122430464,0.4084501890406226,0.049907071080295795,-0.034455206544894874,0.9121416921279852,1.2928522567334326,9.951663599988562,0.7608535121841292,0.5139895099878158,9.545225641407121,0.012931648610316062,0.023445342136227808,-0.04476100242022643,-0.12139089893511049,-0.08171244456385475,-0.1333955220180004,2011-09-26 15:05:33.692969739,0.200060907
48.997165536594615,8.485074645378997,197.05910230454708,0.09312828100402291,0.16524120394326203,-2.207298490504915,-3.0287504866574526,-12.068779213204593,4.82312389586979,0.06902942119858979,-0.23747126430359056,-4.1919822320253886,1.0869069919770156,11.643836657103751,0.5560088997448868,2.0394148709082076,10.035068433929135,0.4639214352969923,0.0003942953330619177,0.032673575672700864,-0.012033787800858875,0.1756560605596313,-0.20610118531150085,2011-09-26 15:05:33.802939073,0.310030241
48.99625518237207,8.476307670426586,164.50583528561094,0.16333591631375077,0.3283773998139832,-1.3031904512299994,7.652791039363647,-30.025908632476686,1.7677109646054963,0.1277719768714302,0.09836497394826088,3.7197750336408095,5.232844067766079,8.741699385710527,-0.670783936125257,-0.266367508288042,13.747564886675578,-0.6707004561816176,-0.051691837732346556,0.05362566518241155,0.04803098515609629,-0.00016640385889884687,-0.12813743739820543,2011-09-26 15:05:33.902915688,0.410006856
48.99804122399488,8.485004515407208,158.03889118042133,-0.11666125792196862,0.16258169744718826,-3.5138183743520193,32.238448950488014,0.4804791585595705,-4.428773814213339,-0.16864036627733373,-0.31009710478759134,-1.115168754520224,0.15255445808109802,9.745743180671019,1.851431678861478,1.9152847490190663,12.3955021461201,-0.13781918870499738,-0.16006738126284561,0.09537095707794616,-0.05031466624563638,-0.24711834438736177,-0.11797471613265964,2011-09-26 15:05:34.002934301,0.510025469
49.00039907842763,8.480030522627494,162.11297464412922,-0.06074282707789583,0.22818216216283083,-0.02871475652165345,3.749865291962725,-1.8581718717843034,5.459465857299575,0.0032351574871939265,1.158926532484382,-10.94970885788382,0.526929328314985,9.42372746326098,2.634277655724307,-0.7443823457444734,10.174185530966927,0.05017062801501462,-0.009848623357608494,0.35838130166325927,-0.023317933452816294,0.07841295844234832,0.18035636189491983,2011-09-26 15:05:34.113043290,0.620134458
48.992115147549896,8.483482565166842,153.94374174035892,0.07764118271436289,0.16115861818576893,-0.5192604714835247,-15.705875354839199,1.3779483690738543,-3.2083573290626464,0.015201253432348759,0.2506886674523584,23.237635951480144,3.810889151651797,10.872504775682522,2.201993090218397,0.4225462201738748,10.237347324637467,-0.15116122524613457,-0.07337270099886434,-0.21472724818223698,-0.0708896366240062,0.2516536665732638,0.04388423296334856,2011-09-26 15:05:34.212997341,0.720088509
48.99842087991733,8.483172571503726,164.34189550862538,0.031143927648673436,-0.23247649782753946,-3.6752519783862487,31.016241989547023,-3.6778437615799606,-8.094986353516013,-0.06503683245169335,-0.5212859893607779,3.9273024982873865,1.7630598827797785,9.500093203971845,1.7744633427937395,-0.009998615638968145,12.988546315223045,0.20677179015360755,-0.13528892994616537,0.28166395788980664,-0.09221682128501463,0.350606263947013,0.04801290665478439,2011-09-26 15:05:34.312967698,0.820058866
48.99484680052522,8.487080295463091,183.39408629644564,0.15232345638649822,0.18508103404700396,-4.169245932794335,2.3899009800691338,0.02384707164847436,-18.55738763867332,-0.04879963510357609,-0.071324409364539,-5.760266296533563,-0.09628406020603353,-1.6197209918757398,-1.1108200365784597,0.12649689084359397,9.30094156629119,0.19966253725773708,-0.10728731318613714,-0.8790983907752172,0.0002551861934134967,0.10245254879948841,-0.13794799371505595,2011-09-26 15:05:34.422951111,0.930042279
48.999876003061594,8.483425556624198,169.68544762958996,0.03241590791924637,-0.28808657925598413,-11.78974726535543,-1.3123341887990447,5.100092979163969,0.6229376337614427,-0.06971658650686322,1.1399686057053706,-6.5541467633632955,2.2771208668160745,10.814078824416693,2.552158817317406,0.9022081262868316,9.991038451788574,0.036177778056736366,-0.12572188477167576,0.18561375822957987,-0.045442638317451045,-0.12654735949132478,0.09167190797680061,2011-09-26 15:05:34.522966443,1.030057611
48.998181903151256,8.484108615056785,166.52356401687854,0.1206171856513078,-0.08813546196440146,1.210280526811125,-1.3126711902262824,-13.312253936901524,9.84848447242608,-0.11282234673758323,-0.660862244340226,3.613751133936666,-0.12205533086263287,8.877578943729908,1.8239651185496468,0.1191385569737038,20.434210744003366,0.161737996647752,-0.007160546692238879,-0.09026240313438032,0.098115988472204,-0.07079548330711813,0.3369393642633518,2011-09-26 15:05:34.623030902,1.130122070
48.99671490645887,8.484719070887962,168.60803365066477,0.14802373847973554,-0.2622994110007446,-2.3987180800743975,-7.540953977089021,2.689981099873925,13.317633412379926,-0.12785263495168647,0.027414242266099922,3.7073423780699075,2.269917920471027,8.59630451341587,-1.1519469675615586,-1.693006735026229,10.832760136649181,-0.06733134896330675,-0.006371753067073379,0.13151949879838115,0.08515918516186217,-0.012741605678847273,0.12204076443254609,2011-09-26 15:05:34.732985295,1.240076463
49.00608116446009,8.483309402781929,149.24586936551998,-0.22581863577529082,-0.11368893922369039,-2.4804704646375035,3.3824083146694255,-0.10805444366508962,2.5752401614168803,-0.24334908375107317,-0.28003582547052036,-2.0464511731303068,2.8234213782991984,9.213788105209781,7.103875879601218,0.22665062241605044,8.547934543575723,-0.07702451453894343,0.14852649057692927,0.1237779375662928,-0.10406339334810202,-0.026240018059005263,-0.27413254049299035,2011-09-26 15:05:34.833014816,1.340105984
48.99958940335583,8.484278455323778,85.45008116143201,0.09307389292200272,0.512552071987085,0.291459726603976,4.606095097143752,-7.182604324697989,2.0226483926298693,-0.14843975007164584,-0.5511023804099991,-0.40088556715665913,1.4518560410803811,9.638592252283463,2.3996620118277217,-1.609368198419102,9.881661721107514,0.07694244762900261,-0.009848786732932905,-0.05412689183383847,-0.059402805093559066,-0.06599205494305438,-2.510587617319826,2011-09-26 15:05:34.932949832,1.440041000
48.98953681445101,8.481930936552722,175.20369455032824,-0.11143729009650918,-0.615673214489457,16.928750661328973,25.447824412939564,-5.222205787686981,23.002885657459625,-0.25812824962951486,-0.04337685766072982,0.6805087589096486,-1.7484334556841796,10.761031077105308,2.72151691188879,-1.527193122313831,12.215347075479759,-0.2744474650872701,-0.10833289561510116,-1.688572712801029,0.01450115020633191,0.03766129593140435,1.2559711611904336,2011-09-26 15:05:35.043008550,1.550099718
48.99746494374401,8.48233163629232,155.85535442372654,0.028298619636133622,0.19569045078929975,-1.9806979617657992,1.0253418391348472,-25.24408449778525,7.224954118245814,0.2633518354850493,1.1137215220350403,-0.6700131833755627,0.523285812116715,10.282335707517124,5.121231737369758,0.6793292745414197,6.15195127683766,-0.028687612892832365,0.0036326469661385266,-0.07252175540967355,0.0913296061780958,0.07111470432100069,-0.9040856495775835,2011-09-26 15:05:35.143105898,1.650197066
48.998062671982765,8.48133910649086,178.38909836383132,0.0053156242740984155,-0.18422943125381488,-2.9258623634760053,-3.7042546963757923,6.4748439120157615,5.666963094889452,-0.01126493195926006,0.6323105067416083,1.061442871448154,-1.1536008071527248,10.115701801050562,3.9778181379405693,9.58732145444171,11.014897048689848,-0.21370935674244637,-0.003224787821574468,0.8358540184837774,0.10657633976086742,0.3236404252337978,-0.27823669310664345,2011-09-26 15:05:35.242987583,1.750078751
48.99539173187362,8.48460485216132,156.6295884658807,0.7059644347041467,-0.30518364503273504,-2.5658711094577096,54.184215365621796,7.921848544753281,7.29352001304729,-0.008393477952972773,0.30993487327746316,5.360210395513189,1.352483952970446,9.311475864656991,1.6614216399927415,-1.512188429775825,10.689779103599134,0.0032861925922492994,-0.0582467143226717,-0.25786133170863434,-0.019741762863661593,0.010228523142879881,-0.01656548280236675,2011-09-26 15:05:35.353025668,1.860116836
48.99624602762667,8.48286096243789,166.47693379794725,0.18892022668810038,0.13747969342508018,0.45771559645868654,-4.812018990711369,-8.357233739635655,2.4282382948850643,0.7767078655834982,-0.012017298395974449,-0.44970298486128835,0.049498750986665035,10.596920612740462,-0.01851926545552507,-2.392386513518259,9.713943025256048,0.10256810682487255,-0.08821518946273249,-0.6030610253312129,-0.0035114169789218705,0.2988652337780415,-0.5159985523935182,2011-09-26 15:05:35.452997636,1.960088804
49.004887059110416,8.471648355059022,237.51788149790337,0.24194341321720478,-0.05371182493028228,-1.8592142599726658,-3.51386207783072,0.16046943261988988,38.36963911027566,-0.9103289426869408,0.9811626306561373,3.3806787481998293,0.7433305354326464,9.921605749841117,1.5953821467913425,-1.3935103545436442,11.149235618960818,-0.017568668977725584,0.06251829803355585,-0.030640539649629872,0.0352189868394778,0.07940354962063954,-0.22623068959979026,2011-09-26 15:05:35.563017701,2.070108869
48.997413954356695,8.484182221386604,160.3317706249904,0.1888019141249298,0.7992904673518759,-2.3212358523311805,1.3885938082704175,13.222971850261425,-7.11076742958016,-0.13714399894848275,2.4383014986764318,1.621381171239288,-0.6809865978481983,8.786403640349722,-0.0629714957727443,0.5267141904063136,8.485251345180224,-0.005556024434313182,-0.0900501259921702,-0.2808005432139918,0.0716777957024852,0.028973539213070085,-0.6282192808044019,2011-09-26 15:05:35.663037187,2.170128355
48.999398350036515,8.48234595381066,160.87176866498706,0.019406944964508843,-0.04378433070080857,-0.010044764646106596,0.7634568796209957,-2.4919948640596346,5.767466273012985,0.011567530874259359,-2.9040851551202835,0.5483061337520969,0.05150842485415258,13.151228014010599,0.5367786466973676,-0.25455595012333854,8.437773085402,0.017731537934547698,-0.11600856055788071,-0.5078140624493751,0.1611448438296525,-0.10465681221327003,-0.041728477150748705,2011-09-26 15:05:35.763077782,2.270168950
48.9967495432485,8.487297838771894,175.33863856707634,0.14953479589717508,0.12567708687641363,-2.3069364332815865,-7.251292061241195,0.08972654542230774,7.295961997967395,0.5556067338211748,2.8389139018065896,2.9833163391612683,-1.2100453222403444,16.246987277752698,1.1101690044324786,-1.2492542755023992,10.493861587571262,0.0024578435319314307,0.0008885366049762033,-0.6351940394039726,0.4054675496767949,0.07483432959844971,-0.22393673932342623,2011-09-26 15:05:35.873032070,2.380123238
49.000633379863004,8.483993801396466,152.74604533622548,0.18085384089346196,0.09658069033818054,1.1227593876491833,-8.681966055360668,-0.6222248775735152,12.352809610199117,0.03925537972184753,0.06079802506353732,2.6677045184785917,1.2868252640593436,15.001537372625762,3.5299045828059166,1.2665800364865407,8.840185350944953,0.043598021015676856,0.10747831106454842,-0.13839276377943777,-0.07722460927920163,-0.060550522607427826,0.2476034494550817,2011-09-26 15:05:35.973063010,2.480154178
49.00168919531264,8.485255994258509,168.4845642465104,0.10911163057161911,0.013496778349663056,3.6487150065867184,3.3509954864361102,0.7651299479144489,7.637322029121006,-0.20562109687801194,0.031160420054042404,-0.6332764728291846,1.2641930235717556,11.96467031072186,11.311388461967454,-0.41692463651682216,10.525376255409506,0.04906607485111709,-0.018357866634732885,0.2969546027001262,0.03811435208624453,0.27803678917742414,-0.18361883212498853,2011-09-26 15:05:36.073116020,2.580207188
48.996198170491006,8.484493995048435,158.43046966040055,0.1430623888303943,-0.4515496027567502,-2.3302067912873423,-5.956948321354761,3.4364092463268063,9.407216920556749,-0.003018053759594304,-0.03876915656193193,5.374495918380195,0.8447887317035127,9.065801992840512,5.217616870517779,-2.29782889092779,8.543404251157323,0.11933562053109875,-0.13885365300635946,-0.22523832560947768,-0.04352360800127521,-0.049662591206833195,-0.27865768914182387,2011-09-26 15:05:36.183326118,2.690417286
48.99420917416484,8.483066678512325,145.29869039759427,0.2186495749226528,-0.21923886542601423,-2.082097932946224,-8.993509686261275,-3.364715998214808,7.982129481733712,-0.17734381480830444,-0.29155279208145934,3.8771579923063113,4.645536087943285,9.203633771615513,0.5515407022055285,0.9198584763303992,9.779673072928368,0.10737409346481072,-0.17007459708007477,-0.2081440468658898,-0.010467094863035844,-0.07959391014394515,-0.44525140545256636,2011-09-26 15:05:36.283043985,2.790135153
48.99996521452571,8.483226175390977,158.0573599226015,0.14592702358533843,0.9998255768340619,-2.1426180898145413,-2.748249823187972,-19.891432745633423,4.472970387565391,0.04011996671642035,0.09149925866314154,6.187366799809999,1.6736024614483163,10.07884763459377,19.74276400949071,-0.7794150170556617,9.170715846669072,-0.235994066534931,-0.11932023574079309,-3.0794464049360606,-0.14213103767305132,-0.10991294689953274,0.3440787554678407,2011-09-26 15:05:36.383269088,2.890360256
48.99962341231102,8.48204006217107,163.9403672199608,0.07813747370058977,-0.840626657862245,1.4931428976534828,-45.62725732191814,1.0933778981137126,-24.371440123873803,-0.9752847954580608,0.6182639672082274,-1.4736264352799195,2.375159198419566,10.605481628769603,-1.1954926710449651,-2.402624063986323,8.474852453714897,0.011128443482402165,-0.05478828351791377,-0.38441658747478213,0.07352470301289922,-0.013656201959905176,-0.3847781392422978,2011-09-26 15:05:36.493076580,3.000167748
48.997747362407395,8.483243731157398,146.05446431202344,0.16092502511821705,-0.08958252321746675,-2.067184402624979,6.642088969477468,-10.37131312924818,-54.88552363009672,-0.019353996037084653,0.37302737791304796,1.6737473281472104,2.4868261047555547,9.878881828635128,4.320860497660195,-0.39133276091238445,10.037213033070604,0.0811820201032469,-0.17996929200460324,0.2304653629532405,0.5293314790062796,-0.04278545965148334,0.04826825235355421,2011-09-26 15:05:36.593293964,3.100385132
48.999920552278915,8.492238700892859,171.433710052553,-0.49128741545468607,0.07673550042781341,-2.228938948969757,-15.199987974381502,-5.171059382945954,1.1237165208385034,-0.07377461111815345,-0.4172453459182551,3.8251465468349624,-0.86564265917103,9.207703136970327,1.1840799003643145,-0.18877295642722658,9.638560673952997,0.3607097704857637,0.17173715234620587,-0.22787756888148408,0.07985591036988157,-0.05224547859706337,-0.33925771023379625,2011-09-26 15:05:36.693164147,3.200255315
49.000127909307935,8.483165482862608,194.26879412433138,0.17315266741532323,0.2769297032483604,-0.7438404889953287,-1.317233691361893,5.15123689475838,12.834353234319558,-0.33135943399657264,-0.39124756355374424,-17.079009742202075,-5.62454063246096,9.814302581377289,1.1995717846813287,-0.441740348879724,10.765718991454545,-0.10851289232081224,-0.12365710549446335,-0.06096559714399213,-0.04098517963794598,-0.14337105769894964,0.5231014129021396,2011-09-26 15:05:36.803136576,3.310227744
48.99714008426909,8.485345329411647,248.21817489908193,0.004971533419965618,0.5463177216054602,-1.0823458974981626,1.6576179606786408,4.347250330408716,4.968144704047184,-0.48297334564217326,0.5821509973922656,0.5376580878351696,1.1692323882724525,9.45098931242955,2.2402184718858615,0.5748737404082245,10.567644408469446,0.007139954182202382,0.13857573151737299,0.08284252483316279,-0.07061760851885363,-0.010002022788681786,0.11862923165104619,2011-09-26 15:05:36.903106912,3.410198080
49.00122479412975,8.486730469717084,170.82348757333006,0.13393135702881467,-0.04684499073232398,-13.737425179901322,-4.65408852554275,1.3242159928221837,-7.6148988996132445,0.8760127128360627,-3.1490552656556083,4.31423602967784,2.9469940978966678,9.54383567016279,1.9942691384574496,-0.5841746172378772,-0.04110656376582433,-0.8110982384422564,-0.11752578925966045,0.381146664616401,0.016766081123791708,0.2190159301862059,-0.4473606640645153,2011-09-26 15:05:37.003097342,3.510188510
49.000810232395985,8.485602796303144,149.75975078278418,0.47735633885002227,0.1659304347819534,-3.5475701389757432,-3.6079518006064135,-3.7549205468684055,5.696815076248884,-0.1390405306363182,0.37518261886447013,3.585980773806869,0.8136028219557684,7.569602424941394,2.69058290566935,-5.164076266919674,9.47314451710483,-0.007823861783077472,-0.12268677965548107,0.14257304392152914,0.04959125486699997,-0.5896515151576844,0.203784901602291,2011-09-26 15:05:37.113199395,3.620290563
48.99988433203181,8.485180322566746,140.71581489364235,-0.27614339579708624,-0.28171583547936574,-3.405158332961201,-5.668854154602673,4.617793393124833,3.1481805090256456,-0.23649236408024707,0.13142882878768047,3.2056114408530743,4.167413849865745,10.130796714307712,12.078579375811863,0.16286856663398036,15.924930001087054,-0.3451224514579562,-0.11329514133423368,-0.3789690537363172,0.1596648189078531,-0.05307456789676562,-0.38768391894450155,2011-09-26 15:05:37.213121453,3.720212621
48.995290122328775,8.484669644129356,169.91996025064643,0.20602296094814165,-0.11539090461915764,0.5188293782002873,-1.1684610835562097,1.705427210815757,4.908931329578326,0.265524091902634,0.896203097465162,12.772498584795942,0.7838012374354386,12.310538031902084,0.4140497314165032,0.08643363340168037,8.686050732146365,-0.06494115747091918,-0.016497814650484246,-0.613503775546576,-0.27322066077786306,-0.05215757483142725,-0.11061651466987382,2011-09-26 15:05:37.313141734,3.820232902
48.999619309400785,8.483927440278594,158.15139748068927,0.22498075041338156,0.651679759256822,0.19912204681704582,-1.7370029235664566,-1.082193942896965,11.031189607903487,-0.05528706735958607,0.43291330303850384,10.660947458776002,1.090695787452623,9.632154960063106,1.3155038223760884,0.3684444206933609,12.072617008033012,-0.05839652779254017,0.22332180416568742,0.08960277942700227,-0.21764172413211502,0.009752653902058832,-2.291917275110173,2011-09-26 15:05:37.423123410,3.930214578
48.99755998609699,8.48475775601625,161.60200946925937,0.06805415337944314,-0.295712137713528,-2.979193918468453,1.4396446208114817,31.98477819712173,6.9313633971196005,-0.06448274100050785,1.1899756903491632,1.7451865768921817,1.860929839503366,12.274754243759048,-0.20049996547683002,0.5607785960323652,16.75354146529458,-0.1361281358238441,0.018622181114595314,-0.004014218612416687,-0.11665206716013866,-0.0046704692746419516,0.5408123117812296,2011-09-26 15:05:37.523142245,4.030233413
48.997982270904984,8.482030515820206,166.4352459918891,-0.031387508071799394,0.7117940966544987,-3.1544661537430083,-2.6774498640604554,-33.95683959681526,-1.0481009582252518,-0.29700841019204105,0.6463786446794194,3.0730417061591044,0.33567895327836267,11.072519720625298,4.667519338624823,-0.31752526391083374,1.3820555152859022,-0.1264496498378185,0.002157333584715298,-0.17909126805797562,-0.10154228840371302,-0.04773481169274633,-0.2856399332542521,2011-09-26 15:05:37.623336781,4.130427949
48.99931303386507,8.484093463533183,161.18660788846432,-0.033859208403434135,-0.4757244831660987,-3.7459457801352927,1.790161672282034,13.731496169984684,11.444472384360289,-0.1280414478724489,0.8449895808679806,5.792721634352785,-1.1478610858504354,9.57791844759458,2.7921225863669177,-1.2067938239623865,8.86885252400833,-0.021331986839618986,0.052624979961775314,1.6229523919555053,-0.05362432064621546,-0.0871271560047405,0.19993626023576327,2011-09-26 15:05:37.733121885,4.240213053
48.998081153616866,8.487505427776961,171.12031097204652,-0.08499797760572539,1.0256831348058446,-4.068744635225707,-3.5184735457249623,0.8730606684648659,-1.6847853272492799,-0.0048697818352691664,0.9992888516238232,5.128789009801815,-1.1334883060622731,8.630082208426515,-0.16407380621122425,-0.9827059899195384,9.162849752018102,0.05423726082769805,0.099674325649142,-0.037594073466804566,-0.20104867367597068,-0.2227576403540095,0.12694206084032172,2011-09-26 15:05:37.833090850,4.340182018
48.99701664857546,8.485449393546256,163.76195371343405,0.012267422080238566,-0.12901092405369358,-2.1746566270509593,-5.309558524481352,-27.181489796316942,9.646955783338496,-0.05933857214886162,6.892902760733543,2.4267844709375246,3.090305662727656,9.518284752705235,-0.4372676450228834,-0.04336558144847165,9.835509967973636,0.041158186660905,-0.042856405790036425,-0.053443727092834056,-0.17244902492445904,-0.028493113990008354,0.1708322037627241,2011-09-26 15:05:37.943146652,4.450237820
49.002002369989036,8.488633632643301,167.6231356050438,-0.44626132423344556,-0.07576318478972333,-3.3391965733789375,1.8566475845800152,-8.420882513005171,1.841892707698403,-0.034446986036147736,0.5535450664624375,4.379506393242145,-0.6996079634320894,10.355809351828896,0.7439286630282306,-2.394836115335191,10.773084347985916,-0.01584854636641151,0.05883299857650863,-0.18670934013894527,0.4589682530610049,0.42236581187162237,0.4547555297098909,2011-09-26 15:05:38.043151030,4.550242198
49.00218317347989,8.481842038191795,162.76053323787696,0.04178875153763342,-0.17434821074917506,9.133729330589052,4.316094905025357,-7.375454892369596,2.4127518820163183,0.03918451187802167,-0.08829231669614257,2.29173747875032,-0.5030755225637832,10.897092545453107,-2.4645754971338723,-0.4692491041581648,9.595583933357565,-0.056838224518601044,0.016086260719976528,-0.4646944292972644,-0.09517455419267651,0.024473639855415757,0.4650295042728538,2011-09-26 15:05:38.143263229,4.650354397
48.997415339881734,8.484248335023365,226.5369159963293,0.021702876591090985,-0.03302566856761861,-2.8036732399558617,0.9550651306235176,-5.060889797525883,4.322246541270802,1.032842673621922,0.5582516218619615,-1.4401125260165561,1.3344971929826055,9.272268950475558,-12.192010092390037,0.10945285623717457,3.3340687616285427,-0.21193757655727008,0.019812465163124147,0.1720119121371621,-0.07082939915467927,0.05640523529112683,-0.4118316978061316,2011-09-26 15:05:38.253140145,4.760231313
48.998926360497,8.4821235562734,156.86541838961165,0.0545954802295215,0.20567641940104942,-3.5775731335373395,36.15547297289328,-4.82722328384019,13.77979141649121,-0.19394343771955277,0.5320044237240995,3.4724752618629906,-1.3942024738597367,7.847134178168098,6.143517629636151,-1.7029156303156319,3.0923026341720865,-0.0007214373531317861,-0.0827285057188107,-0.16805727507657228,-0.03494683433075033,0.0041130841506419515,0.577061033368131,2011-09-26 15:05:38.353146183,4.860237351
48.986556158969734,8.493361281627347,137.90237774964746,0.5206211209788905,-0.01015863768035713,-3.0970071676405464,-3.2298342261797353,0.9034791106781173,5.9094562247155205,0.05988278613370216,0.9128064243084997,2.730991796574666,1.6950338734589998,8.62420999942849,2.1768438158288044,-1.5872343044724913,11.224525258425942,0.7623909766816113,-0.0018040474020966507,2.0549715074227466,0.22558644814388706,-0.1411997033220592,-0.09368573626153277,2011-09-26 15:05:38.453116457,4.960207625
48.98402118770232,8.484065256936354,170.7896563509639,0.1099315812517436,-0.03330481286989362,7.988254317578849,48.46261382274178,-2.118307692826257,8.685224520384896,-0.36094512179045324,0.5614228661358049,0.4249605028685324,-0.4059710519257851,10.067437722341664,-0.19459683376439818,-1.019951091782472,11.26278348366205,-0.07808887344610632,-0.2770963464461276,-0.5847042612702585,-0.06262302207491562,0.1995997119707298,0.21367194742080148,2011-09-26 15:05:38.563155760,5.070246928
48.99900231888484,8.482158250984615,192.72167504296033,0.10861122430326375,0.06735969534347469,-4.187679280725185,-19.06710627974164,-6.791260097019953,9.350303385070365,0.2204961981150433,0.20405928693351044,0.3529047723221188,-0.7972629088451303,16.037069867251617,-0.22960412497616178,-3.918868731893482,11.911996264775576,-0.1942252212893429,0.12063464981784323,-0.1642164060918839,-0.1335317124838227,-0.14489198875020293,-0.22104722947251218,2011-09-26 15:05:38.663212821,5.170303989
49.00002962898126,8.483210445519703,169.10562683231808,0.039844033911397916,-0.06973762873389419,4.197644930793527,-4.123636291686437,-0.4513058750650263,16.06526668812771,0.22125320305815904,-0.08584388373837104,2.2160384615235795,0.29499437101291126,8.033583864753846,3.4442410424405554,1.112814451397603,10.28656893395905,-0.15995224574925843,0.10088097579834923,-0.5298884226133976,-0.11273616587357504,0.08813966746793203,-0.25308831977110247,2011-09-26 15:05:38.763199985,5.270291153
48.998695014499134,8.48121549713463,166.04518333516705,0.06480101612117903,0.24312941318423692,-12.355974842154266,0.5640728040686396,-0.6195622416094597,17.744188166557528,0.7308976017729143,1.3014915198232613,4.308908450099702,-0.23485172222058898,9.773997979938176,-0.009799856605392732,-2.933914564896446,10.77693271359752,-0.041561215403017535,0.1016285472563973,0.1302778623455896,0.1164389033778003,0.29293592876035934,-0.20445511140670797,2011-09-26 15:05:38.873203724,5.380294892
49.002859349597884,8.487161492668392,152.06992162501797,0.12575088608309556,0.07880933241919458,-7.269117612584001,-0.43752588678118354,-31.26616817480503,8.836157713516268,0.2288094511019147,0.4193405575524414,4.0278882220012004,-0.33371618874272474,10.856228876113741,1.6710158404106554,2.373800030519882,10.598998134286491,0.5946768008654142,-0.4091965530035857,0.24455189394100035,0.11631354869676208,-0.03974027344790595,-0.07728788889110189,2011-09-26 15:05:38.973185734,5.480276902
48.997861022704846,8.484705014112627,208.25890655006665,0.0015235622766505627,0.10752708779778843,-8.513395973731171,-3.3439848711439897,-7.793098420051422,13.780855935960973,0.17923414622428344,1.058178318063188,3.670998651564159,-2.080572607839879,8.557467976069566,1.549311259636152,-1.2632110521460138,11.380975142318556,-0.13144471003736177,-0.005549479979765241,-2.408693717333179,-0.08463692672880382,0.07342426455268371,0.2754167909433653,2011-09-26 15:05:39.073238574,5.580329742
49.001355925159764,8.480912056226018,157.53424628139038,-0.11723641182926534,-0.18160758589590342,-3.364844128152469,-15.169452166521602,4.073364706577777,1.509180822254942,0.029447119390615194,-0.04042278286902179,8.751328115817646,-0.15200309351517644,10.68947374564575,0.3829492360529818,0.685276739282467,11.256898899727501,-0.09050160812090265,-0.021555375504838013,-0.14892096039005207,1.1522293019450067,0.3228116466713088,0.5678380470516833,2011-09-26 15:05:39.183459644,5.690550812
48.99925114053235,8.484476735757337,146.01351671244052,-0.46373765159510627,0.06683605950250485,-1.344487281145583,-17.88023253358017,-5.743580961471201,71.06495849110503,0.024838380407543145,1.2421065124570638,2.024028460189101,1.4466380914189325,8.500352574593162,-1.9984036288202196,0.9929235057271272,8.533348192371086,0.0004130374641771548,0.08414464730028813,0.0820377561028302,0.14666239695931732,0.015132495816166602,0.09793526148473959,2011-09-26 15:05:39.283235407,5.790326575
48.99654867982953,8.482419000644562,172.97546901528133,-0.014004401571199199,-0.12111589027575226,-2.5859654356352744,-9.585628836084968,-3.17130207805829,25.869613423768673,-0.059559474764259164,0.9270775926561019,-0.04241630793453899,-1.4428267202561567,7.953972959474672,-2.232201612060318,-0.6151009717630926,6.915543056386601,0.12611354470905833,0.04044838635530763,0.15903561298461938,0.16361274810744422,0.06870615502723398,0.5068626752816421,2011-09-26 15:05:39.383349393,5.890440561
48.998833712053596,8.48489651514541,189.65335131766832,0.03596585993419683,-0.08843550157921827,-0.32487945412574626,19.561436808226198,-14.269186333292174,7.521619048424071,0.17236985113802025,-0.37491786010032013,13.138114244317062,2.992024329350575,9.235188943182525,1.046501496543958,-3.973083401702478,9.527619510251668,0.11790247154422534,0.021464678444003807,0.18975725262018167,-0.021119785327461567,0.08080025132088245,-0.4267218740635119,2011-09-26 15:05:39.493204809,6.000295977
48.999193077601255,8.482178149660639,168.43828591315128,0.0680019210984178,-0.6455452672280885,-2.0450269308759834,-1.3699563844547202,-11.923897979066165,5.163095332075961,-0.1930736430794548,0.6800791053401493,1.6558967378193963,-1.3085096979433015,9.682560197100663,-1.7372880908247978,-1.5904846271606519,6.349245746914057,-0.05710320716058979,-0.1386167936002431,-0.14063712677917178,0.03487240987237959,0.4686427168352021,-0.37474075473506857,2011-09-26 15:05:39.593415419,6.100506587
48.99922174508048,8.487155487333224,179.15470902800635,0.11370511990196797,0.15246618921506172,3.4563611722404946,-21.33740064901847,-10.43850298862671,-7.78707398811729,0.03761427878693333,0.7409571950189843,0.37892209884452754,-0.35820085175677036,9.886701642803958,-0.9550946750810573,1.3101835970428377,11.207837223074668,0.019094440360466973,0.0037769813668840704,0.4979471175845578,0.10711572485681706,0.005725870466995801,0.23276341887739002,2011-09-26 15:05:39.693224127,6.200315295
49.007867737073425,8.48494602758137,180.85931169848322,0.047981263699962695,-0.14453376111418412,-1.5953334867279745,-14.949249828959804,0.8273877000493419,10.566061669787159,0.08709222198486107,1.1674773456520704,1.034058871810187,11.76886447158812,9.057451713887964,-0.41039116823798694,0.6159911006017694,10.737749976113879,0.1493741835261062,-0.005428918357527315,0.18581770275326842,0.8125225653676683,0.051695427331176796,-0.1500558623259443,2011-09-26 15:05:39.803249329,6.310340497
49.00125395965861,8.488459825092598,168.66109837996203,0.07833516667773083,0.211173340209173,3.175724790255879,-3.107119295483508,-1.4709327555646192,4.3480346030437875,0.14480246051165407,0.01628055631449432,-2.608275470264846,3.079271667604999,9.501946426208173,-4.158400057979026,1.7239054691573976,7.8493815541413365,0.012878026697754496,0.12370204609202679,-0.5733271520587133,0.19733887044624907,0.07035273645445614,-0.6645566971797326,2011-09-26 15:05:39.903202448,6.410293616
48.99788172689111,8.483433329475632,163.1762908353824,-0.06271077360869276,-0.3130895925443171,-2.737785015449435,-0.7097528351949025,-6.1239296612321965,-4.160231352717217,0.08786073235705244,0.405325926461383,2.6492670106061014,3.126378813487275,11.37405644501522,4.2245993402077415,-2.253998393654987,10.0080110586406,-0.1413362186015404,0.0074359854790826685,-0.20898551598165682,0.021084146324999352,-0.021097514683420707,0.2897643516301763,2011-09-26 15:05:40.013223127,6.520314295
48.99734779369847,8.483748683399808,147.8444912645162,0.049790559007430416,-0.15734949002949875,-4.341449786286211,-8.551802512363363,-1.7943170773785306,30.678385235194316,-0.9216678104627594,0.2369709746328285,3.6508739325729236,-0.2999369858725559,10.5649950178729,1.7904889508608568,0.2929796806802065,9.899013057373367,0.06529048754414316,-0.16527659783452758,0.7283157607069247,-0.0645781346541078,0.04364379210189913,0.5138356478609093,2011-09-26 15:05:40.113341561,6.620432729
48.99818496416773,8.489623468334813,235.22734530274556,-0.032885496637338474,-0.05983990139610912,-3.3926579727122097,-8.6128730456158,-12.901225168067933,14.555759970348834,0.27045117968087923,0.7943035606280351,0.9782433665524246,-1.5901403093706912,7.974733199345167,-3.3822080739838443,-2.0685998819779075,8.258042141363541,0.24836274224421673,0.04536168817608606,0.12814474984911678,0.722387803355625,0.05944384986366635,0.004657870366850631,2011-09-26 15:05:40.213214103,6.720305271
48.999318410471794,8.483697568001658,165.5675823942556,0.033368014730258445,-0.045216329771848265,-2.639565753631559,2.2089011843864856,-14.645680783236886,7.821723720622097,-0.1442182229636562,0.7573133358308222,3.7788546660626148,1.1617146505260445,10.27133894997717,-0.47610532224538604,1.1770395061932173,9.314020375072163,0.6620557006436731,0.44419113010416916,0.8456845581278961,-0.04627979043263145,-0.023614563546537813,-0.1912652735693033,2011-09-26 15:05:40.323235497,6.830326665
48.999079039266704,8.48252329445336,151.83463672252606,0.17207335381047378,-0.05308926844535575,8.90380344483518,-5.328078714189606,-2.4234827157335457,13.206823242552552,-0.25791838682121676,0.4379815249681095,2.1078169425275712,-1.2160101055527672,11.72340701103145,0.6909027203024936,-0.2625055184724624,10.360570216875873,1.0126669267276966,0.1889643844161945,0.5876374373677098,0.2271879508385842,-0.011967717274172895,0.06605015986346306,2011-09-26 15:05:40.423205807,6.930296975
48.97534327232169,8.477608539988776,163.8353219377197,-0.04751716689725218,0.0034538993000256674,-3.0036932385351762,-14.410735051484103,-4.4442412484576295,9.073119263390575,-0.21722813770325128,0.9238186561782844,-6.343630707721539,-1.9231480334957562,6.761633620932535,-0.18349087338410996,-10.728458697677178,7.814474548896685,-0.069238491193837,0.009569049878349056,-0.04731024472367483,-0.1738054369727416,0.5201856029504243,-0.032857379428277725,2011-09-26 15:05:40.523236247,7.030327415
48.99900551519219,8.48546816331944,149.78087266968848,-0.005831526939030475,-0.09327242155322699,-2.5429738878559776,-20.45421879213586,6.152972003999758,32.209480789363184,-0.0487436112464093,0.2270111279752008,11.327907063185998,-1.9638061825580306,6.926009159778726,0.10164848179817088,-0.43241319010901424,7.858573971865725,0.017714528957525795,0.011003879274902414,0.23287664797326782,0.44471498483469496,0.0747357182856077,-0.029543268596040353,2011-09-26 15:05:40.633332381,7.140423549
48.9849842740072,8.484825321820445,164.78300977639404,0.10418152832142522,0.11896339808243497,-1.8140129679589259,-12.266636188815275,-1.8779084239760824,18.70303700892231,-0.3212783827586999,1.757640667893832,-1.0900152906899694,-1.687468760889241,7.163717981193241,0.993075172780254,-0.6411226469259363,8.842941523711376,0.09455852497903443,-0.029450388395577034,-0.640564318795597,-0.07694578913269452,0.03662231247172966,-0.16253793793692345,2011-09-26 15:05:40.733278732,7.240369900
49.0010839955099,8.483342279690754,125.44273914290659,0.04337626997355004,-0.10471910697274636,-1.655448418087331,-11.110108161638482,-2.9438050794026656,10.027277461904896,0.08078152277897553,5.7992857121327575,-0.6067650349454523,1.2176199235949579,8.976707158932616,-0.6098564339096719,0.5703275218854907,8.938064636916206,0.04721516565992997,0.05024334553368022,-1.9204893957710927,-0.197096772989193,0.0715639208545942,0.050712408278499155,2011-09-26 15:05:40.833276744,7.340367912
49.000437390758314,8.486260103763614,155.49693902973567,0.014054077176635985,-0.07670329188505293,-1.6196978903147086,-17.337239086595837,-2.643863987386356,8.480134899967352,-0.2516272836943389,0.9041694559256737,-0.8460836713617955,2.8837300220879567,11.86695243004142,-0.20147288264285573,-3.9347096811175026,8.101520653284325,-0.08771969567465918,-0.09954871067496651,0.010428177883762837,0.14775868319186528,0.014784011675905415,-0.22747055925625276,2011-09-26 15:05:40.943266685,7.450357853
49.0003482230112,8.484703017004191,174.20246959961247,0.06901359257643845,-0.06505232987620307,-0.403200389339182,-9.836656673819721,-6.316680759206227,63.23340341273133,0.16573034943914822,1.6952058842592543,2.467704124080049,4.643631518584512,15.198358654751786,0.8389516450049088,7.0280005788516835,9.33568045625539,-0.084806287670053,-0.06341796380054668,-0.12638076231560713,0.1232499582260948,0.04341266667947612,0.3439286532971165,2011-09-26 15:05:41.043347559,7.550438727
49.0000969393774,8.504759852561444,172.49526874467045,0.0811326791086007,0.05315469101320161,-1.0746522686418167,-0.966215044366213,-9.678020961650152,21.5664975639756,0.026286082172174055,2.1730989613489062,5.828780527219716,0.37464332972019165,8.72397701663435,0.004631161315260257,0.594606809007077,9.446851264539232,-0.011960916466531584,0.06889548995494521,-0.10080916202106834,-0.0627132280640502,0.032584091745364654,-0.09462331044275102,2011-09-26 15:05:41.143501508,7.650592676
49.0001496210573,8.496793648675261,169.48610626000394,-0.1067612129638999,-0.07770475366125487,-5.50693274023911,-36.998057140797314,-2.943359994579165,2.169457072914107,-0.14913083660946974,0.19409267130461844,-10.70238150673778,0.5674314088151162,8.82454848640421,0.0941219448193889,0.6960195801316492,6.98061063392932,-0.7409427599173205,0.08554380209403563,0.11289337284240204,0.1115305032000591,-0.0422578256406982,0.15437671604716197,2011-09-26 15:05:41.253303282,7.760394450
48.99736395326572,8.483824001106388,193.07478391739326,0.04471286319305106,-0.05299796518230143,-3.4958068015433486,0.5526099784127396,-6.319036323187589,9.35062236433402,-0.0786934361909344,0.0415886255695444,1.6516517462000608,-0.6345033123400331,10.389492128245605,-2.7795380622450394,-0.7787506181395039,11.75259873821136,-0.026972993509741434,0.038441536656122446,-0.30639455410276145,0.007762080166925534,-0.010958441397362942,0.09586484386419789,2011-09-26 15:05:41.353334696,7.860425864
49.00015399083651,8.481309172170636,151.70169914623284,0.035395686602808236,0.13234185225093373,-4.68746741775296,-0.29441108639530444,-6.044652016390843,11.68835167652207,-0.20565014446082328,0.7640037512877301,-2.609108992747304,-0.47547218621978293,9.535540442528143,7.778558931697818,1.3065980245568052,10.49596729288707,-0.0007818619018403195,-0.08658618171176553,-0.1919232689197435,0.05950089516391423,-0.011576890410452213,-0.35490331870813663,2011-09-26 15:05:41.453307280,7.960398448
49.00128033197526,8.485611938611337,234.72175572972662,0.20916456939471798,-0.9046971098168207,-4.023484064291358,-7.279632652625933,-0.8917100651280534,0.10167033605018538,-0.33829662160107554,0.9219610183910207,-0.6207308554986033,-0.7277268605645735,11.394243460819334,0.3945568134027879,1.8405383832886426,10.840116626317293,-0.1129657633463835,0.2603684056421923,0.024132531963529782,-0.04867176166213169,0.1465827514408053,0.4184379632085388,2011-09-26 15:05:41.563309537,8.070400705
48.998188497436615,8.485331691358475,167.7991676174787,0.05722968529406726,-0.18952902706094987,-6.359631493349033,-9.319640622987363,-9.716422697124239,3.8135044146877584,-0.1314413842541637,0.34632735354194444,2.773302162216544,-1.8153090227411666,9.80385883980053,0.6981237077171915,0.3367038460840703,9.074497718418364,-0.03932985542329402,0.09839044035076552,0.12946157590166482,-0.3473289431331881,-0.03544441790993521,-0.0834789013287672,2011-09-26 15:05:41.663357378,8.170448546
48.98719116021406,8.486981912897848,171.98285640463243,0.11841801161127107,-0.01661821246937887,-1.7871526172766414,-1.4122440053058796,-4.4953503221274635,6.397227565244897,-0.20399434074174802,0.7008491311425182,7.609102445278956,1.8610618557881082,10.142813205528487,3.5129868034344116,4.887733927455209,9.941936041086478,0.014959652291206622,-0.15165379198480256,-0.17813886907714524,0.020348377852708554,-0.23128214909879294,-0.04233149564630331,2011-09-26 15:05:41.773308906,8.280400074
48.99847039927347,8.48364678703426,175.8424696442633,-0.06935882085143752,0.049479166607535555,-1.2782935045251658,-15.435477477453823,0.08965269546462995,11.302908421706565,0.20633645075657608,0.14043889645931923,5.991716423403788,-1.6485619222675592,8.627801843648665,0.47391673254634525,0.4923249123964477,9.232231881692678,-0.33135082779996183,0.029713930084367273,0.1809948798550304,0.08849484509187354,-0.05582068765179265,-0.17771183723567596,2011-09-26 15:05:41.873338168,8.380429336
49.000435614939626,8.481623315133136,157.86319753133435,0.010022088689278683,-0.03256952627039299,14.89399162525402,-3.0499136839253085,-5.947684806482045,12.227084526426852,-0.9698839033557993,0.45411666497401093,1.1699746605667527,2.160214200674568,9.152403313288177,-0.42270639386815884,1.4630487268886236,10.20372753682896,-0.05830017249088127,-0.00575783852740143,0.014468649257573931,-0.19474113820668384,0.02815515312441298,0.24485043146394178,2011-09-26 15:05:41.973336837,8.480428005
48.993619918815945,8.483118921777903,159.0250237947976,-0.10808528676899717,0.14726106443331788,-2.5545214438364288,6.4550009311961185,-3.7517040792833907,13.439186622237294,0.08078449121534699,0.26521454491791374,-0.6592974122730196,1.6802376853247805,8.549861633157866,4.28546893126131,0.3904455453086414,11.155103260523205,0.48691796277560606,0.0228762094732617,0.5242568525233332,0.1859222944958048,0.0497282209419293,-0.05107294893470049,2011-09-26 15:05:42.083507339,8.590598507
48.99709863482606,8.489345149173449,184.29828952962927,-0.1804903487680528,0.0381519351794231,-1.2973461490440643,-3.4273562771375317,-5.850418217117074,10.490946689685448,0.017641367552182347,0.3313406313909047,2.926490378684478,-0.1769024798657164,10.000479467841524,-0.19996904021254291,-0.10718203967868598,10.026176081111787,0.1584926802199647,0.0005212976246376337,0.4455867966663653,-0.11442165279352981,-0.06939978556205031,0.05903670292398341,2011-09-26 15:05:42.183376352,8.690467520
48.9981207485845,8.480649853583042,160.61570091498294,-0.18810974429851862,-0.4387126072658951,-2.3352324533204945,-12.158794858313609,-30.338400983255006,16.598433531165586,-0.08982874147300503,4.257984129677037,-1.635822545234015,0.7142526705199328,9.533060890598518,2.2494598370611643,0.2311971583288322,11.450208913496006,-0.016588877305278638,-0.18937570079191285,0.29866720614705083,0.03722924939173027,0.027216362997673806,0.16353918391994962,2011-09-26 15:05:42.283319310,8.790410478
48.996158838892626,8.495891416583426,152.155644639496,-0.04782391778577029,-0.2192550842649471,-1.6592848102800097,-6.2161353538656146,-2.8469185624726747,2.1914815923669497,0.015499869134817,0.8778974084593737,0.2178252338658645,-1.4566850136685427,12.396521453725232,6.0140424942112105,0.39748673530213197,11.798137580268468,-0.05398433203824896,-0.029731457149180636,-1.0773598481091577,0.05445834172630708,-0.07393090215850569,0.03890674816883159,2011-09-26 15:05:42.393357894,8.900449062
48.99713888639678,8.486375284427295,170.70373873291925,0.04448878717211667,-0.16283375107735737,-7.145281906720317,-11.736363564261822,-0.38851008387822183,2.244884097804677,-0.00708764810681442,-0.157100481270384,-2.3461037000738085,-1.0986323820871748,7.918638573411297,-0.5417247982826812,0.33224185388508154,7.714844321148622,0.16109425500974803,-0.03060688766629032,-0.2350402374437285,0.042192200088181614,0.6402475888810221,0.16728722715672686,2011-09-26 15:05:42.493326877,9.000418045
49.000010661321866,8.458683045465241,181.0565094420178,0.07489109137940461,-0.09043016835693854,-8.901931732534859,-17.28805319343392,-5.6776020847565025,12.083559751252835,0.034831760159148954,-0.15223849799470568,0.802659413360426,-0.4752055644179179,11.235295053770194,-11.974221438814684,0.1699592234968959,5.240951585163772,0.0009013902916151229,-0.13096480893035684,-0.2843194496055959,-0.04813949667694747,-0.08662801384436987,-0.11172477277090727,2011-09-26 15:05:42.593416537,9.100507705
48.99663948589916,8.484173924436323,167.57415496271895,0.1053206539900027,-0.22954674153639343,-1.6077294263888111,0.6616757940622575,1.5995947291119537,4.2303057989434825,-0.1253392350553951,0.21975585700707648,0.5064079346047288,1.7606071797862195,9.813153847919784,2.3435762890004574,-0.18762072002611416,11.155126209273542,-0.3686883453203155,-0.14846477799098548,-0.15672888634049645,0.042860757919492065,0.07013234472806806,0.10268643665484134,2011-09-26 15:05:42.703408950,9.210500118
49.001780643666926,8.481150507777102,177.8091468355025,-0.056759796148622706,-0.3932126179122608,-1.9250000786546544,-7.103184813254471,-5.63713420840045,17.545677752683734,-0.07063114970508531,0.03370305691909142,0.42292193069098355,0.22014998478713418,11.337637965068128,-0.5488406194503217,0.16321273215743679,10.858205402923483,-0.17633371699082262,0.0076855703457109174,0.351020096127614,-0.15411943765567,0.008966827716901831,-0.016784118270453462,2011-09-26 15:05:42.803352093,9.310443261
48.9995205302195,8.484558852825394,178.91484676197538,-0.14691809794190983,0.05134570962470273,-1.9596305779605416,-2.8746260669934673,-5.192226938696436,14.600506401415474,0.04654944950915689,-0.005571254371729117,-1.639323466699714,-0.10879090820334902,3.090828850929636,0.20047694052160264,3.4515405997541384,11.694489003578758,-0.013201356844480903,-0.07721826137918743,-0.013054603660040414,-0.1126765782258586,0.033360989586713574,-0.3235642462713869,2011-09-26 15:05:42.903340596,9.410431764
48.99966902625414,8.476140053651767,161.76028589122086,0.012326053900211457,-0.7589545698899879,-6.198425054380554,-5.130113765655873,25.907462919894133,15.00425261881433,0.42412906208965306,0.7334400876988921,1.9233225600792412,0.26624567026317403,10.374720987542972,-0.03552543260316404,0.7562549306427969,10.259462279897992,0.18864578295018067,0.016589700900826346,0.40198588533314406,-0.05471150143288432,-0.03674182133306217,-0.5622810942392029,2011-09-26 15:05:43.013365641,9.520456809
48.99796927499923,8.483450152143076,153.92298713806733,0.25402306998051544,-0.18817200791459515,-2.5224149187229625,-5.828031999121192,-10.752739449121187,9.85058674586487,-0.049076341707900435,0.6476180964902292,-1.1227446596485653,-0.48465883416130945,12.177958526920131,1.3956991346405707,-0.7624279290002097,8.688412155149225,-0.10662790812079605,0.03185147121161649,0.0050917197229051175,-0.08081118220750362,-0.03014343219223871,0.1721666175586208,2011-09-26 15:05:43.113540138,9.620631306
49.008402720107334,8.48710686824357,171.57019090227,0.06765034104383823,-0.1249489640782957,-2.828166528258026,-9.28553595766535,-6.940994121675624,9.398730008327437,0.22073516769961693,0.9306656303268167,-4.430480593938305,0.41008698728518406,7.011107082272877,0.7765050616436759,-3.017208181907163,9.866554847755756,-0.08121345168420586,0.007856791224552701,0.138820271583438,0.023069392887175844,0.042964950695317666,0.10063298407084607,2011-09-26 15:05:43.213460437,9.720551605
48.99857003575806,8.483618734843414,69.78850968473814,-0.050344310689332476,0.15460429794587902,11.150925442117464,18.355905748868988,0.1259224300665691,27.28088103274063,0.13168970869372662,0.4672521864952357,0.2543400641266618,0.14642405348009718,10.273769430237213,3.6469198217078413,-1.2904129208443904,9.296223445835908,-0.03495033402278642,-0.046968189876250246,-0.002579482463258503,0.06708640024154967,-0.06018484803337039,0.07311491360125391,2011-09-26 15:05:43.323396925,9.830488093
48.9981622118196,8.480489463446334,160.81689564801073,0.06603735699255348,0.04979928401377229,-1.7605560222484138,-9.886175268618938,3.1475390001000214,5.419511011247458,0.2853634702457041,0.3726876858327145,1.333954542443141,1.00293662147331,10.532907922681236,-1.164891721920371,0.22778228328319422,5.865463114151508,0.08576058840774858,0.05276105456349194,-0.23924753126558862,-0.5019320680750307,0.15012883458745843,0.34765651272424786,2011-09-26 15:05:43.423367151,9.930458319
49.000347950777915,8.485239805794448,161.18481343704363,-0.802277250598068,-1.2418869400812627,-5.075740289991193,-24.01580168791184,-3.8735924071328283,17.602891739512593,-0.01107081039563668,0.509633153178682,-1.4178042412830376,-0.5249641720230469,10.927971084680161,2.280078674104005,-0.01801213191796594,9.112129542956007,0.07838908623136254,-0.06707366140865556,0.7643287656566271,-0.01358895728880978,0.014431446817320191,0.4764379014580055,2011-09-26 15:05:43.533395113,10.040486281
48.996840173051645,8.483049617990899,179.71151246693537,0.0753025249100713,0.22308301304570272,-4.455330145546181,-8.855025947597,-8.932120397502745,31.907557209738872,0.09143237391995516,-3.6181727369269012,-1.5543626947960578,-3.6225037687297172,15.333360632136465,1.3542550469148682,0.7304423157619228,8.682181310186255,0.05977179678875204,-0.06623095112753162,0.3562986788983912,0.08299601136052695,-0.1782180428593833,1.7483953742376392,2011-09-26 15:05:43.633577138,10.140668306
48.994674745846815,8.463501447334291,167.14014965851635,-0.0014656057102795314,-0.010881990898623801,-1.8507092372395637,-10.806003986286019,-0.9774389022725654,-36.570751105654075,-0.09529028257303795,0.8629486630648764,-2.644662159636362,1.2119036757499173,8.791006352668878,-3.650954539412365,-1.2994490575577897,13.835622353131782,-0.036177991908333776,0.01383743400921433,-0.2089733966670807,0.03474657424469695,0.12023406881494315,0.2501463593251728,2011-09-26 15:05:43.733398693,10.240489861
48.9982480780283,8.485181770842324,162.5848169999838,-0.02326887802895696,0.025943075844501076,-1.6831008147114532,-8.345018506189184,-13.10386398339608,11.70340169832717,0.11724327924955642,1.9803320424432826,-2.5976226392587214,1.1892608828433766,0.6670462558865538,-3.477007367686851,-1.4331458086888593,13.015629244800305,0.09724366651207891,0.0818851326469955,-0.061478902529753965,-0.037350001968483065,0.050717039437257284,0.43913001102506827,2011-09-26 15:05:43.843429752,10.350520920
48.99707201054511,8.483399622589689,186.00427246199965,0.14442006888866477,-0.1788209198549253,-3.341410826357666,-7.768380151279332,-6.293470090940705,6.010968532014706,-0.1334620746186906,0.6466809331204236,-15.476475715110698,-0.21949130894909363,11.432369292748035,0.7885162495494636,0.9631691642177721,10.91464910893201,-0.030956838745943138,0.07998523797337674,-0.05264779101929877,-0.11569408715401323,0.15428252180519922,-0.36610369108542856,2011-09-26 15:05:43.943388143,10.450479311
48.99937962805767,8.483665349542317,165.17861846829572,-0.04411784653654213,0.519658312843836,-3.140207777592292,-21.15785189616288,-2.849364727805467,3.9386711686233484,0.13380636500663312,0.4419618266370557,2.2837660092008454,-0.339488243789815,-4.239108470245375,-0.30983832853557575,4.437744606120925,9.039104847678898,0.20420373643063383,-0.06093394113731744,0.0027458546796562174,0.04518021940226865,-0.09097629504696067,0.09532507331987426,2011-09-26 15:05:44.043406003,10.550497171
48.997695884981454,8.48152491461248,158.50544038605406,-0.0053984519354516106,0.07010182909582156,-2.7640238854109764,-2.7648700230570555,0.4738752414111662,8.054151069789256,-0.024216601896687683,-0.29225164599480646,-2.5102420855153755,-0.5790897101028459,9.407763885206172,-0.7177855158127513,0.03738195156744853,9.031858136622613,0.017535970916767566,-0.0012314613587504249,-0.012379245103343145,-0.042696088899378766,0.019343911946427535,-0.04713887546578544,2011-09-26 15:05:44.153471122,10.660562290
48.980650638401336,8.481570841659355,186.79503754117837,-0.48792048454835724,0.005774516529549814,-3.61810500762022,-10.203185249732833,-7.675208099035503,4.123714377490105,0.197315975416947,0.5094371462715479,-8.266421735787194,-2.7830701804916638,8.628142385276263,-0.46517669941638473,-0.5393737213863856,18.861678667458335,-0.006756952748089622,-0.02062414525449778,0.9157698957246801,0.06025419053701155,0.034241369188429,-1.4198946370905652,2011-09-26 15:05:44.253422873,10.760514041
49.00092355082828,8.481002855543434,141.1435154860635,-0.05632061446106749,0.015789536262483,-0.32529031018755683,-1.9137700548704943,-5.677912188568621,7.267704283399743,-0.03327715951500155,0.6318695488201118,-3.6057730991633044,1.4889667545264107,9.969187546097674,1.5060431064401836,0.007877286079692847,16.260517665806688,-0.17550616993148868,0.012250199256343823,-0.21893972216291432,-0.16273167376242872,0.006936357596061386,0.20059428716351943,2011-09-26 15:05:44.353451384,10.860542552
48.996943122812844,8.483523843119317,173.2219406304157,0.10095064101890172,0.34556608185315146,10.04627444388662,5.583738832974838,-5.0610636112764205,11.087068070905286,-0.2577470741152276,0.8709009925351522,-1.2969330763922255,1.2119080694602293,10.760279578518201,-0.4647263246911511,-1.5766965018561405,10.032875262386419,0.070335226068426,-0.11274224407085215,-0.20996751133576302,-0.22235337057634558,-0.07787424963816507,-0.12591915334886683,2011-09-26 15:05:44.463443711,10.970534879
48.99979077865144,8.48385208127693,158.80664435396102,0.3678386573813254,0.17804969490189762,-1.4913675883966764,-16.476792991170694,-2.0235122861450288,7.891673831060717,-0.04988164025363387,0.4778274846255062,-2.407266426052391,-3.222757114844982,9.783123060375443,1.4379625932420075,-0.8973523024518566,9.356333914580297,0.11958462545927843,0.06611398169043983,-0.33439909497794035,0.027363852668259435,0.022173539700522063,1.2059202276598,2011-09-26 15:05:44.563414924,11.070506092
49.000387698770695,8.484473499172914,243.40646315429157,-0.7090860879363203,0.14982121030540238,-15.615669416125847,-2.5700292281648736,-26.749496162801012,-2.8833551708082537,-0.04908361139452386,0.5296467393928918,-0.4271217856993687,0.4249490084902086,8.859239954883103,-0.9312202330210805,-1.877540880041572,10.656752422023708,0.006717992375528396,0.05291349369498724,-0.08397130934585398,0.17852972335289985,0.41668643209327416,2.1664541363639023,2011-09-26 15:05:44.673516265,11.180607433
48.99688317351333,8.481453406878602,193.50856604561287,0.19386781189218985,-0.2078415042836135,-2.9172416592938886,0.3316465249458398,-2.3435868109024716,-24.51001004660272,0.20501529388524728,1.008050506818222,-12.126053669525598,1.2713254395219118,11.179614811797054,0.7324129893932216,2.510308821508593,10.83283955162634,0.07775861323508287,-0.12511145639897847,-0.01601162456311164,0.10290249085937847,0.018209905123492444,0.13663355943931282,2011-09-26 15:05:44.773434348,11.280525516
48.99810361410429,8.481569205430127,184.30497486116053,0.1586472846340476,-0.1425216752025041,-0.7333874120909003,-10.767384164595237,16.91602908052027,-4.034845650938002,0.09174930820221806,0.012252765695054069,2.553075056225081,-1.2951916036723765,12.402193377368864,2.4133407112316907,1.1210218347269252,12.527080004164182,0.09394555068815384,0.061418503771887505,-0.386203866671025,0.008419156107135672,0.1137470595287183,0.09798122965357622,2011-09-26 15:05:44.873449691,11.380540859
49.00035831373967,8.48198001865886,173.51168681690692,0.2261355757537412,-0.13371754469005684,-4.603686140613152,18.84521190558406,-0.28020977144267745,8.160881807425664,0.15965900320330367,0.5935635722112964,4.0238572662363765,-3.2216286967397436,9.603453950076554,0.10809486663505172,-1.0331150183263245,9.988949678537415,0.0755874034769473,-0.0606771726256551,0.10149107939296248,0.03773455433760862,0.009957697258922753,-0.11281423998468962,2011-09-26 15:05:44.973486975,11.480578143
48.99671773959546,8.483513949807755,164.6544076557698,0.015175016059286145,-0.04088889809238866,-5.135668489079533,-1.793436362508083,-2.203223945564819,3.3376138348411604,-0.07626831559398978,0.5114539820623304,-2.5983643224565727,-0.006853458400904899,5.571554115765136,-2.0753186722074797,-1.2668611016843623,11.546301530548234,-0.18711805296474324,0.0034094095571971144,0.9884757477648687,0.08194502495300207,-0.014166041219314139,0.8741060234616572,2011-09-26 15:05:45.083549876,11.590641044
48.99416978829618,8.482370222783336,119.21105101694647,0.1910430301658066,-0.20610004529067344,-2.289128639513317,-6.385332968332516,-1.4693769086088366,3.491485640390442,0.32972149612743035,0.5490229301648818,-3.1904557913145104,0.1460791290651136,9.95549703799511,-6.972402344897925,-0.06696302751798977,11.16730266076604,0.0667024106791024,-0.006254714747504946,0.1762184255372095,0.11646228221420199,0.011828502843676588,-0.5156763084653724,2011-09-26 15:05:45.183487813,11.690578981
48.99853996494851,8.480020688224023,172.44401767154665,-0.17623697378818737,-0.10096845940860882,-3.770631063623053,-4.198501418395988,-15.000160779065421,2.8419581402561978,1.0637590111522726,1.4929433655107929,0.10826596260146915,1.0421700539589325,9.632449121729953,-0.0024999801415084497,0.3348547905021101,10.124078911748805,-0.18512783721379913,0.0009067398392565013,-0.02697167878570463,-0.09125036459610741,0.018193646919984305,0.14648386226692042,2011-09-26 15:05:45.293463758,11.800554926
48.99472691793656,8.484623513580878,166.81175375795922,0.10184431361701538,0.10111167119728234,-1.9083757320221229,-8.279964543613815,-1.1172506895528156,9.410596869318667,0.03977793683988274,0.20181356349874713,0.10598272340862741,1.6566868389239071,10.023772069349508,3.54001964064542,0.8557306239116835,14.724193595671757,-0.09516951645961834,0.061247420291960786,-0.12969569031731884,0.004872103206009526,0.06539038944039369,0.8328390733920157,2011-09-26 15:05:45.393482242,11.900573410
48.998869850510225,8.481959155794337,173.0678387168021,-0.4361239278051229,-0.09633661141657754,0.7127890340165486,-11.571538034027792,5.8516339819939756,-16.382809419536766,-0.2109924873028482,0.8417066574184522,-3.1736275539564893,0.11282320154885522,10.270792540043885,-2.458884929349946,0.8937242574540021,11.029177379591587,0.01815535237518921,0.14034336944988562,1.678606906357041,0.5649157188691598,-0.16428338217321742,0.1921146620359594,2011-09-26 15:05:45.493464822,12.000555990
48.99586289484735,8.484373087660172,172.04279016181238,-0.02653077329381466,-0.6483216629943431,-0.8184485158720842,0.13793024012013166,-6.3449933825008085,29.343436734310046,-0.11812152295382429,0.9997489389834607,-2.5085932195932394,1.8853086764247524,8.059843748136501,0.2580587652795127,-1.6398170143342197,2.99787911990091,-0.0742928844802197,0.08995872335161373,-0.13791568176127117,-0.05183911891917296,-0.010287667042199293,-2.457876445755484,2011-09-26 15:05:45.603677387,12.110768555
48.99898603236675,8.47528687687558,156.80980799795788,0.07857488681487002,-0.2576497816490505,0.5565654717294151,-42.01708651267333,-7.330856363440708,-7.34918117374659,-0.09750715010466358,1.5030897992588388,-0.942114526126276,1.3969597188965186,8.279809748759892,10.541192046900962,1.6607985230489253,8.975252360073382,-0.03340945855391414,0.01393368382327043,1.0979699575404793,0.08560855822533625,0.1365157216539197,0.3859241858682776,2011-09-26 15:05:45.703505138,12.210596306
48.998084571475374,8.480011542524002,128.43537754979104,-0.09353838498300937,0.019424065289641947,-6.789346127816196,-5.579946344949654,-9.934421714907138,10.64024596051437,0.010739338793405424,-0.012613771723783862,-0.8236359917256313,-0.9273663864250672,8.36905979004618,1.1371277179835948,-0.09247830593198669,9.832001347499489,-0.15250094611449422,0.02020196909218369,-0.027530350855359202,-0.6542563501972116,-0.01586089768808143,0.4120886434675248,2011-09-26 15:05:45.803488762,12.310579930
48.99514914212686,8.480410595824353,163.09435295012253,-0.2683253352426307,0.0450147217424575,-1.2598764939652325,-0.038707840388928716,6.920070540588051,-0.9781812700647752,-0.0665603514892676,0.28540400313690684,-1.3479697205952346,2.968633180395668,11.249550118029507,0.23381928251495604,1.1334520020357508,9.444682086092495,-0.41311567569552593,-0.7492886863804469,0.0942073834742744,0.06506719983158511,0.09943856510185808,0.1968214016919325,2011-09-26 15:05:45.913561071,12.420652239
48.9982511844671,8.481938965740818,162.17223422889896,-0.060639744750649247,0.18061172892378213,7.066499014060935,-4.6780242829881535,-4.844822473915315,-10.629176161513694,0.12126776634145493,0.5260347500497519,2.2984523584150502,-0.10389430009375628,8.849190888787653,0.7710133148419953,-0.6084894779369042,10.87087527773357,0.15057447867795032,0.13988559332006845,0.3343253228443956,-0.01483213823431069,0.10439857821928533,0.8465560577767847,2011-09-26 15:05:46.013501827,12.520592995
