lat,lon,alt,roll,pitch,yaw,vn,ve,vf,vl,vu,ax,ay,az,af,al,au,wx,wy,wz,wf,wl,wu,timestamp,rel_time
48.996148753393385,8.483547197310344,158.5866555493555,0.1787991893214746,0.8337597924818287,-1.4809835850441513,-12.493267381386827,-0.7053024165883492,-2.6599663947280554,-0.1441052723773127,-0.5480484455139727,1.4596849487696855,0.3976953632708903,8.235648167218727,1.384076598430504,-1.8825280334590695,-1.933083504703509,0.031980673707819464,-0.030888321702938405,-1.011267837066655,-0.011226003040799837,-0.3453664184658046,0.22477028930024526,2011-09-26 15:05:33.492908832,0.000000000
49.00728129013124,8.48397120812011,160.72804611555475,-0.02727103700597719,0.24347491732249937,-1.0787062042075963,-10.727631801613255,-3.4815981854362943,-7.0830723587405755,-0.13235609711379537,0.7447173038768897,2.580791461056551,1.277255424903135,9.837451312169126,-0.3364425440028476,-0.8885063001736085,10.438197766162428,-0.6675607328426783,0.03413670309500232,-0.21808006754484927,-0.03333805012020365,0.03077422174441254,-0.4472280528191168,2011-09-26 15:05:33.593043173,0.100134341
48.99597005020887,8.483678280150963,150.50293458863672,0.11644988447914514,0.3800226056937154,0.3426499617941632,-1.0990320487662206,4.160322497585429,-0.23667554137298014,0.16375838838126297,-0.4871087185415383,2.3740294415629766,-0.04971970137305004,9.117409724526023,2.9173509144631184,1.6025507191471864,10.990936556140198,0.12247865430003693,-0.04612612911027961,0.19081332661034026,-0.15489100760964836,-0.02838928400387061,-0.47485719768333573,2011-09-26 15:05:33.692969739,0.200060907
48.99845692864163,8.487468716035258,202.47606118047764,0.07739585868634506,0.17547454807859872,-0.5111501325481733,-8.747980388844102,3.3714002342056872,1.8233256820228196,0.15053976470507907,-4.65972534437005,-0.4267127387295411,0.3360228670278781,3.8443722842482995,9.408712060668154,0.3111650206831943,9.009186892855434,-0.03950621589388178,-0.025968056678731772,2.551765777101857,-0.18116651612295256,-0.09936955057751273,0.598138709480862,2011-09-26 15:05:33.802939073,0.310030241
48.99683513449661,8.483747731175736,161.35684237292566,-0.012570668102123983,0.2574421363555589,-2.274468186404218,4.62143156202712,-1.3678175863842355,-3.6846508350057885,0.3254569645270309,0.12417969243689583,19.320820439919004,-0.6649287688746448,10.867353173301797,0.9003039495808636,-0.6103695850030093,11.54681214097817,-0.1026249012827328,0.07155757642873056,0.3438347325807662,-0.08822208161172762,-0.033838767009569656,-1.2773864074078163,2011-09-26 15:05:33.902915688,0.410006856
49.00388877842261,8.48746782509493,146.84355106676708,0.06324466436531172,-0.5833388558034561,-2.4139574788606595,-0.6971309845799638,-8.544696617149219,8.767334452543784,-0.30101660021557197,0.32803077809477454,-0.8516094256568325,0.1913283591653147,10.390354021943965,0.9957725653802452,-2.3193428061312087,12.88279839553779,-0.004630798279980115,0.054278548942889686,0.03347009110059176,-0.15382196625789793,-0.163862835291548,0.19821300332440803,2011-09-26 15:05:34.002934301,0.510025469
48.9955473102361,8.48653958465008,166.0198738390052,-0.03731441662679877,0.029764209239245224,-1.3804553117256892,-1.3254206799053316,12.63091409940368,-3.6238203474334805,-0.10957394891392858,-0.4086547486226529,-1.233081762748082,1.9322219095947593,10.791593472994746,1.3638658620094322,2.343388218846171,15.840172430695961,0.06798663691877037,-0.004662628694016888,-0.14260825470341215,0.2780999361869898,-0.16956537871959793,-0.3067524385667483,2011-09-26 15:05:34.113043290,0.620134458
48.9957078017241,8.471560237978577,161.0879258786414,0.06872752625426483,-0.09006496707645897,1.1965448837657378,2.7596618527592773,4.4604644031576415,-2.2943504524611624,0.019224200662576206,-0.15285761965999756,-2.0998943250006414,-0.24661286689471407,14.633346203762198,1.5576649314006041,-0.9864019211472215,11.471010141419697,-0.014582379562414864,-0.5681103696058913,0.30271120271734286,-0.46314367412898527,0.28800274185638397,0.5658360222391657,2011-09-26 15:05:34.212997341,0.720088509
48.99855612945119,8.482727424315902,160.7469963341995,0.19602128073045355,0.004998504612804031,-0.11480334996931485,-9.96581751844326,0.7742742807947939,-9.584990672396847,-0.14915675068240214,0.21387201372717643,3.066085471494559,5.228794289711957,11.464738170032886,0.6273779073160696,2.2191777591537822,9.980920682765738,0.07694240726390568,0.03634401527658567,-0.10252380395417036,-0.1615474988030471,0.44997918135539583,-0.13171263812193407,2011-09-26 15:05:34.312967698,0.820058866
48.998492137302684,8.486234988803524,158.32505880561976,0.08310760915227149,0.056872754671743395,-1.9980520452463015,6.555073503484888,-5.279508989739377,-26.228393277539368,0.03192128574921928,-0.7939080498813443,2.9778549694570713,-1.0546552323403713,9.749319800487408,1.1478203913076062,-1.5958292897972648,9.50745254046089,0.7242547948303277,-0.0075480550350726,-0.1355156901883574,0.05991993812498145,-0.08439053982120162,0.10393665764998435,2011-09-26 15:05:34.422951111,0.930042279
48.99979304734119,8.484498168930504,184.20324425781834,0.10228520488611557,-0.04412351961493393,-2.7857258902833992,-4.199708699928441,-6.153444601378318,1.9685151420825813,0.07109872284692452,-0.3216478704149448,3.2705058555924342,-0.21334770305494366,10.459566295914822,0.7766441103028134,0.2762218298777742,8.757948257258974,-0.21246137403102688,-0.3682188295278779,0.42325191752406754,0.040885494653806795,0.040084157387332,0.029149129035116288,2011-09-26 15:05:34.522966443,1.030057611
48.999397296105045,8.48599924994752,162.18689052866495,-0.6332449155917614,0.27918857067884245,0.6623861610168715,-28.97970378286548,6.429131811062221,-5.379777447550156,0.050626432304832304,-0.1763359865503567,1.9962649325364952,1.083181429261581,9.525249968674963,1.8288449456318965,0.07370191809012498,10.936817263204446,-0.05027186801102307,0.7269904454121806,0.44081686528907016,0.4939376767787105,-0.04815765778378782,-0.043336059531397825,2011-09-26 15:05:34.623030902,1.130122070
48.99849276346906,8.482250763818481,152.6528752927154,-0.3086954765299078,0.08011596166457864,-2.6217961563072514,3.3152224848845653,7.42821972392322,4.293363697927554,-0.2009012241388038,-0.40364330828193573,5.109169746419132,0.8113466619259021,9.190449519428482,0.38444363137216486,0.985447023696767,10.121624586468215,-0.041650898505898336,-0.12008991635912307,-0.3746836328577426,0.05882291266819352,-0.0180379727571705,-0.1456972773127768,2011-09-26 15:05:34.732985295,1.240076463
48.997160789654934,8.482189331243427,165.9315359822132,0.11377977618141497,0.027573196217178273,-0.02842457994239922,-0.48840144451354284,-2.1914439487980633,-3.2366519080900176,-0.005907373053098672,0.31082465452300634,-1.602116834652346,-2.0570429798196734,9.041808832706973,-7.683019207202224,-2.462142442340404,18.146268661263754,0.11355623955452257,0.0776326204135681,-0.1105701943024109,-0.2428066391347314,0.1508520356258975,0.1792500062602968,2011-09-26 15:05:34.833014816,1.340105984
48.997248350473946,8.480410798878557,167.715876713748,0.10027247662647837,0.06822403439831227,-3.609625248496269,11.065258267559196,-0.9444854303422943,10.033228396125583,-0.004810595056117001,-0.483002318601871,5.701279161930224,-2.1037827087989838,11.3527588991156,3.4948329498422535,-6.120928203655462,11.970799230295997,0.09387853675359353,-0.1258553495365097,0.14127330054891934,0.04188955897548887,-0.08642537478164598,-0.5159120242639568,2011-09-26 15:05:34.932949832,1.440041000
49.00044164362168,8.484866236204509,160.88569921615985,0.06651738268056637,0.07157945977038299,-2.5138979705266697,-3.8807543424898663,-9.638432300506539,-5.646069653368929,0.020075400816080356,-0.915134117179024,-5.87280906100433,1.0074493310701484,9.634074933831554,-2.8630372675737052,-0.14598755602783864,8.76476725295068,-0.17174417318912633,0.03842165890730652,-0.2853431234379373,0.002001687174673845,0.25001934024241806,-0.05998804237859187,2011-09-26 15:05:35.043008550,1.550099718
49.00352910359147,8.482113626117144,91.60884330682931,0.15298250180529976,-0.048389694093908975,-3.50188798212956,-2.1223045406457617,2.579784379884003,4.793239856567684,-0.1312212639460144,0.613147998130745,2.456702745304686,-6.459891421737851,10.40002485757847,1.663043522488333,8.848669750353173,8.492712696408638,0.03425972307410919,0.19567070651731397,-0.45324490776563364,-0.011721438951780995,-0.0434323342586523,1.9926175693259944,2011-09-26 15:05:35.143105898,1.650197066
48.99654486310725,8.48365172658309,196.5648281839923,0.027137986084426843,0.10577369235897854,-2.22605926401632,1.0451326656196163,-6.686331937976729,11.691145877648369,-0.13755983586732629,-0.2324580437665105,2.9962508344950614,-5.732138441909098,10.341702176247328,1.6708771142752146,-0.5616418224732922,12.570160891844077,-0.04072273740656054,-0.07490329067309888,-0.5877139808348507,-0.05885799970748789,0.019998785687898018,0.13514703924361124,2011-09-26 15:05:35.242987583,1.750078751
49.00239361684149,8.482546765675991,138.62674162008994,0.11625619747547884,1.4869262931253882,-8.129142063338472,-0.3124413128389203,1.0952888976430857,0.1785346264569032,-0.04411934710429361,0.6749470942794701,5.555179220369833,1.609437439366504,9.627145995838521,-4.867991877283382,-0.4294235396720554,9.2410812186608,0.0620405546512448,-0.16780271977312072,0.2373984211819327,0.1017361669882586,0.11556681126456694,-0.3272929439767742,2011-09-26 15:05:35.353025668,1.860116836
48.99599558319537,8.475424833799543,160.13215812318018,0.12748136813824926,-0.12378397628918913,-1.0105094559753542,1.4436832565526116,3.3271784754577305,3.728986293525331,-0.12052175405917884,-0.5787993446550384,5.612745364378111,0.6612571845305216,10.543505221575254,1.3778952073841655,-1.9872495623613626,9.076722166119751,-0.009578241506100283,-0.014360509756456705,-0.34640019448588116,0.03687566666587089,0.06368498204652358,-0.16760237202898504,2011-09-26 15:05:35.452997636,1.960088804
48.996668809543024,8.476194428258692,171.19382198191943,0.019042839327876177,-0.30649858580889483,0.4093350594297893,6.006591229556748,-3.2084238739806885,6.5760309860006885,0.15917221793590022,0.7269768672583445,5.100795484769016,-0.7850689221337876,9.195488824605528,4.354442031674258,-0.5098821981110321,9.142891547549867,-0.10433570449226326,-0.10836647963727018,-0.04605670853017696,0.7821541460802799,-0.08340071223889431,-0.20575808157892858,2011-09-26 15:05:35.563017701,2.070108869
48.99677887109155,8.484763157171773,150.90852464544412,-0.02263891828761233,-0.1075422688229636,-1.7494671508010486,-9.776071158389932,1.4092547420846475,-4.592877964964482,-0.01498010431156747,0.775720617729357,0.8483023905085136,6.750175779952575,11.697233290327597,3.1439730795112,-6.003382673295081,11.06296121190912,0.10570363303606217,-0.05315960789786503,-1.0793845962533934,0.008160337737289174,-0.061182026504723375,-0.5091392238786054,2011-09-26 15:05:35.663037187,2.170128355
49.00108473236232,8.479799796566125,146.149082811165,0.03106975538414944,0.10425732623630019,-8.267512826123449,3.2792555914685773,-4.614398133192413,6.995812025063115,0.16083857453776562,2.6304742430435346,0.9805931808941646,0.6552256806549897,7.554950136919206,0.03842517207376561,2.370382825418802,9.946600551128338,-0.3823094328218627,0.05996903466227116,0.26360195273925524,0.09276240140660788,-0.00585044274773081,-0.15402550847802365,2011-09-26 15:05:35.763077782,2.270168950
48.98852131721905,8.487845036689112,154.72819514983524,0.09925555185142876,-0.13918119429952877,-2.4178565067489806,1.1909121173287827,-2.63776723242443,5.770977089426739,0.3633623102024353,-0.5367597754566616,-10.644261700031876,1.6303705886892028,10.821649277975029,2.6951476451325043,-0.03066479007138534,11.525692480823098,0.21254941927790424,0.12294054207421737,-0.2691203606005923,0.0027900088400025155,-0.015933513405112686,-0.6720008847101766,2011-09-26 15:05:35.873032070,2.380123238
49.00007312278853,8.480728177081915,156.39515435879665,0.1562801724507341,-0.19757935022402912,-4.369991816979745,-2.770733226875509,-5.172744079156247,3.4191950872670236,0.09041359908376545,1.0390595110803507,0.55652202617771,0.7403410251070017,8.400824832917186,-9.398894451108209,-1.381886772151029,11.507854510337992,0.02056667607967055,-0.0014756067432569533,-0.4311659194083727,0.18379163221592104,-0.45772923443383445,0.233803764114939,2011-09-26 15:05:35.973063010,2.480154178
48.99935636204486,8.477684571540024,163.95894891168734,0.1504842370445536,-0.1294225407882062,-0.2849018309246907,-5.7187800632616135,-6.387967297838986,-1.7569008545143285,0.00936658478226746,-0.20108046372973878,2.075806769144212,1.1540738923797607,9.017053269947166,2.1727025700295632,0.5889049137175951,10.855787098394629,-0.029557454089147984,-0.0836723645022822,0.18586348879037426,0.07414979103613743,-0.013655782336533319,-0.22103997153119812,2011-09-26 15:05:36.073116020,2.580207188
48.998516859654956,8.481827104220136,168.70822062653357,0.10780076498681346,0.14371250609223118,-3.581201793667942,-6.245191475130648,-4.5098253818252765,11.19629681003752,-0.02304327279895721,-0.5140966327737979,0.031662914509046125,-0.3577659027485651,10.90601152758468,3.1166931579794,5.004514178730684,8.933761871230152,0.11500781467194962,0.012678657050047365,-0.5874201797153104,0.11046136699170916,-0.050364763280585326,-1.3006409620890342,2011-09-26 15:05:36.183326118,2.690417286
48.99892164387935,8.483042317020834,173.72200419418888,0.48389883784646937,-0.06186475680855965,-1.5979805822442308,0.9428738926852569,-1.4478753156627788,10.571136615223162,0.3522940891212867,0.8314771855104948,1.5571330359413886,-0.7347357877035604,8.930910707180718,-7.621095597978079,-0.19431351670898261,11.586934452690324,-0.026338345016337472,-0.12027482116510599,-0.21019275330949597,-0.007229605373809161,-0.013485031903751159,0.04883980954081804,2011-09-26 15:05:36.283043985,2.790135153
48.99872935917923,8.482997363360926,151.95990914980646,0.18077102647618443,-0.6838464550408218,2.4523601615336093,-1.5103599108352812,-5.496166186208163,-2.1823981027387216,0.2202286069501408,0.8227422064193134,-2.612838382632423,-0.08724921248170425,18.29736800305571,2.3404507505310908,-0.32157904692607536,6.067785957647027,0.010408379851548438,-0.012060334341877268,-0.12632221141367928,0.033121920429854,-0.006053969665175338,0.17535079173982265,2011-09-26 15:05:36.383269088,2.890360256
48.99917081625732,8.482426482205874,163.5704436063096,0.0959685314601059,-0.18726931091295645,-4.622320668473774,-2.6336265053723285,4.332290189883571,6.661373661111876,0.08837028312098494,2.301561880101511,3.3203232204456734,1.585712162739507,10.42454640288549,4.658672836483168,-0.6406431679999576,8.711051335173355,0.13344190863638727,-0.002048857583185168,-0.07437331381159756,-0.21592887735460767,-0.18410309867089375,0.06161022773237192,2011-09-26 15:05:36.493076580,3.000167748
49.00231382186544,8.470885864469082,157.89695415273627,0.14131080866291146,-0.07202831139620111,-2.2480879141193344,-9.837694592700279,10.305607483792759,0.424360613821924,0.23841106783637683,0.45943949464653994,5.780648040424571,-0.19700651254904233,12.036698888909628,3.598917294549261,-0.8730188959151575,10.20376038384373,-0.03410952716879859,-0.205734469970682,0.057195847381856554,0.1126307919292572,-0.10215844124644603,-0.037286163219377846,2011-09-26 15:05:36.593293964,3.100385132
48.99888264428493,8.486960559670669,152.27955505611902,0.11074684638376235,0.15142326763942443,-10.215280421655129,1.8495025334758015,-1.6034652380218875,15.474586403935902,0.16442671380930826,0.5751288939728179,14.686102243574517,0.9147812339148249,9.672127881938197,0.47974784555202776,2.3111028836295326,10.898610117653906,-0.06956175951053634,-0.12461182027814426,-0.10597492248501661,-0.2863633942706218,-0.35538596696545055,-0.12871933840359895,2011-09-26 15:05:36.693164147,3.200255315
49.00101212184306,8.48613744790316,179.25382927466518,-0.023059322898802304,0.09658608599422622,-2.4598669442603316,-1.4076663126238214,3.178210515679736,-40.41202297282185,-0.06324979801407317,-2.8367614779334818,3.6265893134569245,1.192604510862978,11.391899866697788,1.2691657043589986,-2.0435639521414064,9.360003413862602,0.06501841334052483,-0.09173277511927494,-0.12364246082687047,-0.5377091160576848,0.030822314749688287,0.11733277728291305,2011-09-26 15:05:36.803136576,3.310227744
49.00421651474022,8.480603817402217,163.52188304521866,0.28468849590431416,-0.12578239102164435,1.8476294030092761,-3.4135742303497922,4.5385579156382025,3.4017774229181477,-0.016395070335989893,0.3578649774703607,-0.7555792695798802,10.702724674894485,9.890760969250664,2.657823744321905,-0.15594716449723597,11.433456917522966,0.1160937777649084,-0.19271502981614888,-0.15168729696831978,0.2567878913111479,-0.16176689843238062,0.7534088990493499,2011-09-26 15:05:36.903106912,3.410198080
49.00190794345931,8.47063543344109,219.1664519224974,0.11231993902269977,-0.28371275325954215,-0.829352963651403,-11.049642518427044,-10.695980736141399,2.9348389169052576,-0.25428620641301325,0.27255218700302936,4.412362153013928,1.7773228023514398,10.405174876637355,1.3336558797978992,-2.1963626192992973,11.791283124378893,0.0058747470974927635,-0.1092067375965734,-0.5955205560022002,-0.19825413995069643,-0.2647155888450914,-0.2661383582659264,2011-09-26 15:05:37.003097342,3.510188510
49.001683202477835,8.483795928591345,144.42191504355088,0.17586575303822582,-0.0720670177766023,-1.766466345884264,17.17108208782556,0.7006736438693721,7.106086112679407,-0.1281018592462244,0.9492354790151252,2.9952030803902296,-4.968354102295192,10.594251164048515,0.8488780065475777,-0.1109475985908186,11.445703945152378,-0.20263619122990056,-0.22352042587704066,-0.3149785844823302,0.05969226692663046,-0.08653993046060399,-0.2172580437611819,2011-09-26 15:05:37.113199395,3.620290563
49.00304630325911,8.484136771821557,158.54108648479618,0.3336020340168008,-0.2696857369561746,-1.9606524591234873,-11.890269395858017,-30.163840980217767,5.2479414474678325,-0.15169276710195656,2.074683017172978,1.8063529960035645,1.5421645461348825,10.135284759884225,-0.9988964065441326,7.380838696990961,9.78266263441137,-0.050822949611564465,0.013093268183833676,3.4408167220752266,-0.028121109556587868,-0.18869785255808577,0.06916907628946656,2011-09-26 15:05:37.213121453,3.720212621
48.99844035478716,8.484105913388397,159.82991579217065,0.03619491272687664,-0.09273388877425326,-13.904957132059891,-0.30890476419268253,-5.661936134790311,8.479167244283317,-0.02643075647218953,0.4377123385342484,5.064857779688815,0.3920448778953101,11.610272593023486,-0.8394435252823547,-3.034752151190141,11.002077225572236,-0.11653182588348392,0.04844059127191688,0.12308333399071036,-0.15796297632383724,0.02310146645405803,0.21061523602465443,2011-09-26 15:05:37.313141734,3.820232902
48.998990307237115,8.483408969985124,149.52130127710936,0.06978702087120664,0.2079134946828124,-0.5481567900602684,1.0460704999399866,-6.079066379063015,4.101934108442093,-0.28227069522739684,3.0706846354686825,0.36322882736123474,1.5870811546140018,11.239917682509075,5.949911119000575,0.3315984770093481,4.110350619171295,-0.004692769393190091,-0.005016983978169076,-0.22885904632771042,0.030038858812926048,0.15531590035758125,-0.007080900281445708,2011-09-26 15:05:37.423123410,3.930214578
48.99717077689612,8.484981278939307,169.61060283615114,0.07218175155777373,-0.1509813893177422,-3.055517488498885,-3.989227672941995,-4.972113012327078,-5.59310880388186,0.12762342217532427,0.5960442356680853,1.9609672166120276,-4.733727759564994,10.528402112919862,-1.1603000329826996,-0.994152767969424,16.188885600729563,0.020817248696407123,0.16055696264488928,-0.8920070818014417,-0.03990188454787941,-0.06294049957894496,-0.6297308923573498,2011-09-26 15:05:37.523142245,4.030233413
49.00179517458451,8.486420363986149,181.5467997568881,0.1920051082827552,-0.14574617696734662,-2.4133315552389476,-1.8179262213983676,-1.4698800034725796,10.752673328388711,-0.15479008727217897,0.2380475114616456,3.904337243962295,-0.2551082962995242,9.981159242211547,2.669734885283696,-0.03568799763473629,13.563429814053734,0.0720642242922432,0.07554231034299448,0.36281782633285914,-0.10045905159186386,0.028836818337990903,-0.05889707438214235,2011-09-26 15:05:37.623336781,4.130427949
48.99606152434365,8.477543969990336,148.22305908962744,0.5752926288177562,-0.30255426490177334,-15.790392701424008,-19.60468588875491,-33.14204174593214,4.939896732505192,-0.06468674034192773,2.9471239331620396,0.32524612577505074,2.1172016720951077,8.458528639881436,1.4870938452315356,-0.8924386021994033,11.146392553790214,-0.04093720263596634,0.01489883869037346,0.1435884515404216,-0.018311857827788342,-0.46116037246598335,0.19097430936352822,2011-09-26 15:05:37.733121885,4.240213053
48.99789731254772,8.484254265971806,162.2602168149287,-0.3349528487261403,-2.9333969780920697,-1.1721675209781885,2.478528706259996,-7.923554552894744,1.9191446432723236,0.29891445335151295,-0.6245155873636371,0.5103801671465147,-1.4681197173342935,8.403552289928983,2.477714111538303,-0.4617663262251228,9.048047512111838,0.6609140170896604,0.10649903439875956,-0.011955333642414204,-0.07048724165366066,0.059559431448398134,-0.24299856079514523,2011-09-26 15:05:37.833090850,4.340182018
49.00061888968979,8.484371456948315,163.2109447447225,-0.09110757418305479,0.6957973466036175,3.5106143771751546,0.3941766285173758,-1.087090158093611,6.062658594654323,-0.126476568730569,-0.1886402027985068,1.69813240249415,-2.012200911580713,5.96090811611799,3.26735048872302,0.30867247844438694,10.131108134407544,-0.17574979952256692,0.11576926883057555,0.6109260756119375,-0.05955970968089415,0.20274873944284377,-0.29185988520738443,2011-09-26 15:05:37.943146652,4.450237820
48.99825700026297,8.48031360051031,159.26309647368504,0.04774766527843353,-0.14465424256944004,-3.7725247237496875,-9.547728950310162,-3.2544842320892906,7.3474982504191395,-0.036160462173617965,0.8793448572993727,4.162532593458532,-0.1484122325390457,12.39416469362175,-9.412106984276118,-0.4944844421173157,9.042806570784588,-0.057906486387547695,0.12870980509199226,-0.5882465724566851,0.020465794684184524,-0.33989329715854744,0.4877099020643489,2011-09-26 15:05:38.043151030,4.550242198
48.99945281175408,8.483306552002981,151.33545834075477,-0.010484978857317584,-0.266657864007502,-2.9399933105981484,-9.496728881254075,25.463719313022203,16.243315886760296,0.4686858890940257,1.687733334157008,2.637769509234661,0.14589018774720164,9.962526880811168,1.149145240790787,0.04905616078087871,10.129524778536082,-0.02354636162373636,-0.0305664196420031,-0.45787424017804457,0.5055206564889945,-0.008251665245314725,0.23321076647724903,2011-09-26 15:05:38.143263229,4.650354397
48.99953198408002,8.48424463907793,164.5420148870888,0.06438535462969926,-0.05410745842609766,0.5392910000565299,1.8060107548244426,1.912225474734782,9.014627633851529,0.10020097472477203,0.7660653113257115,-3.8163893033686587,1.0648654307912193,9.860159073095993,-0.6525130375121935,8.65781255574413,8.74491739074212,-0.0602231025128345,-0.0846674470610401,-0.035371510394391056,0.31376003005635106,-0.041809049433244,0.37254015136271823,2011-09-26 15:05:38.253140145,4.760231313
49.000339080311576,8.4824957770281,131.39449137045747,-0.016880571703599218,-0.29186838248190533,-5.329440477365308,-9.195150767826334,-11.337387172616108,2.939751930786122,0.17455271902185976,0.24994716222003677,10.645557471286876,0.5850852618822422,8.749256073855724,1.5831890362451895,1.163440852083122,7.459282291753566,0.06825869842437107,0.01043851587099999,-0.16968285850086393,-0.17654479518810018,0.038315099667126984,-0.03828272699961278,2011-09-26 15:05:38.353146183,4.860237351
49.00202216696718,8.483322153720659,157.8953885398297,-0.09853800919681699,-0.5917068113681729,-2.065786906638667,-8.075371243341468,-4.0125399733567315,-1.4281499569931766,-0.9944851936657334,-0.16654107420161102,-2.5741935226157633,6.426413053018303,7.639199805515033,3.3824737546647508,0.2775856237303035,10.952750214213099,-0.036019387547088395,-0.19565044657073719,0.13552408328255441,-0.02772715438030806,0.026777126044220206,0.12979672800514205,2011-09-26 15:05:38.453116457,4.960207625
48.99892743792314,8.48212981356676,160.47879232142716,0.05467113978894404,-0.16651936459760974,-2.9365536695491077,-32.005071083326534,0.05692389653752139,0.8296406583949834,-0.23979763241945745,0.49382847400309415,0.4239750458850342,-1.137260117897017,4.732946025178628,1.703703878484489,-0.831551910416833,9.070989793548376,0.11550079592045945,0.08589002946385485,-0.1374509873622165,-0.5296561119384028,0.029245929291694027,0.047504134021729295,2011-09-26 15:05:38.563155760,5.070246928
49.00279111153881,8.485222337033319,171.8157347065195,0.09541118028148501,-0.22336494374289267,-31.86761751766461,-8.803422532927604,-23.3863948970713,-31.52025341644655,-0.10102916434346626,1.054456993545738,4.234928567771737,-1.703507849149053,4.933289224327136,-8.969812575165992,0.01647696608100705,9.514712293135847,-0.1705306153770959,-0.03734435927251814,-0.11634087539126592,-0.14398837220808214,0.03584849348112097,0.14655358583523315,2011-09-26 15:05:38.663212821,5.170303989
48.997931268496224,8.481744590064443,160.65632255479406,0.18152430541734987,-0.16486076635290045,-1.6601255143353861,-14.21507986212031,-9.648919545351665,-2.8862798970589854,0.09785825274054662,0.20089298908651088,-15.520080896945558,2.3086143913650674,9.752115831775752,3.2510009041779693,-1.2292387799845654,19.96346074675499,-0.09283002742745852,-0.09516694482752006,-0.06421112680342522,0.04029238914636324,0.041659024187605656,1.0020953808592405,2011-09-26 15:05:38.763199985,5.270291153
48.997761835574906,8.484040053515544,154.25793410920596,0.050223596355323065,-0.6858044862317803,-3.113189111894049,-1.179616273834049,33.514069392453315,-1.7975036719931943,0.4270418440984389,0.7823931657322049,3.743923727579885,5.304765780960657,17.375207891113114,3.4890022717562554,-8.212039559314121,10.0629620886947,0.009892078164854951,0.3719274140165077,-0.4393853126023025,0.1903890670077308,-0.03584798549691611,0.6947523702068982,2011-09-26 15:05:38.873203724,5.380294892
48.99879823655168,8.48261614190432,160.75059670901078,-0.012713400754890726,0.03978407236965403,-1.0841973801029778,-9.361101096362251,27.81721710139978,5.75398543778457,-0.6506855181656231,0.4716642729953665,5.010978979897834,1.6287545500214284,8.595374043413377,0.39320998435562027,4.4993688478542895,4.483899380482388,0.004106844434806817,-0.002770331578357722,-0.21072839632390733,0.1272480387548816,-0.02882045601600352,0.43668297204718864,2011-09-26 15:05:38.973185734,5.480276902
48.99955291266182,8.48565631954736,166.97567402564144,0.11980024247848511,1.7819987276189546,-2.189825077259443,-4.570033748423541,-7.957323513621553,3.5345793084081856,0.06529596592955514,1.4991581952135342,4.810958158967026,-0.012488970532182009,11.83948095669032,-3.185449986183453,0.4942459467306069,9.464439743708446,0.012683409383170901,0.12782370171626614,0.19833553421244865,-0.051129722263820815,-0.06279837316500088,0.42817192797891074,2011-09-26 15:05:39.073238574,5.580329742
48.99530076523771,8.484493571680792,165.09880008646908,-0.15200149252117498,-0.36451876001648253,-1.8715873373092045,-11.241397138071406,-4.962038179424649,8.930959045022506,0.0599096324984113,1.5296307069098818,-0.4701424814879023,0.4390605942747775,9.62436551026944,0.0333996029827901,3.2649082640109195,10.960054153322073,-0.12877023493495685,0.3858297393363472,0.8504510298969371,0.009487543689282146,0.049162044208228145,0.4445778910538756,2011-09-26 15:05:39.183459644,5.690550812
48.99845858695131,8.482306496915804,146.26969870813585,0.10386509245156719,-0.16863401196307518,-3.1935234574041846,-4.4177175079936495,-4.299018626401283,47.67903294764822,0.20567180379431704,1.8253022679002178,-0.36637120641794807,-0.9631160626423505,10.654571625591377,-10.994244773528864,0.11294849311558286,8.521680607078114,-0.12956506253983036,0.14642583325076364,-0.5121645616115478,0.380749042642127,0.04380451242851392,0.005741472816594446,2011-09-26 15:05:39.283235407,5.790326575
49.001410877814315,8.477679805340953,168.2463495698763,-0.3016004318538304,-0.09895800091644025,-2.3703575415966474,2.072066384776364,-6.308783884631145,2.2491911477952877,0.20097010705329285,3.5043518710238386,-1.8749490822543744,1.1522191667081225,6.597302059271922,-2.0874767845768143,1.7596700334414237,19.037598479069025,-0.04888147421032789,0.17805031804939275,-0.31983259486676646,-0.031076153150227208,0.06908092461448256,-0.04776169370691367,2011-09-26 15:05:39.383349393,5.890440561
48.99766093557807,8.484549382309641,173.9991073325223,-0.059519973405824524,-0.012283094337202732,-6.87190307539216,-7.353911253154406,-6.699335426516981,-2.8302206260981206,0.12135591366542875,1.1969564111768285,-0.11246659650937763,0.25929671240264734,9.476471726741183,-0.7649725600785452,0.3218616623315452,9.943109928314016,0.045950322484930306,0.002546148419212314,0.16432343453568493,0.01490713790358883,-0.0014096057372924358,0.33473671793495513,2011-09-26 15:05:39.493204809,6.000295977
48.99335985457256,8.486092432327585,137.04360167455602,0.12805490797415672,0.14113170884172652,2.942475508273782,-1.3378863594905481,4.435188383722701,53.18050747569745,-0.005237512991738667,-1.6111090532249617,-2.0186058168303416,-1.6574202838714527,9.176382929574926,-1.9150020042080804,0.36686906114593687,7.512402751977213,-0.06576334205460814,0.0032594517001373613,-0.14399790318608846,-0.021549259937919965,-0.07210933971364426,0.009808067160832903,2011-09-26 15:05:39.593415419,6.100506587
48.983185692019504,8.481275671120404,166.8604053504185,0.07357976753580482,-0.07801112931227824,-1.1358493309474742,-0.7048219559040882,8.841520006598977,11.700420111737781,-0.487488224299986,0.5138051719417164,-3.4420040724524563,-0.06892596013089923,9.082823612842862,14.607209971576205,-0.44148631282232004,8.343650141831986,-0.20301255684362152,-0.03448162365691501,-0.1793783164554429,-0.005132108477522823,-0.058260242131387564,0.014800334541215779,2011-09-26 15:05:39.693224127,6.200315295
48.99949811345861,8.483962837602045,145.17564475942305,0.11615148918135869,0.02264416732753305,-4.3373324932943,36.36578056683362,-7.738127926964955,14.30269844035868,0.015076897941707634,0.9349025562789715,-0.11749666983363372,1.6130002615429224,15.158567742378317,0.8210486115360234,0.7777211608993838,11.342157159423268,0.07087123570310556,-1.0398430020422844,-0.17428497104584856,0.06883985153257258,-0.03674582937255486,-0.10432974558236924,2011-09-26 15:05:39.803249329,6.310340497
48.99991783527257,8.476616915322927,161.75328390367923,0.07754610276130228,0.7348566615335174,0.7693026083181564,-4.302190247649616,-47.80248079696311,-72.1371761860478,0.04639621305265662,-0.023060932001302437,-6.326067880257593,2.564799512577955,9.978587542438833,-1.0187183720586135,0.4482590798571894,9.591495787353637,0.03775396884847763,0.0008068930584301942,-0.09872882866447961,0.03167251044563223,0.13564332463857337,0.6064063518370283,2011-09-26 15:05:39.903202448,6.410293616
48.999128630080236,8.484583389070384,160.26779907912456,0.16874922212446042,-0.0570410927676078,-8.916974978777807,11.044795042939835,-5.445509346910518,14.00420551030806,-0.019192637500488784,-0.2168306388436182,2.3616651042885404,0.7037666413258357,0.0131097624608838,-0.9263561838976001,0.20860292089070287,10.912061001366938,-0.06314516121012409,-0.04300284572569968,-0.5993627152911898,0.015496888759099554,0.21005944820908373,-0.18414052796694916,2011-09-26 15:05:40.013223127,6.520314295
48.99831700149425,8.485572093325551,156.54916135174994,0.07078544228602483,-0.0852254552522912,-2.623509992986412,-6.58515801039824,-13.61958762294348,-18.646721551062132,-0.05697895763328867,0.6921806058828366,2.87240277543272,0.3280880919141463,8.828361446809094,2.490364338555699,-0.6259757005988911,9.381460215977647,0.00980001833617198,0.04941823242790988,-0.2581306771773127,0.34004572755292384,-0.03820950936965459,-2.1095117662617597,2011-09-26 15:05:40.113341561,6.620432729
48.999837842161284,8.484003840328741,146.103544894933,0.11071490325492356,-0.1137629039668062,-2.466101934275919,-5.5897487598473266,-9.295608430340321,1.9787656538680825,-0.03885403739026016,0.6291715855426139,-3.0327173358434916,0.8822016479848249,14.721825341280354,1.1241368339755968,0.8308262289609338,9.722163202428133,-0.5533568155629991,-0.08215274899539637,-0.13967318460547806,0.20105483805256116,0.014371325532757967,-0.0772115535956834,2011-09-26 15:05:40.213214103,6.720305271
49.00029802776403,8.486733173298044,155.8577717298015,0.11147297806099057,0.1963052334146908,-10.765720110537382,-5.858061624128742,-2.4016382494612647,6.264135838518228,-0.39487734479006337,-0.04418645742371541,-4.342509100162325,0.41634411399361343,8.692632745808039,-0.3735785871744457,-9.401408682406444,10.45109176408015,0.05404770945914912,0.014532625650755405,-0.33372950215928565,0.12045159255787535,0.030923352938670722,0.050448090564946105,2011-09-26 15:05:40.323235497,6.830326665
49.00001383695586,8.484739107186511,245.36991466502005,0.07465082950754956,-0.29886566954426147,-1.504570336710847,-11.81440668284634,-5.79125261096938,11.137851260164581,-0.8685441225022521,0.32011481520631035,3.9741132294348605,-0.47085913205921603,8.17781492690347,6.320803306662472,1.6368209285112416,11.01326777515458,0.009591373658388747,0.022226831274891286,-0.43694755792543294,-0.20757672314807663,0.12712994346097714,0.3616384399667857,2011-09-26 15:05:40.423205807,6.930296975
48.99774884677078,8.480292244941005,180.29878950080285,0.6646168912029188,-0.18026423804131086,-1.5188242531548357,-0.1636456628188423,-5.462030204277836,6.45273271131638,0.10275107322645963,-0.18924953184470217,0.954367653849614,0.42461620889730395,8.941005552642233,-0.08984748386901145,-1.091602560197173,8.499268744504713,-0.11016401247990718,0.1486415071693566,-0.030488168165048412,-0.11518146126209261,0.06961258023193205,-0.039029702660836246,2011-09-26 15:05:40.523236247,7.030327415
48.998449922086884,8.485140549774671,174.4170421422608,0.03543598769403377,0.057150794643754776,-2.281886032432775,-11.570711061514775,-4.315424498309049,19.124164227654973,0.30791119159362546,1.4716886776780083,-1.1825445184248118,1.5639639604947324,8.8289392653826,0.13259825695710795,-0.9784086275443944,9.907601504801018,-0.03208126394453561,0.130628504223496,-0.07964487157677232,-0.5561484688322543,-0.006907905487004706,0.10148953377094994,2011-09-26 15:05:40.633332381,7.140423549
48.999182685699424,8.485297124694013,172.15581817079996,0.07741911967701884,0.05256645085170691,-1.9616777745092793,-4.565887806709694,-3.004923766636975,12.345876209539757,-0.06420898025258925,0.1876631893418465,-13.40687138286317,0.9071351430185239,7.552758585675109,4.3266810976272145,0.15114781958670942,9.000542937512432,-0.03208947598261372,-0.0037721142741453557,-0.26182271478214086,0.2471565574300974,-0.038340906068700754,-0.25207902762060586,2011-09-26 15:05:40.733278732,7.240369900
49.001281847162,8.48272807752566,175.10164528394418,-0.15992448590613734,0.5375278194859011,-0.9419225180962001,-6.790713530839773,-22.721591226678214,45.75722106201224,0.2785573868787975,-4.2864647366662085,-0.7046924736827087,1.34223989524926,14.428228537488954,5.652884509375321,-0.639977143327978,5.825426089823678,-0.05785849568327395,0.3401694202757775,-0.25124414153643976,0.05319006138908628,-0.07047548856518163,0.7047938262291035,2011-09-26 15:05:40.833276744,7.340367912
49.00119381304757,8.483476587254973,171.05919744814372,0.13360470599018429,0.211009999629427,-0.10298347184988943,-11.004474458362242,-8.554469475598546,3.961824960775768,0.07770248059162986,2.6745307413930273,3.7851123637578703,-0.39148107027029266,10.431314298788365,-0.5137132853535171,-0.7266254693099519,10.448807634562057,-0.050945817469728656,0.01912510337399398,-0.350827225687231,0.14362653099687311,0.010262916387373727,-0.11393274667752447,2011-09-26 15:05:40.943266685,7.450357853
48.9994385870908,8.483657456822515,155.14513227115577,0.013198236999291794,-0.15205208013574242,-4.388607851574239,-8.052827683900286,-2.0229842864182195,9.29326809956983,0.7558179455625459,1.1447332737067961,-2.0991271801220304,1.8486295132220223,9.879740828562719,1.434614923747924,1.377062234097514,10.61710819324102,-0.0958609276325538,-0.5939262848919824,-0.41301280692309167,0.03867218784487514,-0.03555533019769578,-0.009791255447348518,2011-09-26 15:05:41.043347559,7.550438727
49.00693144343248,8.484836393460295,177.09733567794754,0.10680238769089949,-0.017270577605395104,-1.6327316691059561,-2.655613845294732,-7.119511064604959,28.03701661027718,0.18889172010690433,-0.21789811061242137,-22.438304813911873,13.48172906099929,9.547537823035304,-2.2022107239286988,0.43742457294808323,7.625421495633773,0.11479271464957427,-0.021938882616654144,0.22832194500206013,0.07075054091112425,-0.5830250724506914,-0.14568240863093793,2011-09-26 15:05:41.143501508,7.650592676
48.99379477198334,8.483953038036306,156.73976435320526,-0.021661109189323763,-0.159327040628087,-1.4419928766837595,-8.991032591516726,-9.08254691129231,4.957811468949686,-0.08365789171682583,-0.23635222524035338,-0.8993196311657474,-4.246347078369157,14.310892823773495,1.8261160293498009,0.4263854178692808,14.865939627861708,-0.03594589039299702,0.031411341211804736,-0.04346437289628635,-0.03892838492795191,-0.08357043488517835,0.011615357672728858,2011-09-26 15:05:41.253303282,7.760394450
49.002183902237036,8.48687029040188,177.13567922482548,-0.017322683809537408,0.14395902302574215,-18.088028466226646,-4.08216486069366,-21.666019340382373,1.1578237593213574,-1.173068053928648,0.6638424757551966,3.251737498920669,-8.722152552828756,10.163424862415283,0.3796757147366683,-0.5091802160860842,10.65561356771105,0.108961293676367,0.05118162733072798,0.35997201043682703,-0.0001903287816574571,0.004838367168903538,-0.008124474223321333,2011-09-26 15:05:41.353334696,7.860425864
48.99956633543096,8.483313376726302,167.6180116399375,0.026184276604432465,0.7917922632193983,-1.9833903264359698,-9.925075509766588,-8.737851165333154,-1.764901640183684,0.9218915700520425,0.5226658502125162,1.488136431270774,0.01897666435055867,10.867363517952985,0.5893284635897034,1.837750135301326,9.752139313449721,-0.048817534933585705,0.05571471395074515,-0.05123602212460794,-0.13817807291855455,-0.08793948271938205,0.045071598401561094,2011-09-26 15:05:41.453307280,7.960398448
48.996830257666446,8.482936475422648,179.03279800450343,0.4884852813405834,0.12085021027134385,-14.868127370458144,-0.6159935908714971,-11.96614648857556,5.3483448176659705,0.19576176345161045,0.5352316868255446,-1.127692955170216,-0.6711385060994104,10.868304853522837,11.410720323480016,-1.0529302062718495,10.843188806813282,-0.1695874801082408,-0.04580653173732764,-2.3763296451251756,-0.0027330437585783088,-0.08639558230702465,-0.1841010452089232,2011-09-26 15:05:41.563309537,8.070400705
49.00007532446537,8.472966339046955,174.61110693840857,-0.006633595701268431,-0.49428370395434895,-4.104931223455049,1.3161510046943024,-10.2148131566029,-5.594546591767234,-0.3968506733804622,0.6147334093162891,2.182978219182496,-1.0403922585444885,12.282971614760081,3.563146084870574,0.1398936049265428,3.7838168377465475,-0.025798952528534935,-0.043804192944752435,-0.5033602576999894,-0.1393358420033711,0.17321937638861995,0.3566210210306167,2011-09-26 15:05:41.663357378,8.170448546
48.99772587552894,8.486744220483876,162.2618045765421,0.02863005822719948,0.001544058332231514,0.33802549384085046,-11.210935638460956,-5.241447133010075,10.045185024649584,-0.7259915084824968,-0.09557045636295142,-1.6181119888818911,2.5812243851007364,7.518814219482148,4.401568036952933,1.0090169376300437,11.51955133702236,-0.055372646455264546,0.16060883650199914,0.1200904294523387,0.02675729859638573,-0.027191430454856495,-0.18974966041907346,2011-09-26 15:05:41.773308906,8.280400074
48.99781675464774,8.484297691105901,145.95747490199656,-0.08283443271876423,0.1276239523234656,-14.980245316816713,-12.50746817482959,-14.422280701987798,16.44482852877564,0.30860801603819693,0.2628621967988988,-0.8485538957647328,-1.5300651157951255,8.289432040241707,0.11049715569942328,-0.7856133718575685,10.3247656028551,0.07283225523864133,-0.07359053990659328,0.19958260243804457,-0.17209801999091864,0.020948621097909577,-0.35945485791958476,2011-09-26 15:05:41.873338168,8.380429336
48.99275421837685,8.4828787969301,173.5183485818112,0.17944390948144595,0.04735061104209238,-0.5406653419494645,-11.666232115330239,-10.412493705173219,12.318411809183399,0.13964377951929952,0.7102846194599425,-30.986768104859593,1.753109335167975,9.416128081673548,-1.7998209266385587,0.06405812758423624,8.255320674943096,0.164686338749534,0.005781762132330862,-1.111119280646082,0.14278069364054466,0.07363605125469755,-1.0123456776253257,2011-09-26 15:05:41.973336837,8.480428005
48.998813501245166,8.48707396416335,169.663371542144,0.13131151538410613,0.010305375347076859,1.107184888770571,-8.220895430426687,3.2731378747733615,9.025425829185385,-0.02998220792055686,-1.9590404671221107,1.5456617889131865,2.700394440950721,10.15159900182889,-3.5005373166206812,1.245498643879935,9.969932689369635,-0.015587521525598492,0.013669513292603904,0.6039297537377968,-0.04405602551820934,-0.015536674827860603,1.4970843010399995,2011-09-26 15:05:42.083507339,8.590598507
48.97133731354592,8.485890241256426,164.3936752196676,0.07249933671542456,0.14625791805526894,-5.132481738594144,-7.689628854050521,-9.449703432186812,-2.366917251456571,-0.032361163798131184,1.1246691324570894,0.41287313928626657,2.439219400719438,10.80620743792735,-2.1385466879950465,0.264343476567157,8.698833203706867,0.0661678976585561,0.017438763642278848,1.35215003767237,-0.05180287807542953,-0.010872811913746056,1.1339378033145886,2011-09-26 15:05:42.183376352,8.690467520
48.982612751183666,8.482303456659757,166.2634896987216,-0.028637697379304848,-0.21721155449336535,-2.172323744243692,-8.431949181757703,-4.894649685486744,13.008354985342688,0.005111615969057031,0.6685043978015246,2.4783506292746766,0.8240344913105799,11.014791677819172,1.0495244550336227,-0.13978839097047013,8.96111394302848,-0.14322590107196498,-0.04569299889897408,0.6093813637978115,-0.10793760385278876,0.029674609054525205,-2.360076229483351,2011-09-26 15:05:42.283319310,8.790410478
48.998875917115065,8.487665089868464,168.24040431135765,-0.15731201561358607,0.024213392348535492,0.1202860667654515,-8.41743377182119,-6.249674126322355,4.129867295026015,0.11465046431640433,0.2518425963463389,-0.12025630987260516,3.0211119219437177,9.737667418202157,-12.802312613731074,1.0613654494186728,11.120298109515844,-0.08831222046630224,0.7620730864642574,0.061311776029985623,0.09849583755219408,0.0211339935180882,-0.18785361658575397,2011-09-26 15:05:42.393357894,8.900449062
48.99785268256226,8.480244541756607,153.20877988783593,-0.052610047012060665,0.09044704004006182,-1.5472404626366347,-4.404286292838673,-6.742649489718628,16.433235644304354,0.028515160377746637,1.9246236287106164,-2.457824674722553,-10.16110985102725,7.948493725856304,2.2175419142810457,-0.6956207496312934,7.243364454442472,-0.007160108615340936,0.12544652485912258,0.18189368335101838,-0.020016741114324152,0.007079710708679464,0.24604280340599646,2011-09-26 15:05:42.493326877,9.000418045
48.99741093959872,8.483724052801154,161.01851492132087,-0.11814508869973898,-0.26588254927486676,-1.2326591223915342,-10.260167376194875,-3.582293031119431,9.888837454224072,0.05724868459412623,0.8467077816506481,0.6283734428500758,1.630948198458816,10.978236930946817,0.9296850250484359,0.060785469075404,10.18758994548963,-0.8076755797798582,-0.023755701528762045,-0.2223117335613277,0.15091024910070736,0.01725374256184994,0.13834228628752485,2011-09-26 15:05:42.593416537,9.100507705
48.99671730664008,8.487425927376774,155.93991385941973,0.006018255004797322,-0.18144011486666195,-3.150365357935085,-7.8114622958040965,-14.820265950807297,5.448275935341652,-0.3461608946216644,0.12345093133171103,-0.1423878963461368,3.0674391590140346,10.23965085725223,-1.4485410709810007,-0.18134662934826398,10.286599158291178,-0.25686563923336136,0.1135190754347152,0.5199368209711323,0.0973206138562474,-0.014009407572085008,0.10666427922013644,2011-09-26 15:05:42.703408950,9.210500118
48.99463839840473,8.483314748539275,148.97092751495484,-0.09077860161551701,0.4798555478869861,-3.385068263271693,-27.13127426810781,32.23859355154819,4.713822825464819,0.0012510060304314497,0.10880317154823094,0.3196137310175848,0.6783928830859817,9.473660501444153,0.8548819977471886,0.5545687916719678,9.797784779224092,-0.16808221490042094,-0.03800853851010947,0.07929554109158891,-0.1182793081037307,-0.050839573667537864,0.159309259490465,2011-09-26 15:05:42.803352093,9.310443261
48.99684111047205,8.482299845112205,153.37463342400596,0.12976007231817252,0.042212396381923235,-4.145146293081863,-0.3312359634252955,-2.0628443094243187,4.084760957040636,-0.7142352515126856,0.08499802056015826,0.8687993547308827,-1.6621722857909553,9.317148382028686,0.5448325310904647,0.2797337326611733,10.251324147033674,-0.08430415091666882,0.08739122837689102,-0.9626513077576269,-0.02294372732244672,0.04736841907755221,-0.06560254953410714,2011-09-26 15:05:42.903340596,9.410431764
48.997470837017474,8.483429082665944,176.96678361976458,-0.03868941299453743,0.13758737403162874,-2.147283387559053,-10.532668657823614,-12.871417965646163,7.818176473645117,-0.08211095293220452,-0.14833409974166395,0.23776799217968517,5.118096852232834,7.789495873451241,9.647350134655493,1.2503793663856155,-3.0960928110639685,-0.350613746450265,-0.042781967688428874,-0.2997971233732344,0.0420249847905239,-0.03855963700397506,0.038604272622178484,2011-09-26 15:05:43.013365641,9.520456809
48.999650551390644,8.482413794901424,177.99202567600264,-0.041262046560967616,0.11198733613531262,-5.2313599875009045,-8.734047876196815,-1.047655449102729,9.034854108562437,-0.19394918553081986,2.6748767825735733,-1.4932377705786852,8.055538338342906,9.225207919828415,9.48739880619943,-1.4808383894884634,10.190238508845425,0.03106813476153005,-0.0826747435350635,-0.08101613503477423,-0.06655544520231899,-0.10273754773958832,-0.019585612191329073,2011-09-26 15:05:43.113540138,9.620631306
48.997775322627966,8.482834645267761,163.78645523695008,0.005260978219814191,0.09149404637857687,-1.6548066921096605,-6.416738668023002,-7.63134920032459,1.4339128033565887,0.1366575064736897,0.5431577933301434,7.151332608878185,0.3509488715556322,11.013807791925055,-0.20979465562173627,-1.762437290487342,9.95214335579158,0.030436351057071518,-0.05939830352008653,0.16249942734244333,-0.10993508682805544,-0.13411411791086364,-0.4364018650269831,2011-09-26 15:05:43.213460437,9.720551605
48.99721330587265,8.480689968483263,169.39319395166797,-0.4210076187908353,-0.03974968164333968,-13.584904120460001,1.3442414864243188,-9.475925885244624,15.548994168484818,0.186121024672534,1.162939630755925,-6.217975848478799,4.2739776500898286,9.68359077236971,-14.045556287517204,-2.0450013444804678,10.416348583353386,0.029669350137029083,0.012381571070024106,-1.4214187308664408,0.1278700942889551,0.10327994697243652,0.3728733404300478,2011-09-26 15:05:43.323396925,9.830488093
49.01105257166428,8.482601864580603,188.56618224660284,-0.03699995456182948,0.27340976831433284,0.24648970325778619,-20.8349136320834,-6.825498023426906,15.868753250613882,-0.09130038654492041,0.8112125362279383,-0.5352307225562271,0.8982933805621348,9.671130174843974,-0.8268732081973944,2.390225876906629,8.228848137946226,0.1300508099615124,0.022017416719652044,0.2651361781676231,-0.7041779384584617,-0.019279035573878094,-0.5585588476203663,2011-09-26 15:05:43.423367151,9.930458319
48.99907897087318,8.484285958106295,169.36850763270218,0.014039882754887316,-0.08391988924571658,1.603831474929589,-12.360702990264677,3.272112193023794,14.460003779547662,-0.1738505097902982,2.2958054730699007,0.07165997638841372,0.1493613517778764,14.280165568857859,0.3530615937325921,-0.15025288465734526,10.980429195069133,-0.17941286749803892,0.020739808676165032,-0.018820151155664308,-0.08464141063213777,0.11216163725850528,0.15202348102275504,2011-09-26 15:05:43.533395113,10.040486281
48.997035863591925,8.484670163594087,159.49672667005396,0.12001505215488914,0.16884635108607876,-2.7234684908881426,-11.494523165815982,-5.241124821168931,7.765792258178774,-0.04050326893691075,0.7028414166517176,1.4875429388495838,-1.6089715717591788,9.651663830248504,-13.306155859348642,-0.25489186955727816,10.937888976246214,0.02682912925046009,0.09958692773471806,1.3713730830030377,-0.04434161932465551,-0.0045575090703154665,0.023964159100490105,2011-09-26 15:05:43.633577138,10.140668306
48.999167520146,8.481534197514145,166.2164680349068,0.15229370976493284,-0.34767502528856414,-0.28016996584440257,-9.452162677390126,2.430704566644275,8.777518564645131,0.05779919981054801,0.4948282997371891,-1.796712527739467,-0.2663811808646357,9.088753961436428,2.260718579196495,1.122696593081357,12.55900954233992,0.17745482239929944,0.07677619295598184,0.364987871616892,0.02692664246744811,0.08662577251793369,-0.03456179322149648,2011-09-26 15:05:43.733398693,10.240489861
49.00326747112366,8.484229961446053,163.01028716942795,0.11340946007687644,-0.10035083569908598,-0.6988124184709508,-6.030194006099448,-4.368889475709474,-6.056737426399223,-0.12794261226668954,0.5661098240542954,-20.00806595631659,1.7137920550298875,9.597231811314236,-3.601938547891986,-1.0250834730928762,8.578775820553961,-0.06522630223956082,-0.29128994709278644,-0.6570424840278082,-0.043589987092509025,0.09413269994191362,0.6285817734587056,2011-09-26 15:05:43.843429752,10.350520920
48.98812980734798,8.485497024751462,158.07700715029733,-0.0743937926692112,-0.012672110676681746,-5.163483816587519,-3.3726905551449216,-9.701103565143562,3.9055095326898615,-0.20371511940342926,0.40715898422003305,-2.386951031471529,0.7903419205533403,8.388392695525209,-0.2640191020714547,-0.5458022850406433,10.2344471021188,-0.08403827048544216,-0.1727607697952983,0.2650952429543695,0.007529597303281873,0.16873436194615724,-0.05541899821067919,2011-09-26 15:05:43.943388143,10.450479311
48.99861770801768,8.48698029035775,165.6288420212809,-0.0032881859549600406,-0.07558579184688133,-6.041408920352042,3.630736821308208,-0.24944031798894217,-17.01288317925614,-0.1512129251206491,0.9908804362164472,2.2611276548456525,0.5203770825489329,7.635907270199097,0.9272719828424341,0.7991736058436643,17.70688411273897,-0.05859280920578956,-0.002441007508117019,0.16577973058594975,0.1262498457584558,0.1125093135677336,-0.22785857796163525,2011-09-26 15:05:44.043406003,10.550497171
48.997114281981965,8.490545256078853,177.8650427971574,0.020736612908257217,-0.27237686550116535,-3.278344665555437,-6.5334077515209765,-10.331671676177685,-0.6016438953707635,-0.029084751805925704,-0.14086122304221582,-1.0782970595453172,-0.5698240570381926,10.043682571933791,-1.5631301163691205,-0.5070775440102457,1.3187849720901106,0.10594966976431333,0.04286363740006018,0.11991728301180939,-0.047936479675357094,-0.049194749806140525,0.19013416970935948,2011-09-26 15:05:44.153471122,10.660562290
49.00178536848105,8.481808805407992,144.08626862350587,0.1164689211991718,-0.0831753275298359,-2.019850347763284,-2.616840227913872,-4.477022426053213,18.83596824139938,0.3353071732851465,-0.43848889945527886,-0.2143883585910632,1.6848406003783571,12.023086504319275,-0.989303100926869,-0.6616273778695573,7.986688840269626,0.05779688244427254,-0.07707091142792621,-2.629426282970428,-0.33044026375585256,0.037047270956376575,-0.20520094858038826,2011-09-26 15:05:44.253422873,10.760514041
48.99916505631428,8.483519807589438,148.95014418643404,0.023200008478737034,-0.0197939154129273,-4.2289828692451685,-32.706495386992415,24.3962616422292,-4.375236731796021,0.03088037325352279,0.6517586995656988,1.0129158104396385,2.1269750551744853,9.694171918907438,1.1064617587457304,0.76098455102608,10.560611526156407,-0.05374574578657956,-0.05191074908372693,-0.11191138198164324,0.006134177199685743,-0.4161077388233623,0.08802184480708636,2011-09-26 15:05:44.353451384,10.860542552
48.988027645282386,8.483806128744451,164.01713045005073,0.03859441811476383,-0.6847839110698537,-0.5193065034830167,-28.74246919277148,-7.981888480111733,5.374402168451644,-1.3587643969640715,-0.07189314131320407,0.29971950781063705,-0.49701176248812573,9.58795578316019,-0.4742397051829029,-0.06644579178071688,12.389051865296748,0.5118822520290214,0.41119758609271856,0.2062480878918539,-0.23675915188488247,0.0356382611597675,-0.17827810256504112,2011-09-26 15:05:44.463443711,10.970534879
49.0112359116346,8.483806410824021,162.8749704096315,0.11956992995062092,-0.05223888058139747,-2.613297426865237,22.310448611464107,-6.654436817183509,35.98619607186021,-0.04048627269618132,1.1747844241382128,-7.206755526290665,-2.473878900234311,8.167759172609953,-0.23397374610012805,4.33783644812183,10.368489856691985,0.05004390813938198,0.05783221266815379,-0.2540577749530393,0.10575394103722172,0.03931804565282173,-0.30506761205106336,2011-09-26 15:05:44.563414924,11.070506092
49.00073933644624,8.48369616932783,174.83975585896195,0.20460800833499454,-0.33301433451508666,-4.473496188306388,-3.734275938383286,-8.021602448062499,8.665873419283312,0.23572878045797901,0.9838177898271572,-0.5033742054324233,-1.4124495366572427,11.521929422393292,2.2579276992495436,-1.1246895686714846,9.545806436903943,-0.12192994266895167,0.1494688460221041,-0.4027179661134359,-0.014996254528778601,-0.01704933105731682,-0.16116646021020586,2011-09-26 15:05:44.673516265,11.180607433
48.99400882380789,8.482471451232477,172.31441254794674,0.02365393500552651,0.11461932097876426,-5.185760220175593,-2.7727309442003842,-5.535736384906484,7.103240764973836,-0.08981655183923187,0.9764106487764291,10.257165160017514,0.502954909966829,10.158858502022131,-0.8656507649727312,-0.4396559852818348,11.042064683226139,0.33500268767154884,-0.08541776900989034,-0.1734274395942471,-0.043946317129183336,0.05196768845665787,-0.08352088707403675,2011-09-26 15:05:44.773434348,11.280525516
48.99707061996352,8.482460793286325,178.64144509198624,0.006900570261784179,-1.3423899922388538,-1.4908648533676425,-1.4219154415835384,-5.60562413925344,7.866322916447967,0.08491239919888507,0.25435646974921367,14.487943178818512,-2.860356109658351,11.194426319927567,-1.849888427012505,-0.8071492394462875,9.598577977436157,0.021831224268198536,0.13259049472234283,-0.3744906178022162,0.21498790593199593,0.06419875492841633,0.4570362953406705,2011-09-26 15:05:44.873449691,11.380540859
48.99499048424856,8.483989638085168,166.9776414537454,0.020403393615083046,-0.0366185317194995,-3.5511291020211653,-8.195367492979834,7.29967999818473,11.476271435279667,0.09200556368467533,0.20151939246442707,12.032386209662027,6.077871235825393,9.017751327977713,-1.5026333019169096,-0.8728455609160197,10.174803216748781,-0.048258926636937656,0.0038955008491280974,-0.1403116859347944,0.1674340078573237,-0.11073668846155806,-2.501742068539692,2011-09-26 15:05:44.973486975,11.480578143
48.99798214754117,8.483343188883408,158.14751723955987,0.03745330482543008,0.4248796230454496,-3.208107414904362,-3.541419552024957,-4.116878436497679,56.89308916456713,-0.020710698383160316,-0.14239976435663326,-1.5996558803616359,-0.0653987339369374,10.59666819913001,-1.0556468252030577,-0.0011597201004000801,7.753950463070865,0.246475137982911,-0.06846375802954803,0.6853197328462486,-0.11620539094412767,0.01714261346018376,-0.13979870905895755,2011-09-26 15:05:45.083549876,11.590641044
48.995409147288214,8.48247977358626,176.80613655421806,0.1382211948831401,0.3004024417171132,-0.15326659991938563,-11.60474107123032,8.508586915063194,13.884249828807892,0.03414427152334971,-0.5437827724794506,-3.4499435809445274,-0.11002965633269537,7.418773311045795,-3.160600656743967,-0.3482339030883387,9.252098497338899,0.016339629498269052,-0.06789033367413863,0.39164029941231526,0.018878234752715266,0.16476824446469016,0.024019891286208742,2011-09-26 15:05:45.183487813,11.690578981
48.997266978045,8.481899438288393,147.45024605905184,0.07051437082759648,-0.05953747779792519,-2.572077252551165,-37.28163176697178,-3.851055154912048,0.7337749888473422,0.29165337132824265,0.8505092327644134,0.08293614881184014,-3.2144898473370063,10.456131987572883,-2.8111469131847886,-1.0611122947403382,9.754687248819335,0.045676358466578915,-0.04169342534701119,-0.07751601900920874,-0.019191494024740192,0.05537656612609161,-0.1166196966596106,2011-09-26 15:05:45.293463758,11.800554926
48.999714730160704,8.487947046444832,154.7506428088469,0.47922738798440995,-0.11752847188442417,-1.675952434340521,-17.707223552494774,1.1559583551512125,13.50509007462416,-0.06565975167772514,0.12718229549336335,-0.08471772218175866,-0.24767726914859334,10.829129966832529,5.258637275139854,-1.0922033873111756,13.344623145963958,-0.03753488271593271,0.009025819407797866,0.28143596514854685,-0.5336291488485284,0.31708914813182154,-0.2916323666235433,2011-09-26 15:05:45.393482242,11.900573410
48.99732188795713,8.484773155037198,151.2314224167917,-0.000976030704833708,-0.1934996344133596,-6.650157585150554,-5.507805503999524,44.68462163595788,-0.5464218052920069,1.088962341367279,-0.013385227057470639,-1.6714940292922371,0.3581628733780259,8.617759717010795,-1.5613781147075174,-1.4289192167340583,8.106245673536272,-0.12146266635727535,0.0123356648080411,-0.40452707492805096,-0.03430784392182731,-0.019606846332042325,-0.17668233177804407,2011-09-26 15:05:45.493464822,12.000555990
48.996291779107565,8.4834884140063,163.93362383484464,0.3432588859078134,-0.06953127393171978,-3.9919151403999535,1.3770101665074082,-8.062459994269844,7.240774823642789,-0.09543448732181774,0.5761990752801625,32.868238428614546,6.176745263099205,8.565756770306542,-0.3890422622461427,0.15300529580204925,10.182816713973201,0.02031219491129802,0.07880674749090441,0.5958559936075589,0.11278894847221554,0.6691375056966331,0.03553369825513437,2011-09-26 15:05:45.603677387,12.110768555
49.01159634278672,8.483433920191455,177.94585951114092,-0.003462001094900753,-0.254042681778427,-2.98904970845668,-6.120728878433768,-3.7362700342540984,6.521318453005701,0.2191645301219824,0.14312544915626374,3.0732402787862663,1.3485106489352432,9.951527926761393,-0.8151885546645702,-0.7054250652017382,10.211373533086737,-0.255360705974912,0.0012799710870805663,-0.025548758418681924,0.05826029988390529,0.04938877963049903,-0.20752571389208863,2011-09-26 15:05:45.703505138,12.210596306
48.98986769036408,8.485216521591457,178.33557405707882,0.15019340848436938,-0.12367807903327199,-4.540046708404288,-4.516184393845764,-5.875956847273361,3.738769900406497,0.023695791604528393,3.3338155066820905,-1.6584403064516866,0.4109692830803528,8.13291024801508,0.32120271380292925,-2.5072082517669005,9.833903834785172,0.04424742065577909,-0.050804574761504795,0.17217223296674591,0.020314616475901028,0.08113020124351097,0.2643790701638346,2011-09-26 15:05:45.803488762,12.310579930
48.99758959653542,8.48477130253524,172.2789760812355,-0.032815995871321654,0.019442723570772744,0.05616777123049088,-10.550374007507997,-1.9759787743074861,6.262489811832922,-0.012752936389762248,-0.08269729923132685,-0.004353032204879981,0.26685137510642976,10.464976553522037,1.1634533003516274,1.1984897464484812,-5.734720185005482,0.008256372274965295,0.17116819822589935,-1.7178357695755873,-0.011437565655009032,0.12061608815595422,-0.14003757027062064,2011-09-26 15:05:45.913561071,12.420652239
48.99600151994713,8.482799638339994,190.73233649884236,0.05092589863119704,0.12503660093247165,-4.729627475176773,-8.924638440942404,12.166587127870093,4.68878252825917,-0.30088486155049915,0.6090716775967254,1.1029141105534754,10.016776858143977,7.817649931152209,9.17018125484546,-0.20831166521476935,7.596035818809724,-0.3170655013085595,0.10479949337588962,-0.11471482711130845,0.024723802472915397,0.0595109846643892,-0.3746377684746403,2011-09-26 15:05:46.013501827,12.520592995
