lat,lon,alt,roll,pitch,yaw,vn,ve,vf,vl,vu,ax,ay,az,af,al,au,wx,wy,wz,wf,wl,wu,timestamp,rel_time
49.01763014409066,8.352879655431316,117.10246536678429,0.06384605712845326,-0.017048067040564198,-1.1959879904021966,-16.31710232342556,2.6680564933719846,-28.04200965912124,-0.13337430588666385,-0.07411770991423272,-0.7672810572292554,0.4928443225298233,11.801114182092928,-0.3885673358393707,-1.9030790143156981,10.258276391328181,-0.03943194920146247,-0.04095635827968425,0.025694835714445204,-0.019674204400069076,-0.016453248751506992,-0.05340305658852357,2011-09-26 14:18:15.074973833,0.000000000
49.0194205971535,8.345198165291794,113.20066541175068,0.02888080501785595,0.03836570455368672,-0.739611832310814,-94.8236266536993,7.790809748152542,58.75177201373976,0.1882329467363652,-0.12215554294491988,-13.619077155968256,0.17501163611633558,9.659651384009006,-3.02309438499777,2.7005001603798306,12.972907486478148,0.047241257350768145,0.01278300151548239,-0.01762363234750126,0.005609609788311776,0.06645075114883375,0.06396408809555346,2011-09-26 14:18:15.174918730,0.099944897
49.01827869715597,8.352538965858471,113.2229826936152,0.06723336231303885,0.016950225397083185,-1.4203446644082802,-60.180237194484675,-4.539864935862091,16.369572533752677,0.040931479763308916,0.004970906039788836,3.834161979304146,2.4468455611026836,9.531491176817799,-3.0843180030380077,-0.17769497527142253,9.306430637675035,0.0028215930116254027,-0.1663124143073639,0.14688279108905117,-0.06533482473650386,-0.07375145484229478,-0.07224939480481535,2011-09-26 14:18:15.284881629,0.209907796
49.01294568105742,8.35262811991394,112.30657698341585,0.01895966261545484,0.0130171401630577,-2.0114715986650507,-10.676949419673633,1.2546742393692618,14.461074327293488,-0.04753016596815982,-0.17831704011173793,-3.6394373073782593,-2.983246085133497,9.281408596811104,-0.23471259001969677,0.747656790679615,10.226567093621675,-0.021679866839818582,-0.01835393855190708,0.6460600136975272,-0.010659422714738825,-0.018440135809541656,-0.1606271899820633,2011-09-26 14:18:15.384866939,0.309893106
49.018913432872395,8.352730399131195,112.09360382902372,0.02988241698017834,0.03129907817015278,-1.6948828970736503,-11.583098682965478,-0.34535360087642264,163.6023297817558,-0.051982518622734,-0.15183016264046015,3.784926135650883,-0.635429268984469,9.38266218513347,-1.2148836909939462,-1.4566528419510663,9.289787174711119,0.031279520389246626,-0.003636296966080396,0.15736705043494048,-0.07029224737398457,2.480841440779917e-05,-0.5476722193904277,2011-09-26 14:18:15.484850174,0.409876341
49.01929639501214,8.35221354553866,111.3770224204624,-0.053148563808773364,0.020297427899286742,0.14235165304443687,-3.8572191102396314,-2.6351570486199494,-2.623482585499664,0.2373130076495903,-0.00620597529981801,-0.9180265379465025,-3.396682358393126,9.383572760781002,0.3318820759313072,0.11584790998313138,9.915320099301482,-0.011856511428030958,-0.003940640172197146,-0.08522600661944749,-0.2542933761544189,0.041627772840416646,0.2752695079469245,2011-09-26 14:18:15.594974021,0.520000188
49.024909439777325,8.349696269791194,114.37511441440337,0.03854050870892104,0.027180885860256694,-1.3294454693357456,-112.95442627031245,1.9217064113150064,26.71530837095392,-0.11415256125781825,-0.03827763888022266,-2.826374920256304,5.040146066940941,9.993477320044782,1.34407954152371,-0.8243804637675471,10.560069300587,0.038578290428075014,-0.02467291722149441,0.08193344548139621,0.07934724186603113,-0.40056289237733267,-0.0635886472218128,2011-09-26 14:18:15.694868121,0.619894288
49.01750418820011,8.353489016806838,112.11248181319188,0.09066286788324626,-0.0006410893662543021,-0.2337509132718757,-18.739388786030442,2.6138542445014536,11.662628922746798,0.5600900867032923,-0.1034878997350957,0.1407187629788279,0.277105054840152,9.778014964691,3.0264894493503403,-0.7496260531571806,9.82413861705824,0.015545500449244617,0.03770300887218673,-0.1058463630040415,-0.10454125448213514,-0.020577251215451568,-0.368747775586505,2011-09-26 14:18:15.794886289,0.719912456
49.01793884724002,8.352738825121648,111.56745678385238,0.06315555402419043,-0.012609784040925316,-0.3803683055226056,10.893557671835907,1.9477469676227601,11.671437710680022,-0.013789835084969584,-0.01801764782913492,-31.81081159292649,-0.9555731180022553,9.380949250310744,3.702751696168143,-0.3726142331722795,10.284731068565128,-0.033020278450582134,0.06207409607469103,-0.09386853074197989,0.055733995277502925,0.032953418520106054,-0.15592937354335715,2011-09-26 14:18:15.904871277,0.829897444
49.01680564244325,8.352174815559566,113.0801251196892,0.028637956362744552,0.23060228183901454,-1.5001874335122913,-33.25053231911558,-8.289519754094727,-111.77140686337819,-0.9012292059558555,-0.040266875596270166,-2.1479961791730116,0.5592320629968452,9.811822200660671,-0.8269910085469607,1.7033080865122603,9.999183279806127,0.007147275560517691,-0.012435914293125537,-0.03166693536932359,-0.0520553956574993,0.012554432566195067,0.19735455324627255,2011-09-26 14:18:16.004937951,0.929964118
49.027279977810366,8.352038783873185,116.35818431944185,0.028528684080419812,0.01867026552472046,-0.9274242094838228,-5.812644649339269,12.905866558528452,38.45386407429321,0.16217673565220456,0.10414002537113572,-3.6790959167858857,2.097184476743443,9.301713611481906,-2.6835240062469286,0.07454340721763153,9.283309728208257,-0.08482028409545503,-0.25294518141408034,0.26769637332684776,0.0582692513852634,0.01658609458608856,-0.027648194101461146,2011-09-26 14:18:16.105096350,1.030122517
49.01589477630061,8.352175345189874,112.12292392381863,0.03068822184667453,-0.004632615556850938,-0.4380556719801547,-6.692243867112046,37.23623888900215,9.283798265760456,0.1537885126128506,-0.22993146630348354,3.150511189675395,-0.39652591576736373,10.851444862861264,1.287741597397947,8.847871032940182,10.400030560948434,-0.049614506714521424,0.03624016625552812,-0.09672420523469236,-0.03697963611073142,-0.032564182792786375,-0.038942076796053854,2011-09-26 14:18:16.214890474,1.139916641
49.0185925920924,8.352137268657401,111.44220118344005,-0.20682929432975533,0.02476824332550457,-0.8491597777518165,-20.738315118171265,18.520137316575433,-38.88295304652329,0.2605326085117431,-0.010076157581509837,-0.4582048023572278,0.038586065517868307,17.37118198328475,-1.3897742222073788,1.4481766592225394,10.626080345579318,-0.012624981116189636,-0.03046487004719751,-0.3551444785730398,0.039478056557680996,0.15481141199573883,1.1302666672570774,2011-09-26 14:18:16.314898014,1.239924181
49.018880513576654,8.353572406325842,114.22065552173787,0.08059881100735904,-0.0040849928424509865,-1.06537475895444,14.90237092256798,13.089818408076322,16.64627160525261,-0.10464495624134039,0.6048620328093391,-0.058161174977142016,-1.2259535232413472,8.742788909540591,17.387561572464858,1.1949047699220325,11.004552547784966,0.02092440295198008,0.05478112540005047,0.259797840804794,-0.09081512284189083,-0.04282005508906491,0.9426159533863678,2011-09-26 14:18:16.414925163,1.339951330
49.023804255823705,8.352220835324339,107.95787959393199,-0.037751457706969097,0.011642899713578491,-0.3233531871234897,-70.59895688105134,6.05739751467885,4.962017888125496,0.02121245294602906,0.025125285386388817,-0.12186179715305084,0.3879808989637603,9.895376809481608,4.691757665096253,0.7694274523536091,8.579382974181584,0.03002140459999455,0.0186438771200034,-0.20811458494794627,0.015300246155237614,0.06183224902607096,-0.17289327889443645,2011-09-26 14:18:16.524910110,1.449936277
49.015097469988525,8.351585524252048,110.06076166663037,0.07045609940832605,0.028074815041550953,-2.4297199425893132,-5.076696830565937,14.776830921300444,22.769444941328324,0.286964882800382,0.24852368416249349,3.7333063867237297,-0.03287064790963792,14.744239173087427,-1.5661303883017346,-2.4718706657669904,10.792149870204952,0.01083747328549987,-0.05926987507934756,0.07750040482116423,0.17938695243171413,-0.0835996944550721,-0.1429664686453159,2011-09-26 14:18:16.624968028,1.549994195
49.01923489169515,8.352800856483473,111.94021812135685,0.045253041042416106,0.01353480470795827,-0.9142529672621537,71.28181699532799,12.02790047348402,4.795034270126202,0.10997070161704275,-0.06154550484743793,-3.782750963433557,-2.4423444648760086,10.031896219052866,-5.132942080096233,5.636744482892091,10.10402788597911,0.030412727808138695,-0.01824439702296147,-0.02726317976336861,0.0026731326617825133,0.025762272080643352,-0.10551503768617523,2011-09-26 14:18:16.724986785,1.650012952
49.02474998384812,8.352290887662981,112.7788365326351,0.05414012848571732,0.013939268406400512,-1.3709939593170617,5.791545418574975,12.239840007726517,42.529838353591636,-0.1709760819184743,-0.5528920178112349,-14.077337256882636,0.9038098835330577,10.064544732113394,-9.043153595654184,-0.13208300054272384,10.161597105889633,0.015586558840900048,-0.0013636298008200386,0.1834129011834656,-0.03539554215656906,0.01320560934682247,-0.0666269645571794,2011-09-26 14:18:16.834947476,1.759973643
49.0137795412047,8.35410393191903,110.22261169517895,0.014712076600392657,-0.01797151453477505,-2.056297621590718,29.934928172934104,7.876894082312408,-2.5035247789975106,0.006230838057222306,0.04324310224386796,-0.6716024390191552,4.851939907692059,12.387149171989467,9.767002036355436,-0.7553038428368868,8.978648286664864,0.010129665814482314,0.06389042708841282,0.10285778404508147,0.016826515541414497,-0.05027586813294211,0.04369899492031119,2011-09-26 14:18:16.934947539,1.859973706
49.0094019350547,8.352481803411129,114.31195990197465,0.036044636499450756,0.0030180164825044983,-1.378518089066122,-5.192066027987567,8.828935772470595,22.179728260295754,-0.09046235765263837,0.06299063908510183,-2.7690752829550314,0.6721413800447416,9.171358217457334,3.714996450474966,-1.0290150166147016,10.049310612042518,0.0005927669822633043,0.03669282176617995,-0.07434788411076357,0.03160944287591529,0.033526197753438736,0.14889531600336817,2011-09-26 14:18:17.034933414,1.959959581
49.02042826837433,8.352854977974479,114.21186091399301,0.014979291928091339,-0.012164075087090912,-3.095638248810353,-77.39100596619028,-2.330112059618388,6.2915293441734645,-0.29992094197778374,0.05264817583765832,-5.8529762804552155,-7.755323029221522,10.5886156684486,2.45199221200998,-1.6688155578106325,9.005573507365288,-0.015051884797164659,-0.04108122488990367,0.03280648439690879,0.06631337986750734,0.027433864188804585,0.04938132872850594,2011-09-26 14:18:17.144998329,2.070024496
49.01863068349279,8.353060723948468,112.97868239790745,0.10318163210641573,0.10044022427766464,1.5043205711887706,-27.60112318200042,-12.125955605822714,17.125440865411452,-0.11955621706146294,0.2793966137745531,-0.08164792701495349,0.013297721165024978,9.940507469704098,-2.4686719312547027,1.0709212391803893,9.384378760590659,0.048032558751099824,0.015600331910626814,-0.39439984727455357,-0.0043347370034028405,0.03072741209328931,0.011507193595232699,2011-09-26 14:18:17.244977563,2.170003730
49.01548804436137,8.35336677093465,114.15649717760327,0.06024852605449364,0.01238153609400043,-0.26891420843016134,-5.609402181676675,6.524586330037411,18.29916899282562,0.7137056570677214,0.15259086743374542,-1.5625438750405687,0.36031435786632954,9.146941777976384,2.58911166930055,1.2537453646711587,10.055677351951896,-0.11283960008677535,-0.030816965645372434,-0.2517236381877652,0.015287446738802812,0.014892548701688569,0.003786862260913817,2011-09-26 14:18:17.344944482,2.269970649
49.018038913713276,8.35357843142072,113.42493242710484,0.03700604056483825,-0.006692637235921121,-1.0552897806265746,-33.667364745303395,3.960262947017729,35.08881115015698,0.023535271340990996,0.14494746627485475,-1.3786284458857916,0.03967987278396473,9.5493014823493,-5.713675204286164,-0.7176061743609419,9.177308062949212,0.02523682224412209,0.02917483342447237,-0.08057214001268377,-0.016909136118685292,0.06867655660436392,0.03397709610656226,2011-09-26 14:18:17.454984761,2.380010928
49.017580362726605,8.350210422827871,115.02937169537252,0.037811893858295316,0.029290978722408916,-1.3749292568957907,-12.445611574219935,-12.89706059069853,18.62163925221941,-0.45952016538820506,-0.21036092927920835,-1.0189650881329089,-0.6163228805789094,9.839304179999656,-4.395957574307082,0.7095981081865561,10.495790181580759,0.04622892384982083,0.0027268984268399854,0.1777801608561726,0.04277417455981197,0.06247971359959228,-0.33503164396168655,2011-09-26 14:18:17.554980557,2.480006724
49.02848058932547,8.352705775791714,114.239918171289,0.04857700407888432,0.02754431923856325,-0.7481139713980051,11.137087121339322,7.0343038453287186,11.170458826047469,0.4468996184742489,-0.10999562929246948,-2.3962333407088554,0.8399789124430009,8.110029123796474,-0.1896323123295744,-5.501234532393892,7.609321391710926,-0.03311730624461462,-0.017310659017022167,0.006284641854554336,-0.00410228127252691,-0.0784662121386453,0.22801917942222905,2011-09-26 14:18:17.654984261,2.580010428
49.015865248745094,8.354233964002793,112.24000986009882,0.04985553879086803,0.00160957434727123,-0.5707817264564395,23.060082734368514,4.883771235079234,35.112137859537775,0.06936576133011675,-0.06769878426570232,-46.5182687391071,-1.4745814690697783,7.478384838137119,0.5197517780508117,-0.21027751928378952,12.040407573359357,-0.08468890907888629,0.0047946704831416526,-0.06109233636304658,0.07756849863936674,-0.05893903450956404,0.2012650643049343,2011-09-26 14:18:17.764949645,2.689975812
49.01605127794008,8.355535418744564,112.64203472248,0.05667295385319395,0.15083759574169991,-0.4278640065030491,-78.13620288287208,-1.1594206611283253,68.91103462561325,0.24794630084354222,0.011321776053778931,-5.285775402213314,1.3168465655291937,9.640098808545101,4.675637793445878,0.14628605913643472,10.354459136156873,0.034583502989524645,-0.15723481492693517,0.029461958794908854,-0.03283659012873115,-0.08541989536498223,-0.05063878715299342,2011-09-26 14:18:17.865018785,2.790044952
49.01608715252048,8.352959504515681,111.62135519092398,0.39374356745795513,-0.037390161849348964,-1.588532827440639,-15.389463937389193,1.2796901567937926,17.415022268622792,0.5484217258897734,0.8011463315073544,-1.5880233368844698,-0.2955344988834512,12.064968071053228,1.9803986999496923,16.599359973681228,10.63018795059998,-0.04996965552583514,-0.05545350801493933,0.021021806816464473,0.07539063111074076,-0.01969177935611352,-0.0996832193845873,2011-09-26 14:18:17.974988196,2.900014363
49.0220736770611,8.353564519211426,112.38338502970123,0.023660690779423874,0.006666155274321749,-1.7550644321071704,-151.22732085468658,-58.27159976059953,85.35085918851964,0.014711482425367621,0.18603199517367203,-2.8128041141366973,-0.604271161072185,9.580281995686857,-2.1695516341751357,7.943121293704626,9.559918105856365,0.047603734125711124,-0.023755605204800363,0.034707441138159954,-0.011321270886253502,-0.024870317201040642,-0.09468288297768715,2011-09-26 14:18:18.075188993,3.000215160
49.02048391847624,8.35394117933109,113.9086769472729,0.05886582417289357,-0.06302823654862064,-2.1160241067557073,-0.6210219991941113,34.671914671932285,32.55740162232502,-0.18456263416237767,0.07945066745890227,-1.3430354440068222,-0.5590967932830497,10.558244456871659,0.8871827322114503,-0.26014379020545986,10.271786437532183,-0.03944883681500769,-0.04964909713293087,0.017175631515420727,-0.0002849261953194425,-0.06780321489673675,-0.04217675449965143,2011-09-26 14:18:18.175041028,3.100067195
49.02095430488559,8.352417039369508,113.44885456488313,0.0039956842058898046,0.030986606378377163,-0.7273903152277463,-1.7123996458486435,0.9465371064654735,-8.716785106305244,0.11191318932704952,0.18106052469705824,-0.01820950535129834,0.5649925885980764,9.46542324946877,-3.542755429227637,0.1982469548228749,9.568213485572256,-0.27536166387344624,0.07685166667052484,0.5095211282701158,-0.011383795979115706,-0.011079266014832799,-0.02733256611239558,2011-09-26 14:18:18.274983897,3.200010064
49.01018596032658,8.353528112438294,113.33194145078075,0.18694869744735615,-0.12497149664651443,-0.510398171884058,-20.50759353097642,16.625995157165526,36.4753028088861,0.013575829682502392,-0.08798328231723576,36.3916758029995,-0.1653220797172803,8.29750905679348,16.818197639038548,-1.130843995501776,9.661642979352626,-0.013484378140906009,-0.029320854287003307,0.48916919956847077,0.02163074087071656,0.04322240531650864,0.07803433525426677,2011-09-26 14:18:18.384960923,3.309987090
49.0179427869135,8.353708937457716,111.23911518350663,0.14243099658977287,-0.010985571420480487,-1.3281461043612837,94.72330120424277,1.290685994998701,9.912006134680492,-0.11993036413432347,0.10647249867163208,-2.8544679526824477,1.3374238594500798,9.732842171179033,-1.3251985093344667,1.586957486269813,7.831572087928666,0.045986479309949535,-0.03770160173591382,0.03250489603670478,-0.08853891819908687,-0.048991993293529344,0.026893149839935807,2011-09-26 14:18:18.484985500,3.410011667
49.01871736398778,8.357727007422794,113.79893523459003,-0.09023235231386549,0.004411018843763142,-1.2538879886495238,-19.8710879813522,-25.5494022178209,25.337332726614143,0.05521255121539651,-0.8429501251578204,-0.01013022416318543,2.437719281657772,9.9881209864141,1.2684217189127263,3.0050094275550707,9.372194558490213,0.0008344391211368707,0.09315836891652404,-0.02866266745607755,0.019904282400084843,0.026241611899534237,-0.5505664387199948,2011-09-26 14:18:18.585080490,3.510106657
49.01810103781602,8.352630070919062,110.50300215501453,0.04194367332346341,-0.08272318164510781,-1.8385683302902542,-16.786109371036307,14.417754944052643,-2.816763714894172,0.07973052974470189,-0.2355099724106862,3.4586923418556155,0.2898296673183031,14.44443676609045,-1.361713153911572,1.8507880438011999,9.619264249810554,0.051115813699344835,-0.30906846562070994,0.0806102471695129,0.04471173209265811,0.005868952287649241,0.01912506385721771,2011-09-26 14:18:18.695044876,3.620071043
49.017321470831796,8.35351078322469,114.0343392474823,0.05766510701764065,0.0035103997986625467,-0.010122906566935042,4.7663074568494945,-6.592727035504792,29.300062910133544,0.06767000028401292,-0.0492265470351037,18.909021084009424,-1.043090948575975,11.268817282641278,3.0160884624760986,-0.13190922055863818,10.046644361690637,0.0299532109011649,-0.03043417761909132,-0.04649991585635642,-0.0231404076570076,0.03671410947890022,0.11201261250220948,2011-09-26 14:18:18.795005809,3.720031976
49.01779716061914,8.348914929560026,111.82796821823139,0.0857566799746345,-0.009423259163300021,-1.6230363768049751,-20.863682806507526,2.065256792341422,27.78915501372105,-0.028195496149535322,0.07323458261956177,1.8114912074679406,0.45010395800404346,11.576405746102907,17.55691931701357,1.6441178887225771,9.945686367642882,-0.047767130700544974,-0.030457511684407246,0.9657986265081593,-0.30441938198606977,-0.00443052934787239,-0.06079518026465983,2011-09-26 14:18:18.895044988,3.820071155
49.018039287364815,8.353107072011527,113.84147506155436,0.042087395748996684,-0.004902901407774213,0.8562625528541576,-29.796622151378735,1.2402458472179254,0.03608522037158757,-0.038799122896796615,0.09729951279947247,-2.100905059677106,-0.4425635922074833,10.239181812223048,8.933583524050652,-0.24834620667101115,12.913174196735216,-0.01405322506893824,0.034107839452325844,0.6606013563828754,-0.02909848944944459,0.017160974574037754,-0.12508504266154447,2011-09-26 14:18:19.005010018,3.930036185
49.019224359859024,8.352364380951427,118.76555354672041,0.011890001060586207,0.026329762664954567,-1.8176372254856896,-4.168824228648413,2.84984220215713,-49.412809541211104,0.05835045114135756,0.1501087642561303,0.5495710015644169,0.675385968181559,8.79728113153072,-1.133769946628957,0.284576285232851,10.353118838616636,-0.10073211621794216,0.11506979541400958,0.031021551780183336,-0.03747449341527194,0.022712823288490933,0.1527690833368921,2011-09-26 14:18:19.105248051,4.030274218
49.02085740029504,8.35296461426466,111.67384330238998,0.07581611357308107,-0.17238734488909663,1.9966441446567436,-3.1952794939012605,-7.175205161629605,10.839324631398462,0.04081759547593264,0.08794277552845244,-1.554341308109295,-1.7957989294515262,9.889621091642596,20.536500019626743,-0.9812020189280566,10.076028619721654,-0.03883619851250285,-0.2995551830611709,0.061742893594165536,-0.18589512792886764,0.07292504533872268,0.07771867754731575,2011-09-26 14:18:19.205016801,4.130042968
49.01644467191118,8.35298792092484,114.38788672537213,0.03350229213073988,0.026852542577353693,-1.6604651501056038,-83.73900091846542,-9.497528139602078,43.33932273226727,-0.14169615326278603,-0.4712232719704761,-3.112194911040454,-1.3685035658333478,8.782466647742691,3.4138021833753927,-0.7940592322134139,9.823552369635019,-0.04326618332153345,-0.044468277349918754,0.059517175459110755,-0.03478223628931113,0.03700047039610279,0.4144748807430619,2011-09-26 14:18:19.315010684,4.240036851
49.017693667515005,8.352825751739516,112.18423910593793,0.006302181836852799,0.01330047843229552,-6.144656967308951,5.770729668824359,51.81200452080678,33.15375152289701,0.0737904549149986,0.5507201885194561,-3.0647498760738494,1.995193285718409,9.324073438756471,0.5117846949233594,-1.0535075987992422,11.10928629758428,0.009764025826312195,0.08232951947469998,-0.014245088822421644,0.005682340587990408,0.0780335480465171,-0.21195134322609652,2011-09-26 14:18:19.415057445,4.340083612
49.01874217946645,8.352808060971757,111.96574115783044,0.026554004402934005,0.007309895300559561,0.07366771075892986,-120.93876688498192,11.992511435012485,0.0033636971896235934,-0.37469415294932096,-0.07310859821338375,0.6400085952552375,1.2044505320363852,9.74956370375517,-0.7054272371573445,0.30727020768303726,9.250179588504723,-0.02235256542947967,-0.017771822280614684,-0.7286272055579996,0.026394878716287356,0.0033410543625112168,0.055047533042288786,2011-09-26 14:18:19.515044626,4.440070793
49.02118916339934,8.352539016282169,114.24807241411054,0.037627286430783946,0.018019869426353283,-2.617134245010907,-13.852082362217473,39.72894811217619,35.59161684956828,-0.17468078267035844,0.05960875477975246,10.471439979833077,0.24790914130026281,9.110663707238611,-3.1000951745084793,-0.6449205754693129,9.540423415045682,-0.005316810391861259,-0.02497235720721258,0.04306747949413189,-0.010720116483777593,0.10315960296022303,0.02023683527033203,2011-09-26 14:18:19.625134127,4.550160294
49.01780424347021,8.351988975311638,112.93652068816019,0.03283594012073304,0.03134274753513376,5.316600490375645,137.77778707848515,-2.911563327374628,41.81255904489098,0.03243260973612338,0.15359117606419148,-3.3410370143344545,-5.403915719693207,6.263860733920683,1.6130297673644085,0.22559174883098826,13.400775641054452,0.047925682560689645,-0.021514012525236628,0.10042700982522397,0.06643658876759581,-0.11690491567338294,-0.033644128288826076,2011-09-26 14:18:19.725065411,4.650091578
49.0185719135872,8.35340193564332,113.98403704485074,0.03841384608934936,-0.10680215302390775,0.33843480320668173,-9.661751861015588,2.3530959179264173,11.705007515429772,0.3083889037691019,0.013125759151756553,-1.8815994761625188,2.326505960690427,10.05032821837327,-8.938896727109949,0.28175517064111066,10.109417070509977,0.027326179805974557,-0.01652722545397748,0.019656928432749868,-0.02231762232654099,0.3495947438204717,0.030672915014169518,2011-09-26 14:18:19.825048689,4.750074856
49.01658250317134,8.353247329357037,116.51307494029795,0.03591502142413606,0.018931365682466506,-0.8490293178755703,-22.94489612703057,4.445388297455369,27.095251441769662,-0.003240632225004529,-1.2952135203173596,-4.4562515282850566,1.3721658496659033,10.086107810165611,-1.717418995456466,1.0648911443356122,8.383056273669116,0.033266160376919894,-0.005320492729914238,-0.0810834906357323,0.013645900669884869,-0.0025862850820199956,-0.252890882698533,2011-09-26 14:18:19.935037597,4.860063764
49.01851962648114,8.352892038182308,113.07019468546191,-0.0044216298856189565,-0.008008098146844922,-1.0840354124791332,-34.63562225582246,11.145833143815231,91.93997375383027,0.9033527628752994,-0.0005561632757728665,-0.27676456369418867,7.1525197426323475,10.78864796146712,0.6046268338215856,-0.12814603916112774,7.669841129483958,-0.03734816396177437,-0.013527643308797044,1.0357056302869239,0.019220393073539208,-0.01958559142993348,-0.13556522205142113,2011-09-26 14:18:20.035065031,4.960091198
49.018426220803335,8.353111396093313,113.01904641446319,0.037539137676089934,0.008193421598320275,2.1430760182186503,-25.76319025517677,5.676278594458815,-12.997881839142686,-0.09741184593293276,-0.07118600853746783,12.160748108207335,-2.8564793265966983,9.410575567485536,-6.6055297695559805,1.2928994751609006,9.001660152273233,-0.026891947911886968,-0.3721508179170953,0.08186257876683913,-0.029242134889447987,-0.0688044196935408,-0.02420834113558387,2011-09-26 14:18:20.135118574,5.060144741
49.01988846401534,8.352945378524252,112.39015855234166,0.014751828740587204,-0.12235804415462222,0.5033013547639267,-17.737584009350783,-3.1581690940275315,5.862367791504059,-0.2510062268906557,0.050895719576689424,-4.613312946540387,1.0391549120681187,9.615672568817326,-1.63254621279461,-0.10632114221106073,9.61438813439467,0.034350215194301495,-0.04257931601217576,-0.10846838797708522,-0.023905850689285045,0.008938129964748888,-0.05954236428335987,2011-09-26 14:18:20.245099447,5.170125614
49.017085961004305,8.352799559403064,114.0686191818532,0.0015899164627401347,-0.00473241685616114,-1.3944226850563046,61.844737652359385,1.0142822629064518,16.389039496708683,0.5109609106301812,0.03226042058844786,-1.5811233044074715,-0.11272953400175928,9.42787601995444,0.8449076489831484,-4.825188517504628,10.5381594270382,-0.028796174982934658,0.02135451072609318,0.15264012870521274,0.01195427465031788,0.2513827123080683,0.10739337521374988,2011-09-26 14:18:20.345068474,5.270094641
49.020030558351095,8.352934367353352,113.27746969269423,0.05348733883513494,0.01510114832691186,-0.9159046512715561,-19.44927877018433,20.38293894677681,10.70687218437993,-0.025870723586018798,0.2432163015419525,-2.4367053536238834,0.2553672032171936,10.17301883233886,15.18764638642453,-0.3246877057051192,11.230858231325046,0.027291386093895302,0.06046618734661265,0.261905908518805,-0.46813971838269003,0.03547564294889962,0.08147083965681147,2011-09-26 14:18:20.445056725,5.370082892
49.01620123527204,8.353265913540152,117.34339514486807,0.07431086979941273,-0.0005433264868940791,1.0609482072454497,-17.708264464812636,-20.901173117750453,13.58167413530063,0.008636650672819525,-0.07219564499115949,1.5805904316260155,-1.3440430041028855,10.059090858639895,12.4504505022619,-0.4943508127738644,10.45075845707954,0.012897664631314757,0.060078194591068244,-0.002285148981937174,-0.04388646117396826,-0.09400832508420576,0.002545113744731389,2011-09-26 14:18:20.555077031,5.480103198
49.01654807227137,8.353041071826077,112.36442338489708,0.12044229370667081,-0.009627303938406679,-1.9358087498973346,-5.828598671737598,-4.072769275323801,19.607993873899783,0.0537035341630384,0.5838745455310782,1.677377842827218,1.8271617560971367,9.559175815240165,-0.0006691857569653958,-0.10775700123943864,12.169486235118042,0.025373123968973565,-0.0386027662433655,-0.10815020161084106,-0.042335686120234896,0.08467163290033522,-0.07660546769789611,2011-09-26 14:18:20.655130537,5.580156704
49.02023286626558,8.351787234721865,112.50252367301773,0.056502750964639054,-0.0022715593070282807,-1.4031005129015885,-11.728057406951553,9.561528199982558,20.614677608854365,-0.0024115372692458045,-0.1446396979095382,-20.117761903656007,-0.7121294473504771,10.109643209115053,-3.6280490106399963,1.2640992511787454,8.423773813759787,-0.07950097834290834,0.028038160692345493,0.1196719869533209,0.013626898543351992,-0.02197446968086428,-0.22515815452906512,2011-09-26 14:18:20.755089219,5.680115386
49.011534376662965,8.35298205521933,113.0010496114571,-0.06346087321646056,0.04179402085514386,-2.3815974081063915,-18.527820288358548,0.7804739315130673,13.901127099594994,0.08673226945268143,-0.08545662085116282,12.894814514554998,4.072058283962697,9.773451984084293,-2.2186156240768224,-1.0110557745630901,9.663318955118706,0.02387995434768041,-0.0488270698454009,-0.02168971857163592,0.009776642664073219,-0.06259320604134144,0.03261778175401989,2011-09-26 14:18:20.865101532,5.790127699
49.016428785429255,8.353720668025181,112.39136912258083,0.06624712318749815,0.022478820626007368,-1.334241292322286,-13.389741317760908,-2.7614371051220505,54.47930088859708,-0.17841981636663218,0.12563934636657692,3.233023784279169,-3.4930259599090223,9.024698611789512,-3.630791055094198,-1.4528336396789563,9.465073517595009,-0.06050489566304662,0.018245780553669915,0.018820258687176565,-0.050789319950552206,-0.036119585803934456,-0.12831866188409816,2011-09-26 14:18:20.965245141,5.890271308
49.01701104764645,8.353560985842723,111.97472949939348,-0.00824399256541606,-0.026127891675359095,-1.2497195364256746,-41.96063682167674,-48.73021559617515,36.44229881165868,0.02646942925389527,-1.271596806883413,-1.3965306829610928,-1.487309703314141,10.696699813620977,-2.095235998283905,-1.2186969617827803,9.610604762154548,0.03344757619796805,0.013386861429022085,0.1389751166643081,-0.03189961156053201,-0.031701233721684326,0.07379846406638514,2011-09-26 14:18:21.065240612,5.990266779
49.00655754929263,8.353605690209138,114.00532653102769,0.025686907701216562,-0.03753392599553158,0.007445596516281627,-75.03151503987695,52.305535063612055,28.379011871019564,0.07777790035842888,0.6480330412445926,1.3058266898057407,-0.5393009016674142,10.519663713855845,-1.8454371656475357,-3.0009179029985824,9.476430449521427,0.009238446158751676,0.0734756586751924,-0.17920527994326374,-0.09436609785625602,-0.026191879401928155,0.4749897590605454,2011-09-26 14:18:21.175135572,6.100161739
49.01467823685214,8.356246746736515,111.54694972081813,-0.005208789889439187,-0.051258800312932465,-4.684223763191939,74.46589268909901,2.0203588066596896,21.575979766332594,-0.1536921311150296,0.004313449309423272,6.378833191751652,1.5886431935790346,10.22923794802369,-1.7225751906361937,0.016017342243705435,10.011590084264736,-0.04586780526355768,-0.05252384252073994,-0.14982036317238254,-0.04627599449032842,-0.006843072691590733,0.16221980100784705,2011-09-26 14:18:21.275127559,6.200153726
49.0262922772969,8.353296430776952,112.79163760956246,0.1202206866019647,0.043374150523626684,0.31935912434502756,-1.1943216655405422,6.608117072539466,6.889268981102552,-0.3876762943802067,-0.07111281147860755,2.137470550542408,-0.9819211627746445,10.397988138186056,-3.704274005618267,-2.6361368082581986,10.08662128244452,0.06862333050788305,0.002512061645327913,-0.5855492579245829,0.13728944349827574,0.06201629743891482,-0.06030515215792327,2011-09-26 14:18:21.385124772,6.310150939
49.000498357354495,8.353179411934022,114.06112282079708,0.05118551066548395,-0.004689264696265603,-0.29422720462539353,41.97186817468851,1.0952464736026326,4.67247289070275,-0.11672260249862437,-0.16196330477886853,0.9496041159930265,-1.522986918280332,10.074334609800603,-4.528041414603425,-2.0038672026852837,8.151063154108598,-0.05559355891183456,0.025315596729166587,0.026626712423334767,-0.11373167043337819,0.01627977933599578,-0.07919552593597365,2011-09-26 14:18:21.485152402,6.410178569
49.01630883662567,8.353504402207,112.69936312860749,0.052465861599185495,0.0018731672732956433,-1.3807696439598662,-1.900746008413181,14.284433160794539,13.427509536669831,0.24625563572960463,-0.12750222832174055,-5.485871583863578,-1.6188995211502222,9.907674272030045,1.6308776623585146,-2.2456898038787894,8.42602939554627,-0.008609563433861225,0.0008650899755984123,-0.06259669539357302,-0.01848980060564636,-0.07036179831427278,-0.4905545062132719,2011-09-26 14:18:21.585398425,6.510424592
49.01695012765125,8.35272613713464,116.45799509236235,0.001952447447870858,0.023019322471902942,-2.1408959413113617,97.10676238671901,-0.004288241882929089,9.046660043119218,0.024151896574854947,-0.11328731373646976,-0.10564473315975642,-1.9163670773972603,9.241898258012851,-1.9812042459355352,-0.8496853416266134,10.555454227494089,-0.0032521639034665453,0.0008850249130939718,-0.09265518182613461,0.04507422389229182,-0.03031038747546975,0.09309105472429227,2011-09-26 14:18:21.695145500,6.620171667
49.01528927970472,8.353595835981226,110.45853572777555,0.0042733383235650825,0.03141396394296285,-0.6414384464687009,-44.68929841277187,-2.06523436901245,21.735487126914098,-0.26400638625674766,0.5143366985507756,-2.295630287491924,0.3768433669735344,10.190771554981547,-0.28651938884194983,-0.10137321151834378,8.914908329927414,-0.03596445162156856,0.00022160845797658448,-0.15898981717734356,-0.020073550135282586,-0.02582502926912986,-0.04162108200589033,2011-09-26 14:18:21.795141523,6.720167690
49.01641864588304,8.353419615686718,110.9544023916347,0.12302750079316108,0.018386822104464025,-1.1174018331939122,-34.55639687262938,-41.93472722415267,16.17892798760424,-0.1532063858677447,0.08215582902756843,-0.7394881523799794,1.280282131195385,8.958787049775822,-9.16240246175565,-1.9899082417334464,10.001426995068936,-0.2245900999519881,-0.06995040555446369,-0.0825729356105258,-0.027182185912359973,-0.01400315287128258,-0.07050517041557956,2011-09-26 14:18:21.895177310,6.820203477
49.01538840595357,8.353300076583622,108.99931084958746,-0.0014367645411313308,0.015164253896586112,-0.5983507343449699,-21.345770302067468,2.7906703225954193,-18.547243855859456,0.16172707219989574,-0.045439357841054226,-3.900195919114922,-1.616910266396086,12.862687956019299,-2.54496680168167,-0.5094566855187075,10.89725517586243,0.13764227087521622,0.06680811876549989,-0.26321640724749207,0.040904134058352394,0.0014117602343344986,-0.10098415771239865,2011-09-26 14:18:21.995120023,6.920146190
49.01766345175838,8.354149077556748,113.06881275106562,0.014998164950677831,0.011854521933722599,-0.001347819032830877,-25.827215464926088,-2.6921821803867156,-0.4051067655715741,-0.3022168307552022,0.03652432388295902,5.119744053805027,-3.946821907825254,9.053748522625625,5.387008720112012,-1.1253013491161121,9.41225115239649,-0.00902867147693464,-0.04398282463266771,-0.29848553414316936,-0.016214672646684972,-0.021986370065783356,-0.05525867193388154,2011-09-26 14:18:22.105289887,7.030316054
49.015812028329705,8.35334500559543,111.45359484561675,0.04663393425110535,-0.030350584572224164,-1.3101463123670998,-11.458226515904409,1.307168615896885,-0.3179042296495709,-0.04606114395350442,-0.1418735815094721,-2.116699619462747,-2.7162317319777447,11.05207487580209,6.054404281254338,4.314692207791478,9.596575585244304,0.04529196027946679,0.05357870010943093,-0.12688429602967752,-0.0415332290579456,0.019852346589206652,0.004707281734543156,2011-09-26 14:18:22.205133368,7.130159535
49.020279301205534,8.351769213125028,106.71854088473181,0.012106760299478082,0.019946382246486496,-1.1271047822244047,-8.033194262194792,1.0430332910964126,23.715939490928044,1.060543481446523,-1.013965442243023,2.149219718593337,-1.08305773034464,8.139778951592442,11.80097401190607,-5.42706442517496,11.60399377044241,0.030104815135546317,-0.058107583127365296,-0.023434000188814197,-0.01238331160901597,-0.0038418868433632396,-0.06692934263895362,2011-09-26 14:18:22.305162753,7.230188920
49.01597899876727,8.352865932512659,111.34959522422139,0.007825909291586632,0.03393628623841646,-1.197974556724148,-35.46728325432109,-1.2971636230334909,1.0155395817902573,-0.21136223385952946,-0.15798894268620317,1.4711841895212217,-0.531610333122533,9.389121814241163,-0.3909975783223325,0.375601694029569,10.203516964526559,0.002908413480207838,-0.06906311864745258,0.6491045017562478,-0.02389462055607375,0.007118938093712179,-0.29828104215206985,2011-09-26 14:18:22.415161923,7.340188090
49.015284512556526,8.353402897580038,112.68043914620642,0.01910932281566855,0.022408012802925356,-2.0840066574029814,-10.533066032491467,2.8538054801446195,112.31405602811907,0.13593468849287751,-0.21298911046730343,4.165294941160286,1.0534448249529889,9.916758203041354,-3.6031643848070183,-1.4747825342004854,9.964007301355707,-0.040585188750735544,0.20317423561366524,-0.07055416310988727,-0.013802097497490028,-0.012963943290430237,-0.08471493014842331,2011-09-26 14:18:22.515184285,7.440210452
49.010125098528306,8.35340655399136,110.57469757285335,0.036729140041113224,0.014215340724786625,-2.3948346841339645,-2.913993730952572,3.171062956064858,-15.367123592278698,-0.16817290883688038,0.13669113179274814,-2.411172761068878,-5.053952514310573,10.752155620223574,-2.008192373436523,-0.6426292201652177,7.401777808424159,0.10796910090655204,-0.0251412392744407,-0.22946747118969765,-0.026747359102531267,-0.08846638786445106,-0.0753376981956802,2011-09-26 14:18:22.615387626,7.540413793
49.01267545174039,8.352811894990129,113.06412781998735,0.05953104914896307,0.02468643136760646,-0.7686507977807417,94.14543021092814,-25.843187380874586,18.428257430882987,-0.24683967486632058,-0.10761117319506261,-8.964962131740998,-1.8563197149367516,10.388998712723819,1.5030602180401307,-1.6171688290232424,10.085042162087847,-0.05689196589599204,0.024681888892440315,-0.3152581787190157,-0.07396372219209381,-0.010417762930328672,-0.1699785154498742,2011-09-26 14:18:22.725181592,7.650207759
49.01537769889713,8.354594752424529,118.40085621251814,0.04274114185291264,0.0714509418876519,-0.9270409169066294,-1.193541033036901,11.86426198866269,-10.339221693986978,0.13410293404365753,-0.04604279894122972,11.112611849662978,-7.196064797454568,10.16943456432086,-5.708676205003097,-1.301134903326821,10.502727947345436,-0.08817475832899195,0.02498503523524686,-0.167364911208026,0.1756687564590016,0.044281375500988304,-0.2920094277122116,2011-09-26 14:18:22.825192705,7.750218872
49.01259014337409,8.354085756821158,110.79988717167798,-0.013628845237558983,0.0029339744777016393,-1.303869468259288,-14.421903054149464,6.954651226430602,30.45052986156035,0.68410394133297,-0.010885785661479946,1.4434466495948586,-5.825105907309195,10.6932535673604,-8.400516001883796,-1.682664807523286,13.52102951933915,-0.038747103607138254,-0.07116070837062582,0.08505891299770818,-0.16920727206449684,0.019307873941415067,0.02685669419348148,2011-09-26 14:18:22.925162584,7.850188751
49.015899326799925,8.353718024039395,113.10280410122893,0.21118992239662243,0.027883228463912405,-1.2872632117470695,-2.82325765052975,-1.0721659426418455,11.2641403332686,-0.30447365710697494,-0.03157635288311004,-4.511898964667482,-1.011195567407197,10.147336028944123,-0.8948428885646749,2.327232077985572,9.550774800605469,0.06422345909915113,0.0465688332149892,-0.14782159683300727,0.033745263936873646,0.07289995433369606,0.1481574958429272,2011-09-26 14:18:23.035158398,7.960184565
49.02540360578958,8.35341014249008,112.82350502944412,-0.02870654535213839,0.04667986183807689,-1.6096911122913993,-1.9641700264778343,-0.1741228963161907,-11.402049046345205,0.8102078232133348,0.029499293236760073,-3.3739632499391528,-3.343188140055129,10.0167246156076,1.2078562937302846,-1.2283287741457778,7.777176826089495,-0.04404095831053114,-0.07766359704374734,-0.02526634942281579,-0.19526622816697708,0.04371014439087319,-0.21404419014916617,2011-09-26 14:18:23.135355530,8.060381697
49.01140995538151,8.35343103844662,114.03321859610075,0.0012816066168928122,0.011712520308066854,-0.6439303221962482,25.101710441561842,3.7894742549330465,26.53492404090156,0.05610856938639697,-0.192707139540101,-1.1078593489833,-0.49534100384245133,8.686590150419136,0.9383565034172822,-2.333152345700603,10.328207049760156,0.05259579039428162,-0.04567771249685363,0.9201097877888197,-0.061062897710464,0.0016824229524086826,-0.12395152058814207,2011-09-26 14:18:23.235195734,8.160221901
49.019369209330605,8.353329315448526,114.0228043947907,0.03827295984931714,0.08411846217183779,-2.3989692194467764,9.868844745832163,57.568927994330586,4.760043743501011,-0.07526430631475244,0.005391977453171909,-1.163251286192164,-0.06455550354888684,8.995285810465223,2.151937525639353,3.7660695532143413,9.401162910936808,0.09979356629244485,0.010368708928900443,-0.1227269124690114,0.05046748207720757,0.026223422197302487,0.11365423404607154,2011-09-26 14:18:23.345203322,8.270229489
49.016811890718394,8.354012845335133,113.46367258645812,-0.030096110578058066,0.02257692362827631,-0.9981884426289451,-23.05367033209215,3.0738405593109785,4.620256236133928,-0.09451344951090293,-0.04150370124584331,-0.5787222438514775,5.262047244045462,9.759644695571478,2.821174582078624,0.5607303295021904,8.486093405918501,0.013930151572401444,-0.004524984918283964,-0.15653066075591085,0.018930826481903737,0.005012040389308269,-0.031017386193460998,2011-09-26 14:18:23.445198845,8.370225012
49.01682969872582,8.352069342424743,112.93275217412825,-0.010334383044735575,-0.019427112045657644,-0.4837575975386439,15.735488831472386,6.029592743263761,25.88030814258959,-0.10092303938255781,-0.08900889647223804,-5.36518534930753,-1.9379618924410449,9.744653040415418,-1.8645065087653476,-0.6585061059788655,9.253388755441414,-0.029030891521135107,0.002621420845401747,-0.14599504098797095,0.03338938487346879,0.00628899000373482,-0.1292102041555322,2011-09-26 14:18:23.545217766,8.470243933
49.01533107816029,8.353422396641983,114.29988294221661,-0.0083126007737169,0.0014998641280016614,-1.128569921409816,-15.391054989477066,54.62226063019704,25.340904334924097,0.19265874433082872,-0.029179215337230002,-1.7954328165617046,12.520768049935034,8.395153837254119,-25.23908224288235,-1.4872541740767369,10.360914310945658,0.10316754812184592,-0.0461172250063186,-0.013529780326688307,-0.19498234695930666,0.05635662947159522,0.09562898425150444,2011-09-26 14:18:23.655262082,8.580288249
49.01436175900381,8.353451418750302,108.62689861273073,0.04698520802878266,0.029471520410407695,-1.1190869288017322,-3.0395105838334473,-1.1586405209414348,19.323076255951648,-0.11930714831517626,0.1764843499145379,3.133568443601778,-0.6426855542875523,9.414554474804278,-8.405841042111456,-0.3015141473084556,10.705291931118843,0.038964550774339544,-0.008355434087631813,0.29807538471878725,0.010733515152040107,0.03017327850251708,-0.08428695202949027,2011-09-26 14:18:23.755235360,8.680261527
49.01510182217484,8.352677558680274,108.46076936930763,0.06634362467523791,-0.002237859468520235,-1.5306445701407507,6.207241510294622,-19.84759469637655,27.61797640670316,-0.2042978816906888,-1.032975234014113,0.09705650016570655,0.7348026259444127,17.010117588308066,0.24700553236590594,4.422253046296454,9.611095236993695,-0.019173624365238756,-0.038623363026720925,-0.13251535008457987,0.00847901122699783,0.02282081475843331,-0.24574241589704468,2011-09-26 14:18:23.855215962,8.780242129
49.01738064206097,8.352434724273715,112.61857770562241,-0.036695921014287626,0.023622898015194585,-2.149975154396787,21.058578600343594,12.835580161280461,51.52736069738522,-1.127490933654707,-0.11351075170819483,1.4490057420063596,-0.857734133853003,9.661768707546326,3.3515221212374646,-0.7771605549427634,10.756218494537205,0.022977334954737944,0.007189698421883935,-0.10480994071423519,0.048221612908660116,0.23174699719259373,-0.16976179072871944,2011-09-26 14:18:23.965266799,8.890292966
49.01896288832693,8.353875512873167,112.57885157732167,0.10369878286874876,-0.01746967173072249,-1.2264588100210017,-15.18127661634405,8.623322585482368,36.18642975693174,0.13333620058142864,-0.03555251896358584,0.4977147177644228,1.9678382018585072,10.629610527394284,-12.254687117842224,-0.7541771086286042,9.020099212287294,-0.003751877901911652,-0.04018553168357362,0.10184891143064442,0.018242407976633963,-0.0037822324213369375,-0.17381739639170832,2011-09-26 14:18:24.065354403,8.990380570
49.016362330389875,8.353286942260441,112.2022477197891,0.033979637605645,0.012926848655705151,4.575831978171648,-27.07647482798394,-5.949384461055709,62.80953485219095,0.2256451798030086,-0.11435694672227757,4.2399558415305,-1.8946422824199742,10.194310668198298,-2.073198326077045,-0.7560262176470081,9.037323813904402,0.02750779370589837,-0.0685840379487549,0.026639151894978154,-0.05055158207169014,-0.015767979663195493,-1.0599715727602328,2011-09-26 14:18:24.165459118,9.090485285
49.02114545390716,8.35320213029148,112.60614563590379,-0.02892878166218075,-0.0002880667262410118,-3.356582820372555,2.783246108222478,1.8248430246742218,227.5424499519653,-0.13425667728372526,1.0067946078575063,-2.3282242533730737,0.4822299363471745,10.46102785040269,-6.1700641631992115,-0.9393290794485509,10.327587674478474,-0.035534103839902194,-0.05626258751309674,0.04203158406049892,-0.04061776786805345,-0.01973948852944668,-0.0021114134676410747,2011-09-26 14:18:24.275243473,9.200269640
49.017804985862064,8.353475401909144,111.76833968332652,-0.030807063529701015,-0.15530755886821795,-1.420424345565329,42.2434264097505,3.1160556856832766,15.637392998404803,-0.061776563815082355,0.42809916471693715,-1.0172091831391403,0.5125625979574974,7.926617725545461,-4.282656493347649,-0.7585469301267038,11.340588505472242,-0.0656849009789583,0.03713820200197826,0.018166057968660415,0.10351122817211578,0.0629600815463906,-0.7080405536027959,2011-09-26 14:18:24.375263539,9.300289706
49.01636465588939,8.353275333592526,111.99797000735305,0.030244485308796306,0.00861393658957967,-2.0088093192392913,-39.77219960698608,4.249085528142306,69.33578870996269,-1.013046526347366,0.01873545533656867,-1.7535073827379621,-8.082423142974195,10.963218481580611,-1.9608281474435512,-0.34733568983533974,9.889345053409992,-0.02205839461105931,0.015228237412390846,0.08675892174568588,-0.046722369363927485,0.032711474076757334,-0.10795101258251569,2011-09-26 14:18:24.475223282,9.400249449
49.0166906093447,8.352754662845804,111.97392517388019,0.044315431689532475,0.044157690153441384,-1.7247026077467777,-3.3153392759225557,16.424917003949805,-0.024920224576632677,-0.1582547068166773,-0.023794850153116085,5.520480728400723,-5.40554819394518,14.627622794998985,-1.0708253150437077,-3.467850525226585,9.593928496890648,0.019033718129386454,-0.04799502753179177,-0.05591583899147694,-0.036582993555952105,-0.2340027083854611,0.8030946582407239,2011-09-26 14:18:24.585475892,9.510502059
49.01683383114052,8.35375455548122,113.36844470950028,0.04091074179471321,-0.0011710599186591768,-2.2708210154336967,-28.345530367598887,5.861379715566171,-6.0468603486291705,0.018498082557286896,0.06470966348461636,3.7180989688860713,1.2936101473870583,9.01782371290122,-2.299144609960368,0.2977547117008298,4.5043472387679575,0.006925410710013244,-0.17363246078589642,-0.04671369606480961,-0.027890745229617507,-0.024357159077920527,-0.13933537736306192,2011-09-26 14:18:24.685263070,9.610289237
49.0157591780143,8.353499794050148,114.24648710375943,-0.011211306617095365,0.023106784196682953,-1.5360845672501453,1.7485695811631867,9.23606323973852,37.77792553519948,-0.10759109757271451,0.007993783883869045,0.6014170809691384,0.9590220214888454,10.032086084073851,-4.8353391631219615,11.39800441492272,11.768554736656244,0.0019122828240593645,-3.851220959720861e-05,-0.1439821820629101,-0.47285141748710136,-0.0066737760916806554,-0.9288874854328941,2011-09-26 14:18:24.785257352,9.710283519
49.016434720127066,8.353088595154427,113.10767810363419,-0.05739846522965644,0.011164309914041295,-5.454416363976911,-8.14954323283895,-3.518583833985649,82.74319883399724,-0.18003568913385162,0.1532129743569156,0.22580612705249625,-1.0344727187089597,10.577138057974073,-2.8835336441212376,-0.48649087638311606,10.608248689974623,0.09436909634425258,0.049809999384232945,0.18582030024033622,-0.021485108248257865,0.02460622885119401,0.0695792351566665,2011-09-26 14:18:24.895289401,9.820315568
49.016452491987735,8.353491105262773,112.84970208813527,0.054437288915819594,-0.01102779000452645,-1.5363123968120136,-15.178419953101187,-0.8003764055202118,-3.8718627503082477,0.1440399142588122,0.03074430436652301,-4.751062426606497,-0.820210895331341,9.565390456328458,1.3242168496315625,1.0853361487628763,9.79661473791333,0.06576645102795702,0.037515852132867,-1.0424023927313943,-0.004091895919178632,0.06900967012867223,-0.06777923638948177,2011-09-26 14:18:24.995253547,9.920279714
49.01638173005406,8.355310734053468,112.65321528812926,0.04121059428503799,0.005110431193088568,-1.8230811935181093,-31.83696539671739,-7.7015021714572285,19.09273480051212,0.014065733537865947,-0.7587304469032662,1.9215992684217467,1.2424673472333114,9.450640316654052,2.255406148008314,0.9370834933466459,10.211499037303192,-0.26231559981688185,0.0531330557229142,-0.9198882207456012,-0.039251927560290736,0.0692854381555102,0.145174817037071,2011-09-26 14:18:25.095448601,10.020474768
49.016953604346206,8.353075665336112,113.71482925895936,-0.005705465990451568,0.020825941471670682,-1.7791343328858193,-16.096819771857984,4.200809106705984,16.759904223756912,0.07642683986270636,0.0017608415709940706,-5.531778141320441,-0.9567725869250752,9.49390225171711,-1.6924802331901962,0.5373495520643718,7.54599319367895,-0.05285419802694308,0.01953687720121713,0.023658268229032012,-0.009569593708179381,0.035058377182281386,0.17199414473702263,2011-09-26 14:18:25.205291801,10.130317968
49.0166556241187,8.353752794021013,112.44954995602076,0.0629292839209715,0.002524518213888511,-1.2357244645582246,-14.311305592352205,-29.684451599166465,13.598938716892937,0.11625711501766359,-0.15757780242964065,0.5273860285150878,-1.0563783591006393,9.69575004830733,-4.471676165468269,0.8854109033103867,8.903079230776795,0.021028592003398613,0.027588520722310605,0.06507795007482962,-0.04564370897954603,0.040759875051207074,-0.15253255521121364,2011-09-26 14:18:25.305256129,10.230282296
49.019544761964845,8.351516668825548,113.69862617845763,0.0510211634541843,-0.0008958474190607253,-1.9714273734780279,-25.44861993440627,2.1024852041015976,25.43435398999554,0.05049116369927956,0.7185926744712885,-3.361212549581699,-7.3122029171165295,5.679917882613408,-3.6639819707435324,-0.37720763275603253,5.53852897711643,-0.20152244331768127,-0.0059489318522231525,0.046879406810804054,0.011269262911699903,0.05668864343964484,-0.011845621747820098,2011-09-26 14:18:25.405276038,10.330302205
49.01693245419597,8.353066693616674,111.48801435790979,0.05940288976708456,0.019825589801013493,-4.002839208757968,-83.46418922051282,-1.160230915876721,20.214965068640808,-0.07940015015463615,0.04968736411056471,-1.1209170039782919,1.7391553815690788,9.715212996101455,0.09734337871070398,6.535827815271677,9.869121011546365,-0.0010910973704886797,-0.11746639422354956,-0.08779169624393393,-0.028252319089469888,-0.05280398231284311,-0.03681272191901582,2011-09-26 14:18:25.515293217,10.440319384
49.018164653636035,8.35275725297185,112.57168110012762,0.05969202502331476,0.049099297078273554,-1.521165432141669,78.597320251588,-2.9766237862529765,9.59547296625127,0.13952758819365083,0.1859040053028135,-2.7972818637204884,-0.6571858120646504,8.863887007652213,-2.8886581017876827,1.253986667846324,6.240007915099733,-0.06411192257372399,0.013200116913651192,0.0192826713712849,0.02458131876083334,-0.04696417080396123,0.04533066836802441,2011-09-26 14:18:25.615457491,10.540483658
49.01806889676305,8.353824085988984,113.74559091582148,0.05390916581760129,0.04141447479193092,-1.8675103493941652,4.791440263018339,90.98220874342667,16.175208707827487,-0.2153639817149361,-0.14795879265399278,-2.174099801251005,9.667773416503556,10.30778668258457,-6.747228929822464,-0.3595319165853029,9.649652830361257,0.11060089178709757,-0.019358224514936948,0.020260348674073864,-0.026029814517217385,0.05595404206871734,0.11737285809463169,2011-09-26 14:18:25.715315296,10.640341463
49.013117185985664,8.35362297899852,112.45924087369048,0.06365063129749007,-0.0028409030403456215,-1.238306954480649,-4.349318824839568,-6.272523703949245,-10.593940239996382,0.05871157952048447,-0.0881251241800837,0.8651802908950386,0.8998630344043946,5.080575194467372,-1.090207633402199,0.714788831048454,10.830940187205375,0.0919855803353356,0.014159577197460697,-0.10752690128332155,0.04147845262015216,-0.005060653046688941,0.14097900527891663,2011-09-26 14:18:25.825310362,10.750336529
49.015276174209355,8.353617983624444,111.23356849395824,0.0801982856595482,0.016407278603797603,-1.4803613640757747,-20.277462962679355,-4.944339863678873,24.171016595230157,0.05831510343688356,0.054846650684782325,1.3698574517487097,2.1794214822215925,5.003527813944039,-3.089661676137618,3.327544859162153,10.448648303263292,-0.03155448199530858,0.02777103635441789,-0.09356406779672001,-0.04167012251195596,0.005774911031086648,-0.006149696184351135,2011-09-26 14:18:25.925331659,10.850357826
49.01906634959075,8.354470701344482,112.25968511954164,0.07810893605776621,0.030593600351605674,-0.880818264141743,0.18994422397775246,1.5590531821574287,4.297756594292795,0.13080165695115936,-0.10202658793371479,0.20305912974454343,0.21240495336540755,18.255318578069744,-9.203388354505917,0.24748667542355482,9.414261172528136,0.08357474194906912,-0.07554875806382648,0.1571272326171467,-0.03929039181464057,-0.21044372643203063,0.21400812238162165,2011-09-26 14:18:26.025341474,10.950367641
49.01683455754104,8.354922029555834,112.98978168918684,0.012948255894577515,0.07287738553564109,-5.98210437119636,-9.418993337369551,7.199480397491797,33.66308453814525,0.16441719299773544,-0.32996761704666944,2.7899819327895985,-0.24088872460275168,8.516430997046845,2.3346277327029346,0.9842489334697806,9.396314236253412,-0.022313487930526416,-0.024690639906802307,0.11418505930279135,-0.005763689034246872,0.027986692767444758,-0.038987520129919274,2011-09-26 14:18:26.135485729,11.060511896
49.015555818444206,8.353380852827655,113.48524879866197,0.059424837728704286,0.07450156435938883,-1.8173302819016417,-81.64273486379894,-24.68792678579597,9.47479833527616,-0.2407866360296242,0.34205834059112294,0.5317688393876632,-0.22746425811539794,9.785077650277525,9.638324572401531,1.4405466085912728,9.217897223621875,0.003486377639275458,-0.08608802205916538,0.053237270977029225,-0.0013295265774336713,-0.06344809192598014,-0.07844717628541198,2011-09-26 14:18:26.235298701,11.160324868
49.01594773013158,8.352760848216079,111.89480481152822,0.07071849033069341,0.002087189428427538,-2.450238185084837,-40.54467146249022,3.3403739416747493,30.33797479227185,-0.03575754787605171,0.013493304369421907,-1.2072004589806207,2.3965992649264156,9.273077717358388,25.865134934974517,-0.5973635972638363,10.474791686165586,-0.049923536579349045,0.06585310434856546,-0.41087522426449913,-0.010434514691209758,-0.26387055181444913,0.05779185588993119,2011-09-26 14:18:26.335298911,11.260325078
49.01626977190895,8.354183280475004,113.30521167797416,0.00783792232167746,0.025779154651980305,-1.3850473546674111,-24.782060262032264,-0.021222803593979656,-27.466399459200762,-0.17878611570891673,-0.18111923921804363,-1.1268730451660898,-0.5816170000101407,9.804323717636674,-4.761918958098912,-0.742807524858405,9.994578063100922,0.003878104180057719,0.17414442343675365,-0.02590927687376195,0.008878683944829376,0.05711748127586679,1.1214829405920175,2011-09-26 14:18:26.445323570,11.370349737
49.01702167658429,8.35262080585368,112.57289791844995,0.06256928344314296,0.03709811022186748,-1.336984812589071,3.7140204695394115,-2.653832535139436,-9.580361384913738,-0.3496213721121033,-0.22376162316621673,-0.13958567267164979,-0.5549519167448381,8.842370413608009,-0.4287690085372974,10.205601240234946,7.747121445922838,-0.015977307069929128,-0.0741914363702972,0.29288961286237775,0.04184914918959372,0.01426087239330655,0.008474427472734077,2011-09-26 14:18:26.545317841,11.470344008
49.01679194682164,8.353340001639973,113.93039365526676,0.22025138445181572,0.05211175366503848,-0.7666831474585711,-9.39623271158444,-7.426036681037804,28.38495457074552,-0.06427495675575104,-0.06033027969099758,3.1531174207096475,1.1814852583572448,10.228812465619127,-2.1225568742838155,1.9847989669946877,10.335336008899134,-0.03369855073500641,-0.05440046002951697,-0.15413845910186758,-0.06259558772032166,0.057045737637761544,0.013713752291625088,2011-09-26 14:18:26.655358215,11.580384382
49.019082052812315,8.352598457302863,113.13322608388135,0.07227075866580032,0.031107933652941594,-1.4935806622509018,-6.9341946598447795,-2.0443172984444766,25.581973972575533,-0.15864801788745722,-0.15589376652178602,-2.3916084505948034,0.42264179555181447,13.006207663704483,-3.941292120488961,0.5051568312260131,8.911234116411887,0.01687544949332401,-0.0455729681066449,-0.006868100640799273,-0.029807980553954366,-0.010652419798119964,0.13777763523797118,2011-09-26 14:18:26.755320135,11.680346302
49.01657914950666,8.35491463999349,111.77260856902187,-0.34342785865330644,0.008817799905989802,-2.214689470933017,-19.48090725247284,0.44814028354517466,49.78468905636238,-0.09540045835444198,-0.2310331987171638,2.882061144118034,1.4434704990131695,10.309053118819758,-0.5278842682288902,1.2319807200923174,9.163947561941184,-0.043213852616435254,0.06302956021890144,0.1570776398874142,0.016120833123547628,-0.03534467524387017,-0.14794263269730296,2011-09-26 14:18:26.855358565,11.780384732
49.01566564951968,8.352875930957211,114.22738381104223,0.08130776132475788,0.035720681435063836,-0.992618704647916,-13.561625764634552,6.987608087794875,17.4460196564686,0.03519066713574286,-0.18373843791206657,-2.6231026822572114,0.7549818673260141,8.889313577087119,25.155894915491395,-0.12039391363875836,8.510407481574575,0.01951519026777611,0.029092416437708317,0.17296785087865985,-0.10180030862070706,0.08346417079378608,0.001916281972957918,2011-09-26 14:18:26.955375649,11.880401816
49.017192319985625,8.353874209458315,113.54292471260399,0.03932372481661214,0.012564777876855032,-2.5211386938587053,-0.9885775168891939,0.9273005409888981,3.7630489061728154,-0.17858907107260813,-0.061317324501062045,2.0178993103162415,0.0081360626527886,9.060036161664,-2.2186496313622817,0.421869287459107,5.9456521371281426,-0.03330408591602377,-0.04286355505091276,-0.001198083710773029,-0.0020777459537588932,0.060707995851011304,0.05654473619775376,2011-09-26 14:18:27.065594226,11.990620393
49.01551553024279,8.353822960745948,109.9563021155529,0.03290837320571682,0.02510216218368121,1.6813452365553205,35.57548508435041,-57.78647154609664,38.01478991503603,0.05898685732056937,-0.110333209235424,-0.45105087719631587,0.5868259692327686,10.173919910635592,1.2779971423196939,-2.535879697331708,8.413022134734245,-0.019350003740213863,0.06899779521283966,0.05116179370100293,-0.015021787627018857,0.04145176352024001,0.1562625372240024,2011-09-26 14:18:27.165521074,12.090547241
49.01638486894129,8.353085612846497,114.56277796074626,-0.0062724421843692625,0.010761423992024682,-0.7235259452962503,-9.399401463832337,2.731883886148962,14.61234650556202,0.025936300561142836,0.033330112893624725,3.7804132436370033,2.3041944130654968,8.862632290797956,-2.1216057151052357,-0.14264400197814708,8.06682086661533,0.04677432915262611,-0.0514524507164549,0.02832676599370134,-0.03567576031475238,-0.05080798240586891,0.49437000783502966,2011-09-26 14:18:27.265386004,12.190412171
49.014148415376674,8.352532839064027,114.18767349118697,-0.01674946664625453,0.022439554590860153,-1.6977248037516994,-18.895921179888198,2.5465465596856194,41.192925626366204,-0.015462152969597215,-0.1895087579044456,-5.037752096749805,-0.6841949324072456,10.463948473003674,-4.41754471708839,1.0434066917744638,10.819010415244902,0.0022270115819622363,-0.06816399232200436,0.15895120176013666,-0.050196193991309215,-0.02607604532887061,-0.04913310071357205,2011-09-26 14:18:27.375367298,12.300393465
49.01579639483728,8.3520322633756,116.12226163979578,-0.03698605219964954,0.01478678153135601,-1.3971703809431053,104.36159964413069,6.963158078620117,32.00460274727308,-0.09042118936439068,-0.059389548300896336,1.0804463094538912,-1.7308273678021655,10.161502031751814,1.5870245395527272,0.36157123238815914,10.853656184527285,-0.04461681107941118,-0.003229867967922309,0.006796815230234333,-0.04778917386452129,-0.02451760478751375,-0.06026728948150149,2011-09-26 14:18:27.475338327,12.400364494
