lat,lon,alt,roll,pitch,yaw,vn,ve,vf,vl,vu,ax,ay,az,af,al,au,wx,wy,wz,wf,wl,wu,timestamp,rel_time
49.017715692015706,8.350321950523911,113.02376099792565,0.02089809163622792,0.04613409914104385,1.054967437036526,60.5511336869114,27.94669640171169,17.669027770812818,-0.8010493754962136,-0.09895129574613425,-3.721423146136643,-2.461209798046174,9.627020326478323,-4.286311139414106,0.4323049765627169,10.009473081867213,0.02093371511537228,-0.005781801621141088,-0.2503687658644437,0.0020171046144224244,-0.01705433774357748,0.08216944238253461,2011-09-26 14:18:15.074973833,0.000000000
49.01530902679926,8.35183868889021,113.2492380921846,0.07774980806060869,0.019850522582415292,-1.2908665433092228,-25.89021337441391,7.049293093024786,-86.39754775385609,0.0015327851828871898,0.0857183708090708,2.3189946966912185,-0.9627360739442321,9.655904187348277,-10.356342793143016,0.4388903998076405,9.492109142002738,0.07066269278815791,-0.021124067470387194,0.015749799407821088,-0.03770484615349568,0.04988785825058821,-0.18893413054888958,2011-09-26 14:18:15.174918730,0.099944897
49.01770202217915,8.352761218519214,111.77063249003663,0.18680508022798378,0.007493149281976962,-0.10332476560261816,-29.939544900595887,12.313754712887391,17.750117343753143,-0.28748619602698294,0.004176856563773507,1.6344662488478006,0.9352562861419413,9.9176961996806,-10.566023352975456,1.3033346097441632,10.680614569272736,-0.03439504675728524,-0.04414046320828137,0.0039918446502909995,-0.03799256440316935,0.05611603828314045,0.8903284129860428,2011-09-26 14:18:15.284881629,0.209907796
49.02086814678867,8.353506832128355,113.1132774149886,-0.026151299642157233,0.019842826020741253,-1.6076759522240658,-20.93150501837906,10.90122505979512,4.950349982925678,0.011139700105391802,-0.03733663330723351,0.6795516447924208,0.16166797825088797,10.44504770127315,-3.571052400771636,0.19987551846151705,11.943328132576532,-0.017975437404589102,0.09034363619333281,0.13164918576954882,0.05145241668833232,0.01322398772076526,-0.07935422322151006,2011-09-26 14:18:15.384866939,0.309893106
49.017987740754556,8.352453801059502,118.69270225869349,0.06625834665848418,0.014800412560832893,-0.7382152299678628,10.00946718909655,10.505109810411987,-6.637009762588104,-0.04275673629982369,-0.18232713713540383,-5.092579576017752,-0.09039314050059724,9.67012435039377,-0.8343864244715468,-2.89936223350517,9.97810185815311,-0.030145256530848624,0.02447437024501643,-0.14662732151615487,0.09280628753211267,0.030376526882452227,-0.009374017809693887,2011-09-26 14:18:15.484850174,0.409876341
49.017625551326546,8.352585912026742,114.64882182340747,0.016448016845039555,0.02148212480538707,-1.0770346377719295,-15.584820545821195,1.9516695263151411,-8.283900583574516,0.011082615563333658,-0.07864201659427184,-26.668468919304242,-0.5825996995886785,9.385378321467824,1.6688210869637377,-5.959674682329774,13.29188971777624,-0.15106446805872772,-0.01434564676781479,-0.039091767130282104,-0.006611753873494121,0.029107610665116607,0.1114286569127289,2011-09-26 14:18:15.594974021,0.520000188
49.0214179503662,8.350848813798537,112.16648205282888,0.09253691657843427,0.03610768055690054,-1.944099278067971,129.13690635178955,-71.23084165341237,26.033501348871567,-0.04662343036795716,-0.09920462612366643,-2.9092324945413863,0.15236142683170215,8.638279518393215,0.9824225716481831,9.274070027266053,9.299965795556705,0.06822865350150756,0.024663164809845376,0.10750087406337056,-0.06597258579780227,0.037833156642539556,-0.029506692469415178,2011-09-26 14:18:15.694868121,0.619894288
49.01889509364858,8.353101823724877,114.11264005107489,0.08300047332368149,0.012325108209674574,2.957393421566648,-29.490744998952557,-0.23986011334775803,21.141442799010186,0.1611128646588612,0.088514498619362,1.3295403175927003,2.9083778820629624,9.935332659763592,-4.992662401529885,1.236503242109791,10.816616072020713,0.05946814712321634,-0.029754958812728036,-0.09650697586870635,0.03866663114521061,-0.032075544124987004,-0.04224709864638869,2011-09-26 14:18:15.794886289,0.719912456
49.01778247495954,8.358685923830185,112.68955737877337,0.016361297052571683,-0.004028293087757437,-2.358956948653113,-3.3322889704501115,39.061644898039916,50.01632189125644,-0.03441072131209986,0.03821993996551244,-3.103997167645077,-1.0141215749930061,9.483227197228395,-0.1766631826995223,0.6521664462220098,10.099287630872412,-0.009542123273077296,0.015948640538916536,0.061175636401377714,-0.011379764468969033,-0.08837767426902159,0.0002780399252254595,2011-09-26 14:18:15.904871277,0.829897444
49.01781164849718,8.352444653767302,112.43676864897058,-0.023369586491109012,0.014148402057891021,2.7966806708475813,-24.741094971540008,2.5846691263285924,-1.5961814796147404,-0.02494886500640545,-0.08092628613725718,-4.024945903837562,-1.1321837490596116,10.130582658214948,11.46434785986147,-0.10169889347852702,9.949232850262794,-0.005651121967677518,0.14117229060073433,-0.0538908265729138,-0.008020411288490433,0.02560265502115724,-0.030039063545112286,2011-09-26 14:18:16.004937951,0.929964118
49.02513176694534,8.352459411505968,112.00883068564175,0.04016854974810709,0.005028656218795689,-1.0548511162349907,-23.28006794368166,5.351534783113033,43.4513479804054,-0.06343438047757893,0.09961289320256074,-4.3419433880450455,-4.11720735130392,10.799265434700128,-5.924039932141226,4.712226312147246,9.939644739668077,-0.05923422507624015,-0.008152371533710907,-0.10483227208780886,0.1511153598687243,0.02314521025225757,-0.06870837563269325,2011-09-26 14:18:16.105096350,1.030122517
49.01885051938714,8.352619126184342,112.0194647352224,-0.006810758928353623,0.06540419878672918,0.9497749833467573,-51.00586307652986,12.370323391047894,-36.49102394763238,-0.31438841184935507,0.07896198620902396,14.161866235672663,-0.1735916496537237,8.405103117101726,-5.1535898853178415,-0.43680816184636,9.692511855210084,0.006788225498214952,0.02172370242980356,0.13904378263996403,-0.04510256301418966,-0.020403979901030996,-0.013813025282854679,2011-09-26 14:18:16.214890474,1.139916641
49.01669354177845,8.352254095468991,113.59281443555739,0.03119967862176457,0.04444286449012985,-1.8684625888432889,8.258427595007197,11.057208174891407,20.318145717407855,-0.14585631477663902,-0.13211422318513574,10.801624227160717,-1.3386330026989024,10.608195125276382,3.584043324739101,-0.6952850577548123,10.299959776552434,0.028763745286149507,0.04652402356874816,0.045029884612113075,0.022701325280879855,-0.06705894720935197,-0.0800752562063644,2011-09-26 14:18:16.314898014,1.239924181
49.01777478349203,8.352530867179059,112.17648001017474,0.042727610262321865,-0.00492943202968716,-2.7185300430397605,-9.913204074598074,8.355070020074223,-10.517268227612064,-0.1838798784391365,-0.09813182625169556,13.38754702958624,1.1593258837251925,9.446636225967787,-2.7201979968061165,-0.46863991800474286,9.95705725384811,0.07650191173072607,-0.05097616116670487,0.056007784294577985,0.01367579282161984,-0.019527040762341154,0.16631500888830003,2011-09-26 14:18:16.414925163,1.339951330
49.00764951941681,8.349564624821141,109.14824939601878,0.036604852825900445,0.05442644448815411,-2.0354273637431626,-37.72432677804933,-6.4968862198159725,-15.32204995436656,0.12601353534259596,-0.23129319980565918,1.9101206622561733,0.19125225995442366,10.075756378293917,1.5331666243554671,-0.311385049832921,10.156011779971104,-0.02897441771474543,0.02695635825685506,-0.31320373500065923,0.0011904815274862662,0.0008501646894061705,-0.051089707110947916,2011-09-26 14:18:16.524910110,1.449936277
49.0177761508323,8.353074332082368,110.13066551056495,0.03932566385378102,0.051261890568363354,-0.38545561193589506,-40.11490245803902,-4.969330602896226,13.78530168147869,-0.45283711342623234,0.030863803038591296,-1.040941788460723,0.6052740897072224,9.615626745121725,-2.523304432245731,-1.879020547000644,9.096882185459958,-0.025169660903024756,0.1912627888062623,-0.23145696215221553,-0.09865414016879645,0.03469419131414744,0.07907341624091214,2011-09-26 14:18:16.624968028,1.549994195
49.017846951580196,8.353356896733963,110.83524483238016,0.025940698427992195,0.0017117142211549152,-2.605679095189794,6.803111281753095,-20.922957320768823,13.593401701693333,0.04009079304396844,0.048921821518993214,7.577217183612345,-0.4566330316539774,9.574885899998804,4.458958725047987,5.591919382914769,9.377607346928546,0.013765684300512266,0.1577197328104571,-0.05017882758345854,-0.017653737459305815,-0.07094616095907096,-0.22766408192717816,2011-09-26 14:18:16.724986785,1.650012952
49.0186433831593,8.35240707422475,112.40407319498408,0.03792482015321577,0.03080907628367525,-2.204509502030205,64.28883518970454,17.196760926779703,24.05907051871935,0.10896015795576534,-0.17092931227236519,2.598014250431686,-1.615374253263829,10.447831487762278,0.45036216980862814,-0.40030344920154454,9.732711925780931,0.010394233999134007,-0.09875697875115112,0.11644357364244333,0.10361529710318469,0.5353383668159062,0.41303776627187866,2011-09-26 14:18:16.834947476,1.759973643
49.01831967601231,8.353318935507176,121.31199528359323,-0.021173629663106534,-0.008469529999053536,-0.11150428073680785,7.041142643399585,-1.494972143373401,175.87502892768998,0.039630113583921524,0.06567944944189029,0.2604398741860921,0.4462640745591564,8.68794884954588,-1.819365550174838,-3.184608836699155,12.926625983936454,-0.014978202598917172,-0.023490299060461024,-0.0844327862060325,-0.03009761898534763,-0.0508149652979442,-0.9878841512714115,2011-09-26 14:18:16.934947539,1.859973706
49.01837838147419,8.35263019233908,111.65515727644384,0.13932751504766247,0.025575629083160627,-1.5373427757822247,4.877694279759343,0.20838832076498726,13.229144184926843,0.1726220924883832,0.22893391824030765,0.5336933203799661,-0.21113841130717867,9.886637937732841,16.622268640003835,-0.2480969083444788,10.000284209820462,-0.041377982931599375,0.0554571170309145,-0.016241411500463286,-0.03603082092746121,-0.01789273324236606,-0.1078717703204388,2011-09-26 14:18:17.034933414,1.959959581
49.018923078117275,8.352198797847937,113.48875190244667,0.07390715327556739,0.0023119929132230203,0.3320243350190677,-21.9407525535307,0.13526332031775556,83.80356081547163,0.1372935774331126,-0.026540110422212868,4.808740025869115,-0.1810470132278042,10.03584925655326,-3.5923974469814004,-0.32328017423063476,9.11883141763453,0.03957196894043969,-0.04814241071547774,-0.10989504824386487,-0.057599761544800156,-0.02094106214672008,0.06508507236494715,2011-09-26 14:18:17.144998329,2.070024496
49.01884001787617,8.352779060413487,111.8367041631673,-0.043270324366419186,0.005448610819352676,-0.676168978428889,-21.6699085515124,36.04622676349347,-4.072210187312491,-0.10417384356767223,0.008532708054071265,36.01878537308566,-1.0004808581042632,9.747468186439328,2.362471532033869,-1.523709052439348,11.382978943771784,0.10355240731098377,-0.0008467409128932724,-0.0761543035164461,-0.03302816325982295,-0.019212734841904847,-0.05444681149152877,2011-09-26 14:18:17.244977563,2.170003730
49.018164054831914,8.35239471356549,112.15188889661647,0.060146381057676904,0.03493069581734845,-1.7588990305188519,-22.16060207518811,-26.285084981433563,11.06330808800354,-0.10059621714969888,0.06531253589267914,-5.354907953600522,0.29948147616463744,9.210552690290262,-2.2032777321361063,0.7138854634732978,9.637805003651726,-0.008010246152091418,0.018046234631195434,-0.13003466288919024,0.04632247215405211,0.06289746427929248,-0.026254777709746616,2011-09-26 14:18:17.344944482,2.269970649
49.02117839333572,8.353077200493628,112.466434106433,0.0694783859154781,-0.007170521987554742,-2.152785489790346,10.707791890740527,3.3240265145295638,28.738049538158954,-0.07138576499815517,0.1108779153845095,1.831189063111494,0.34312199975834645,14.358147304753462,-25.000817831879207,1.314851171536657,10.355980601394723,0.1266186917156926,0.07238528702995194,0.02882276636792318,0.0038600591467844135,-0.05290713955335602,0.11582632894540398,2011-09-26 14:18:17.454984761,2.380010928
49.01711846373975,8.352633449959592,111.93396658878213,0.05348805960037036,-0.07229292659143996,-0.8469440301317606,-7.749583509089093,5.720980197684506,12.485746449230888,0.08479802082010639,-0.025705679112950533,4.731464316231663,0.39401882083817547,10.068116554209752,3.4266059380827714,0.3527533073976404,9.30804222678568,0.0029899198676496853,0.051034904521820884,0.10539003357787502,0.06194189543917398,0.00863490571547336,-0.18933629385749717,2011-09-26 14:18:17.554980557,2.480006724
49.01675172199688,8.352987259198192,109.3601603049959,-0.009391864195127192,0.029047761797777853,-0.4235443532825782,-11.866519720750665,7.505531957222383,-1.2086278477408214,0.13658751487662749,0.7653117882897285,-4.223896859271192,3.030144436967822,8.379436327315751,-5.069532065254171,1.4601689933903348,8.112346122159904,-0.022665932025042277,0.006442060033724861,0.11360525475232468,0.011583101793920917,0.036966498197037054,0.013733725568254704,2011-09-26 14:18:17.654984261,2.580010428
49.018437115257726,8.352850408891713,112.57196495888498,0.03500327496299109,0.12748943828362522,-2.0059780756441796,17.590730194380285,-8.24531914072795,-10.055789607314466,-0.05993232375242728,-0.21091589255832874,0.8717898447087123,-0.32213797306434,10.182807779129988,1.163673604795957,1.8400282263686194,9.40837000368977,0.05483637014326326,-0.08433668484416824,0.10208903425172611,0.028868686230082444,-0.06620527327974247,-0.36570724715152564,2011-09-26 14:18:17.764949645,2.689975812
49.0169782003269,8.353662141743916,113.25634400795988,-0.14444664896420698,-0.08130641824982668,-2.303943636987709,-17.343921380665314,-1.769866351828405,-47.18251579466963,-0.036219931434746305,-0.10327803229482259,-2.456573676459391,0.6335862796781994,11.355637513608125,1.6888897973428105,-2.1752679767734495,10.525047330605386,-0.023275965438936577,-0.13952961782269724,-0.06697986444149898,-0.06890009523693813,-0.030836390025614595,0.12007056228492856,2011-09-26 14:18:17.865018785,2.790044952
49.01649862005558,8.35295689365733,103.99028250530527,0.062088693227881506,-0.001462097637044045,-2.164807291810638,-27.092737933953885,-0.9301608646904667,-23.184423288868594,0.06749736220826316,0.010792327540330987,4.193234007015038,0.05196206387853897,10.187920687846594,0.9006464202696238,1.3929062154043839,6.135418370423187,-0.08065978888704002,-0.09663045234451469,-0.023285416513628875,0.010931229783219337,-0.029448967507418593,-0.13674095717182508,2011-09-26 14:18:17.974988196,2.900014363
49.0190688912294,8.35198499607472,112.01554679970306,0.05462380921190131,-0.0010095405429804433,-2.0848593544455007,-16.36419658076347,5.948590648498729,85.067662702434,0.033810317041476405,0.044521102509898464,0.9171667916861742,9.966780572697635,11.056171814219596,4.60158859237827,-0.9429235121740788,9.074860950562618,0.0050424164104127655,-0.009665414077725868,0.06200329031509961,0.02561070568524093,0.011018135607774818,0.2979442457921489,2011-09-26 14:18:18.075188993,3.000215160
49.01609813649439,8.353234911714,112.67832671999425,0.01268094673627139,0.006181668019871521,-2.570335086909903,-10.95189956056915,2.469132804650428,31.46951618513269,-0.16412594698553398,0.17707299928199388,0.808036971316743,-1.9291896488418274,8.951696991332142,-1.1535900842120506,-1.7535147742330968,12.192378150784421,0.03856307807888906,-0.26284521652452747,-0.38065685812982675,0.011330313849817178,0.02057761403054638,-0.12760646349720173,2011-09-26 14:18:18.175041028,3.100067195
49.014989505154524,8.353189997701211,113.30293487956456,0.09647707319587275,-0.0015126394265066751,-0.2620809367516589,-26.006519019130963,-2.513688135989633,21.963539607927274,-0.2833132262470477,-0.04781141539432829,-1.4515693758915484,2.0779615024234834,9.27985222119429,0.4417363974202465,2.1057731321709467,8.033443444806798,0.023958856350122917,-0.004800977860495222,-0.04053853485483075,-0.012822187298266887,-0.050527753828739023,0.1001971863260227,2011-09-26 14:18:18.274983897,3.200010064
49.01442272116846,8.352463029004277,113.34719165079268,0.07451615884109844,0.023559983843694156,-1.7105305554897483,-39.1044501323085,14.035859700763625,26.75937579397813,0.11674622090674858,0.033189924708840426,-3.357934841308502,5.973271768697986,8.515722791495516,1.4691878337135982,0.46807539116348196,10.211999479106733,-0.0028055466191889648,0.044115865644884844,0.42587348911266304,0.027676387215327954,-0.006517391395755101,0.32491422247179264,2011-09-26 14:18:18.384960923,3.309987090
49.01648718761196,8.353482700398272,112.7841538250149,0.1762671071961229,0.032831347796189465,-0.832480961273127,2.996607364007957,2.420104396967368,18.257666913125412,-0.07162012848003008,0.13416610675981577,5.622376458196149,0.14527313988436935,15.125966214768203,-5.280228510819371,2.4366721032618335,9.988649582433045,0.04537516838730997,0.019570040562990026,-0.01895364251948776,0.0007345221714981191,0.010282658005299036,0.13272715690584394,2011-09-26 14:18:18.484985500,3.410011667
49.01840021365271,8.353100816300953,112.90463153183097,0.039401336046363276,0.007303563334849597,-2.2082998785562116,2.7665568036122234,0.6480502475686336,38.336300610028715,-0.05080643557303769,-0.21666490066060592,7.567457360527199,1.195496760224588,9.756980614332273,-0.5776961425976286,-8.762574047641483,11.091597139812402,0.032387475127370086,0.013545105648697146,1.0800213707626292,-0.009874353268943509,0.03464653307847815,0.10804761014182815,2011-09-26 14:18:18.585080490,3.510106657
49.019417658156776,8.353231692187533,118.99657915381222,0.07071629806591218,-0.0030500718370639977,-1.1916420289569103,-30.73185647495962,13.344087383392475,12.873333846244009,0.19780184410754145,0.07169019001702198,6.550878942472756,1.4685562118003181,9.865921047374702,0.2998647522532592,-0.6539810396348277,10.184450509238735,0.11050744414209371,-0.06455405409871262,-0.020528164333456052,0.07064078709356134,-0.030580578876971715,0.1330934450136451,2011-09-26 14:18:18.695044876,3.620071043
49.016912924158326,8.353657794428086,113.01657867342306,0.06616877275893636,0.006168323389485376,0.7522502579743571,-19.889435589226157,-5.921991448275886,7.645698273817408,-0.09293955768201298,-0.8329393260913939,0.6735608543751797,-0.5472460953902627,6.657389335254862,3.2534950695956337,1.1889525876691107,9.286949566113648,0.12169784603850987,-0.03500931352305116,-0.5855619013881505,-0.02243440800770462,-0.021322580607354,-0.20024477699968288,2011-09-26 14:18:18.795005809,3.720031976
49.016616173445804,8.352494144368634,112.23223457121495,0.10666020073165094,0.005404827135604363,-1.0837296894859847,-0.3968367915925679,12.851367857424794,4.252153204104339,0.13927061940806257,0.043953008405674565,4.581730174383504,0.5681631453913545,9.171833088696248,-0.4429279253147189,-0.5510650577363785,9.681896274165037,0.0038792468048145547,-0.038296752575865296,0.0928277913558204,-0.053214386397499557,-0.23448976270754976,-1.0327406126808665,2011-09-26 14:18:18.895044988,3.820071155
49.01900552549005,8.353248019428268,112.9496440380923,-0.06660749933874682,-0.0684263303363692,-2.5173427964820076,-73.07179714521294,0.50042210514499,35.444822241002385,-0.16148604338239547,0.03259713299222903,-4.064416662095482,2.142438476368952,10.172480103272937,-1.1734795189245986,0.8658354946080241,9.40279319943078,-0.04701761716791605,-0.043123716051916235,-0.08849061403751803,-0.04063428859811994,0.01296464135085042,-0.08605338226604314,2011-09-26 14:18:19.005010018,3.930036185
49.014925435817254,8.352670937858075,112.40613983735192,-0.0038566005551731175,-0.006078757526912847,-0.5610661672557704,-16.99379658412932,4.610395225138303,13.173025805967795,-0.3464535646035165,0.053308052768002975,-4.977431825153187,2.36696104216894,10.274844382176177,-0.39755346967550304,2.034307585362266,10.942529401672955,-0.06753945953586198,-0.012814142767856628,0.1287307310459313,-0.08212226482218274,0.029875173318433174,0.1972103987722344,2011-09-26 14:18:19.105248051,4.030274218
49.01543137193686,8.35308402546789,113.46144728725199,0.05770142596096965,-0.010528560291869625,0.7429785901645576,-5.0183098311694865,-6.641917925000754,-3.691133207189216,0.05633410412479395,0.2693729217983112,-0.6770740677000108,-1.2735677552701385,9.413208500925952,1.500988392996699,-1.0005444880346985,10.705752404077517,-0.07423469935430596,-0.031136526952897352,0.048055757759158275,-0.005260161964711636,0.03770998260605396,0.044742098597638676,2011-09-26 14:18:19.205016801,4.130042968
49.015001114876526,8.352614620736956,112.41353678498389,-0.05510743414988373,-0.039793533841947296,-1.7789205863449689,-8.357883744912256,3.0520738981812734,26.992563396182163,-0.05417074975988483,-0.038200404590015696,2.459404078551699,-0.7606902551271599,8.912950602697387,1.0257446551337872,-0.732301341164158,10.257596478618733,-0.01633082615037744,0.03455372961019017,0.020466791649723155,0.02130321800570578,-0.00956094875191113,0.0829135798254879,2011-09-26 14:18:19.315010684,4.240036851
49.017176893723644,8.35354407584888,113.05803111935633,0.028182012022607075,0.031584437678271585,-1.327028700961842,-81.29405314252702,-7.91790024302989,26.380694535376215,-0.0495784688752336,0.045648437068602936,-0.2467205778007176,-0.9692958344563153,14.524682724104519,-4.7684511500135445,0.5056175077130756,9.463010830974596,-0.027477063293848424,0.03202743500803965,0.09249867066898865,0.0004778805795492237,0.023905553653244715,-0.09115059840256502,2011-09-26 14:18:19.415057445,4.340083612
49.01008793221325,8.353383777482618,120.0738029150642,0.06316111662539528,-0.007194442665216346,-2.023917272651127,-1.7873527598459482,25.65388726539897,20.800133661267207,-0.0870197619574908,0.23663476712758771,-8.950902232746342,2.4722361494146345,8.819973678831799,-4.64314998643395,0.23151596188034806,9.601118879117973,0.0018049227324043583,-0.11038762393914495,-0.23604290175943307,-0.13066526753126553,0.011407523864263929,0.5560831013673807,2011-09-26 14:18:19.515044626,4.440070793
49.01687826785984,8.3526315965072,110.89250255069938,-0.03107715767223309,-0.0024501381152158223,-1.7313490922736472,-0.8420020550091998,38.83894647278215,1.831134535586454,-0.08947449094435962,0.2536038775872789,-3.482784840921486,1.2271126338824982,11.19602822448152,-2.894467435594884,1.6743452315362188,9.687738441430051,-0.018418034579559827,-0.039837886319054105,0.1701997031102233,-0.03501738753661159,-0.007510190315678699,0.039753463144141465,2011-09-26 14:18:19.625134127,4.550160294
49.015335768213596,8.352848856830699,113.91395157693785,-0.10214826380145214,0.03708526234664288,-1.6409548990557707,-13.230605267842952,7.138807389580867,-8.645514168389086,-0.5584367046624168,0.17509929570845073,3.516551510024597,1.1213900985370155,10.329661401284403,3.2430186919315047,9.53481064275328,9.334815594107013,0.017392564825905885,-0.011172023743667645,-0.04322633946116488,-0.049978729916101305,-0.02384197396118135,0.19318795955795287,2011-09-26 14:18:19.725065411,4.650091578
49.01792580852656,8.353039967503578,112.39251005572618,0.0012263305127556828,0.03156003105653642,-1.8391313916918592,-5.135221394689876,7.799671100360976,-42.92456777834778,-0.27000131655590165,0.22005493522595215,-3.6336922619232395,1.5732351249328556,9.839195660991328,-2.7586367487540113,0.38514718194111053,10.073878947208101,-0.0847522808765087,-0.0642511639574356,-0.18076780376547247,-0.006990569658389307,0.0018843924768649455,0.07401951881406289,2011-09-26 14:18:19.825048689,4.750074856
49.01792953925228,8.353575472702186,113.90945723440552,-0.01763013751938987,-0.01916577707279918,-0.7848887150676997,-37.76245465045331,-1.105854549913727,-78.57770303778953,-0.11578557916573776,0.23003673101899808,-4.869930454092016,2.8769548065026864,9.78169420295941,-0.402206267669306,1.3767349205801866,9.531256750491783,0.017808965142718,0.008251872360992793,0.32872783411637346,-0.015521403488512234,0.0502727986209337,-0.8738190706090961,2011-09-26 14:18:19.935037597,4.860063764
49.013609369777555,8.35320581814171,113.4736165586995,0.06013074808891629,-0.018021182876168655,7.443551703292575,-30.12542932069553,15.901916186283447,-57.381154239790234,-0.18573801060999412,0.05968197394629732,-1.9766371490711605,1.913631081558482,10.36058562863437,0.9538392446490739,-1.0693533674149704,8.994108364211563,0.011380537899132664,0.026332632659320884,-0.020379928968547817,-0.03187024479219566,-0.29372665324284886,0.6327666072246257,2011-09-26 14:18:20.035065031,4.960091198
49.036150570829115,8.352007231822483,111.88842652260936,0.0643755289405973,0.06492466089386983,-0.834954322837431,14.808506444467021,-3.7195966001996457,8.52479958850424,-0.9189952628378708,-0.16414177510623656,6.3948382261373,1.3851205791992625,3.0619832078933342,3.522488080044188,-1.103828853395585,10.6936665321796,-0.08430595483518898,0.07862987811339492,0.11734487421940473,0.05544053183892969,-0.007941379440872033,-0.14079792203058458,2011-09-26 14:18:20.135118574,5.060144741
49.018097865475006,8.352189124960445,112.68220743077542,0.06816405898091032,0.026434922147720245,-0.39323339509770894,1.962344956658324,10.373709015164067,34.14749822866502,-0.11330120768328249,0.038259670490254055,-4.175261665402065,1.1402762760353002,9.0390282905244,-2.7584141330898833,2.555267909336667,10.17485438360315,-0.021822815443362842,-0.04198414483331951,-0.01962962490779547,0.061243756915149515,-0.17767800016131868,-0.028477147253249124,2011-09-26 14:18:20.245099447,5.170125614
49.01556317376105,8.352631261778757,113.48469975588769,0.054498450081527,0.03155768069484127,0.6279327503123671,-4.713374015750424,-6.047810724280199,13.168434102504015,-0.07584700809189499,0.15313894470220227,0.06824544032385016,1.0238765252496902,11.15088155882917,0.706884568038163,-1.115319503136075,9.445725149862927,0.01028470222453593,0.011238731926819973,-0.1126217348661827,0.022781384700349207,-0.29526926858214675,0.05681256855179021,2011-09-26 14:18:20.345068474,5.270094641
49.018959659313325,8.352853216033157,112.86917135647873,0.018410112069846996,0.00119673051853042,-0.5803147642777279,-17.768563582941745,8.809790339748387,35.54363571315187,0.10226824662982342,0.0815172643662103,-1.6106059895311298,-11.28946864692473,10.500107643596582,1.9078765116517635,-0.580231047073699,11.163930342906582,0.0058279088865312665,-0.010447424021221651,0.018798123648742397,0.04496784823860063,0.02456631621902535,-0.08551454832843731,2011-09-26 14:18:20.445056725,5.370082892
49.016961856150964,8.353770363912803,112.44759729538325,0.02525228760196311,0.02317824330914434,-1.364085685267835,2.0772287189067278,10.159610824467475,11.668348796769486,-0.15961220754364314,0.0462428396995969,-1.4384182866146984,2.0283463078498416,10.268759087941413,-0.1113727226409773,1.3020706206439887,10.217126037253488,-0.01188832781910748,-0.01883294520825721,-0.086899491534828,-0.028488133966643257,-0.06638263076546956,0.10359350052606653,2011-09-26 14:18:20.555077031,5.480103198
49.01765638430419,8.352895376786208,111.95185391593321,0.057752479624131825,-0.0007611618127051044,-1.293479683967102,49.946515213280705,5.220808415256026,89.3327599584497,-0.17394974029424454,-0.06790927896027055,0.7371954872430788,0.37600008083187314,9.364898965653724,-0.12467713822548832,-0.4919813716181777,11.535607235521073,-0.011449045971352876,-0.03736911335135313,-0.005398712158771387,-0.020154242098225278,-0.08174397885248275,-0.0024504144677372063,2011-09-26 14:18:20.655130537,5.580156704
49.01880555309883,8.352562465413849,113.45461290696403,0.0689246600279976,0.004623274457740139,1.2173607192156168,-7.294670693504029,30.043366861460516,31.316539230055774,1.7211765532502634,-0.002462024160606065,-3.9546277189934154,0.9690997820401298,8.035910838013962,0.418007891889592,-1.7252121642956042,9.697242589745949,-0.005908470869783681,0.0002498465934500354,-0.30346268703136764,-0.06353157401610582,-0.05050729936903947,-0.03330495394381013,2011-09-26 14:18:20.755089219,5.680115386
49.01989573502793,8.353064489503081,112.43848601858369,0.005514181285002355,-0.08752885630055902,-1.3647184882890864,0.15459138760232882,11.270590173746323,3.0780596937513405,0.03570926019592749,-0.03212655698761754,-1.7777041149301638,0.7498302435842471,9.988085827179324,0.7991713003047919,-1.3041180032188369,12.441414794907868,-0.06868384390954907,-0.45202921553568465,0.05330433847675562,0.011756297608875341,0.015087643773584857,0.3592859293811088,2011-09-26 14:18:20.865101532,5.790127699
49.02452623298471,8.35236428193846,111.49425345994293,0.1394626166865862,-0.10117371707049559,-0.883346298305265,3.409619861051169,5.974470542050806,21.221878820197553,-0.017993170780398214,-0.25942314744568923,3.0184384566219116,-3.211630202999259,9.90173971077118,0.8637746998339377,-0.6342687038057289,9.96500172905843,-0.00684285364001945,-0.09077062489587583,-0.32341511488216956,-0.043108352467266034,-0.08889535132313944,0.025298945365264076,2011-09-26 14:18:20.965245141,5.890271308
49.01962199179962,8.352413365755838,113.80211207910529,0.0345498540834765,0.024081512811962587,-0.4289340862983846,11.478354212521563,9.318612429691015,-97.28969667178553,0.02316672725727248,-0.02257788668896058,-23.00700139447619,2.1439805641930425,2.349201712351694,-19.830078757119136,-1.1033228580119028,10.797335365456503,0.02672825605423636,-0.025058071179347333,-0.200193000988025,-0.039174237903520266,-0.014033445562955774,0.1359052265402543,2011-09-26 14:18:21.065240612,5.990266779
49.0162562477629,8.353614063147704,112.25856700543427,0.0007700607084514394,0.023082963030256927,-1.179005511097716,-1.8359478579589794,3.8206097851212633,12.70862928512982,-0.16931611977897676,0.016830305782404496,-1.36160844982308,-2.8151423531618747,9.436134957742963,-1.6910889269173894,0.8951076114120017,10.184992020682266,-0.01104060965063152,0.015182861005477671,-0.079600874371223,-0.026328451484943838,-0.004972320165638526,0.03123744493709779,2011-09-26 14:18:21.175135572,6.100161739
49.01562784787514,8.353709906134581,104.46499733372866,-0.006017954294236273,0.023157692574817222,-1.499944342222942,-3.9238350288313324,7.6860230327406684,22.428326130327115,-0.1343980889096639,0.079541121985917,1.37829262749298,-1.015132139559105,10.340817456824059,-0.41336070600914365,0.05498004949158064,13.994129155591427,-0.013902956220344709,-0.0536857548940541,-0.16830604271650196,-0.0010717095127965523,0.0973839005045351,-0.01210710752624334,2011-09-26 14:18:21.275127559,6.200153726
49.0167748537998,8.352933634504899,113.71045403462304,-0.04172728629885751,0.03201108830341446,-1.7885792513850474,10.144973458136235,-3.5379107068102646,11.257219505863226,0.465252017156423,-0.05758709741140062,-5.8261659295404815,9.177196879666662,10.819469718009914,0.8216249852598287,-5.994924321859419,9.721358629134407,-0.0033677400627987186,-0.022791283130558164,-0.1400696776627,-0.05839859557652836,0.04492610842170722,0.16943420969600984,2011-09-26 14:18:21.385124772,6.310150939
49.01587943005112,8.353357531477942,111.33961662064256,0.06508279264522987,-0.03900181609145563,-1.5551854827415537,-41.6126218838226,10.423101555851371,5.47215694463304,0.13004356415738494,0.1159167151460001,-29.459147610092636,-1.4035590622604512,9.610592098353486,-20.975823240988923,0.14171412733577438,12.901759299795309,0.06194550218819405,0.022729102531066196,-0.16045119532366386,0.0090426311005506,0.0764239472079959,-0.12176549814674924,2011-09-26 14:18:21.485152402,6.410178569
49.01738331118905,8.352433401583605,113.80640877957445,0.012130985813999387,-0.18696959123267282,-0.4194654566564866,73.18353704015665,9.342617018399174,-8.965911349454325,-0.10328075206919823,0.13353006078008195,-0.40313335349227314,8.637680262847638,8.752485091205108,6.925680677843152,-1.7705745098511336,8.869450712620791,-0.057564370446850505,0.05033676786541082,-0.054332672789083596,0.007600300446742969,-0.21433088908600487,0.048028518059045705,2011-09-26 14:18:21.585398425,6.510424592
49.01783732667726,8.353551305664144,112.5129861526894,0.052666837936410346,0.004401245237185783,-2.1949661745620808,-6.5854988825760605,5.3833686554946745,29.279701302164966,-0.12238006377172843,-0.49372675211026357,2.40940608568594,-0.6342296257966493,10.72584743198674,0.03838099017509533,5.500454207144545,10.973649256894205,-0.007494131066369277,0.023651175563171062,0.3702925599004744,0.016133413325069616,0.28648302363415795,-0.15426770538151852,2011-09-26 14:18:21.695145500,6.620171667
49.01708183445925,8.35315673341807,113.38232008815459,0.037316900091748206,0.037022556168236256,-1.8892005859858183,-10.63426573915084,73.31827209494426,2.2524306997259558,0.08936164793693135,-0.15981970987157834,3.847124268604893,-0.6064191464630007,9.28464558272583,-0.30097277105603576,-1.8767265088850826,9.810675312418935,0.01865950523415058,0.03290607775744872,-0.0859990700269302,-0.03079358958067602,0.02667563910225565,-0.097326116584508,2011-09-26 14:18:21.795141523,6.720167690
49.0179865623044,8.352182080476783,120.58527964563277,0.0811820207973991,0.021353671435758677,-1.4478763134723964,11.930793529432385,-5.396762478931328,13.22620641697145,-0.10619668218241828,-0.025415085708151916,-2.5110814225451117,1.535517130996376,10.148324304913512,0.512420857873827,-1.1644452978192301,10.120654948721317,-0.04364847517812719,-0.061806315848252365,-0.30675643449621204,-0.020738885778160843,-0.03565047574247513,0.3136978291652112,2011-09-26 14:18:21.895177310,6.820203477
49.01911840351304,8.35292178650562,113.34428686659922,0.10063235604079517,0.019452989121137087,-1.4241835478025429,5.402634652814847,-6.0710986601606916,-24.51439492233188,0.059012113216561204,-0.11966645007173843,-4.330735081277675,-1.771446453601975,8.9285255136448,4.850090568355065,-0.7290691795262586,9.530216406287277,-0.14332409484484593,-0.017979508560222148,0.12617201826697866,0.004663305993389961,0.0758882749240786,-0.2508727632470092,2011-09-26 14:18:21.995120023,6.920146190
49.01693077733495,8.352796294144778,111.28911997521301,-0.023665334184752668,0.033571927924449435,-1.4834871662405384,43.25092703936335,5.084815570692592,86.45552109303893,0.03694619065196321,-0.10959646125523986,2.6698935779025135,-4.441326313080357,10.840405077654804,1.032625025505643,-3.8682109898410264,9.84117722796899,-0.0035676173218441905,0.029563154637060076,0.034490176687388366,0.06047416524095353,-0.00726318243911046,0.16201742111100093,2011-09-26 14:18:22.105289887,7.030316054
49.01824141283242,8.352821485066846,112.51723406076246,0.03759162746951722,0.03613053789878557,-1.3483714837712721,-5.179952505812447,-0.08147034090705008,13.931509305177304,0.25507261968864375,-0.01267074413009421,-0.34580057808018166,-1.8716165489230239,13.575961940235542,1.1530529082106267,-2.2249714712165938,8.760578201898625,0.01645267888135368,0.12630445262524226,-0.22105416297981373,0.029330833004059868,-0.019661690558320406,0.0658483476182279,2011-09-26 14:18:22.205133368,7.130159535
49.00924628379444,8.353545583424717,111.39980910367251,-0.029988874612582272,0.013396431381174058,-1.9701705397385232,-30.619678622924944,-56.859935878493566,16.110585892384258,-0.2485580535641914,-0.17012825243363638,-2.9457956807466443,-4.151325555006934,12.175889486756814,-4.036140884970702,6.940000723216652,8.0003616488444,0.013593529867897716,-0.06766218225662589,-0.11578644750001604,0.05633486739772409,-0.0458407545471541,0.03950773070602642,2011-09-26 14:18:22.305162753,7.230188920
49.01770623249008,8.349953566343475,110.39326717071768,-0.1420326788090948,0.019526962467873162,-1.1248010427158495,-8.722838718197616,13.283917833760768,7.519443894631783,-0.16976501182604817,-0.07497725293913139,-2.217543461521832,-0.9243939774833402,10.260230888565188,1.761791006958047,-0.5630648999878834,11.503459143716686,-0.17114092403049871,-0.05641898876036329,-0.10383250547401474,-0.0019731184199018688,-0.057329190425646395,0.07025006909340126,2011-09-26 14:18:22.415161923,7.340188090
49.01630087718759,8.353032097168393,113.71928097749336,0.06839207631808014,0.01605590053061451,-0.5307032460974643,-25.19438934757305,2.5865237675131385,27.991721650332927,-0.09144960664039183,0.037641938182793225,-1.168293298245358,2.336256080989621,9.228486172562523,-1.4647981812461266,0.7082022431000384,9.466390157531187,-0.12175719558470918,-0.03215568273914253,0.07999445462007575,0.006924548475304323,0.3158821649992027,-0.2969253697971658,2011-09-26 14:18:22.515184285,7.440210452
49.014190316445195,8.351821219520348,113.57337212117767,0.021799580051249885,-0.01249891515101526,-2.8041203708006193,-9.450066937235647,62.169699188822236,0.3303817164799625,-0.22322762735417062,-0.14886193668153672,-4.523384726937669,-1.587948647887707,10.190993205714456,-2.3547369767534416,-1.198463450419041,9.445316777018531,-0.0014554806100730427,-0.03284097577111274,-0.13529601266420338,-0.09761509095346674,0.01061917306193187,-0.26687600091382935,2011-09-26 14:18:22.615387626,7.540413793
49.01578666501188,8.353664249529482,112.10103391810466,-0.005191480990611303,0.045541747497645564,-2.348091247811726,-2.5146778740959483,5.21394105285339,22.629267822896765,-0.010532305035201528,-0.17839243269613111,-0.5507075000863911,4.259701003566484,13.18477935989524,-1.7533533796364649,-0.1544427803947287,8.935801236379888,-0.024401497828780275,-0.012366825420551512,-0.2591960237076525,-0.009537156049495637,-0.09113120091727113,-0.6211306423129539,2011-09-26 14:18:22.725181592,7.650207759
49.010016197718166,8.35260110994433,113.07274251035808,0.02766868491039094,-0.017479311789843428,-7.564219568174508,1.5604512876902614,0.42627344173664694,-161.84773300986333,0.09517155708986896,-0.10921547577982063,1.0179981101515565,-0.7925529978286875,12.550349475541944,-3.26132333242918,-1.878243627935078,10.370557245131117,-0.08902579944794571,-0.019027243243077356,-0.03058683401677849,-0.007500951009045815,-0.08374532006424838,-0.08339190096047533,2011-09-26 14:18:22.825192705,7.750218872
49.01584473440992,8.354208712152102,113.5084028744778,0.014601126397369492,0.0010755614855068527,-0.5321197197371559,-15.4428384068795,4.091218434808444,26.044924623038277,-0.2338388352018692,-0.09553854203409969,1.263092713573437,-3.769568749043084,10.3126313400054,-1.5563971742970413,-5.964431219940118,9.810799227874867,-0.04547077972160313,-0.012965011255141046,0.32076562342140125,-0.07764350278523073,0.06431284631688465,-0.2254936685157313,2011-09-26 14:18:22.925162584,7.850188751
49.01630128896969,8.355285997918592,112.63062474393556,0.33488121244746577,0.035856869880394396,-3.8872072063111895,97.69199117599362,-3.2894354610891137,18.915633289781248,-0.026941783401656275,0.06294996370442646,2.147238469480543,-3.3475667524988344,10.341211298095162,3.082059449366077,-2.576409445262496,9.916266896415344,-0.006397529311097116,-0.007480996764109741,0.09361810307669477,0.030892053947557625,0.05435901326507667,-0.4495425855896869,2011-09-26 14:18:23.035158398,7.960184565
49.01651068270473,8.353752443916566,115.66146171349948,0.017903778191365138,-0.006831513482005721,-1.1649850689748034,-7.467446485577326,28.438720922920687,13.431497441257324,-0.22867945852468113,0.0906702138530425,0.49455579139299277,-0.9003934661212349,9.33365804563367,-1.7974470140704977,-1.4996509914693217,11.326847140134461,-0.019691618428248153,0.026956978907102244,0.09583967880574715,0.05448017274825027,0.07460318293569997,0.008440774743335253,2011-09-26 14:18:23.135355530,8.060381697
49.01698889617581,8.353502084941887,113.18539733683335,-0.12349239078798085,0.010948508432585557,-0.11810969823785489,-27.868139045559182,5.363901097557043,40.30575902801661,-0.01819689254914736,-0.22362783823996016,0.8561229106614006,-0.4783063405233227,10.105219657397374,4.860482932870698,0.38611146197604307,8.657155153499012,0.027312186412885804,0.06662822961641336,0.01681918649932733,0.04370833695324659,0.003265330786109584,-0.09436766964136714,2011-09-26 14:18:23.235195734,8.160221901
49.018882403946456,8.353693902592259,112.46016576304581,0.25438100951705345,-0.00021217016717672496,-2.0459990324338997,-2.6687335518729514,7.206252246836087,6.313482110801189,-0.2033245252471523,1.361243028841005,-3.432265123507812,1.1215898571628773,9.765028793753856,-1.7937035199768534,-0.40367802507804834,10.492252510604171,0.053708312799367955,-0.08391891045833963,-0.16299325985088498,0.05854857453928959,-0.2506855396047345,-0.18526295707332088,2011-09-26 14:18:23.345203322,8.270229489
49.017531264512385,8.352665200536723,112.29085796264808,-0.017755524820578347,-0.13587407422227551,-1.860912548110916,2.6490535737005967,2.578290567337453,0.6037438319468098,0.0074892170783811,0.16306763388425236,-2.4623169156071456,-0.016586327849011706,9.14393841865749,-4.440065337425983,-1.0162852723362843,7.384928253461554,0.01057491968248181,-0.02611839393069971,0.927675630722673,0.054334762287134394,-0.033370272631911835,1.1719060868066613,2011-09-26 14:18:23.445198845,8.370225012
49.01600349260938,8.352745000918897,111.5684027014705,-0.03149904116324577,-0.0014014688163258016,-2.7460361794449213,8.92338570207407,1.4429195004202313,29.681812027289553,-0.012409284724909188,-0.17900551270086573,-0.954267755239753,-0.8621494181919824,10.560293680956736,-2.0444147916443605,-1.5077740083300004,9.833776023851009,-0.012576338411252112,-0.023146965222985618,-0.028885467796136016,0.04742548435001265,-0.05822781278252662,0.019045104727835493,2011-09-26 14:18:23.545217766,8.470243933
49.014903864668064,8.353049594829981,112.16273899493815,-0.05807797664578286,0.028898712277670522,-1.8886481399680433,-1.8577835672919765,-1.0999891317071582,36.3992233950397,-0.12200024754996269,-0.39047786309616067,-1.3912738556370758,2.077968496818895,7.9342312364551315,0.42049551798537516,-1.766616625871289,5.325333028683063,0.17328018559143504,-0.011221845129689238,-0.027786250955530716,-0.020479775792578408,-0.018239086369218123,0.5692055630670225,2011-09-26 14:18:23.655262082,8.580288249
49.0163385314346,8.352777930266548,113.8830446027644,-0.004239734339358148,-0.00985562399541183,-2.161177593429686,-10.03647325062241,-12.928672824568626,29.051169892120043,-0.08094658711771839,0.05660949651784342,-8.004366900916056,-3.4467922699493996,11.803857207763732,-3.8090120792552877,7.906924859863404,10.60219537224964,0.03581148299746079,0.0024667830268165995,-0.08719259746389439,0.019456680358109962,4.3000285079045075e-05,0.4894400865890125,2011-09-26 14:18:23.755235360,8.680261527
49.016710685160255,8.352924042793344,113.27898690679918,0.11274733713585126,0.018323884532716,1.0222503270570005,-45.40656034884399,-0.7906265273290387,1.8054767876397353,0.0038392081851791604,0.0016382637522286275,-22.365848948238796,0.211968679495886,9.943673915027407,2.9827625614612527,-0.08335766227306535,9.786759304770891,0.06667249839752104,0.01956041852000922,0.06322753031515899,0.04686353753531916,-0.06364872836163717,-0.0692863294619312,2011-09-26 14:18:23.855215962,8.780242129
49.02071421096434,8.350858237784529,115.23362839885756,-0.020021138381155087,0.07938567437205749,-1.0472332340877037,-6.630488241082509,3.5856168748954804,31.332206872361816,-0.0005425863478429674,0.12383819370220862,1.7418368341055022,0.7130621882517382,10.52700353781664,-2.9562508237304543,-9.206066259587026,9.219231893682878,0.08187126378318776,0.07049711046900246,-0.15957957405947432,-0.017889321089668717,0.07216323644326736,-0.05885067639609175,2011-09-26 14:18:23.965266799,8.890292966
49.017380552734714,8.35224667935572,106.21702571564722,0.03084418263321228,0.026683367782302278,0.9621589271940061,104.85750153642896,25.55210309194258,39.786100361489,-0.01699806699473483,0.05709577494789733,-0.709643118513645,2.0572208690003646,9.834548044553584,-1.9129048824603152,-1.2371969559749347,9.236614575263264,0.013555570866118897,-0.03352250387446191,-0.09814063355173497,-0.007530934251626639,-0.03107429580785142,0.006488039028766261,2011-09-26 14:18:24.065354403,8.990380570
49.01907464107519,8.353582051895357,112.1191146465633,-0.025222090464747736,0.02873231404244235,-0.9582853765502781,-1.0633802007636213,0.9825000696473627,-34.85351460121278,0.1857391071606707,0.17927660823612923,-1.4476161546903699,1.137036257745417,10.003000496878037,2.177302992867947,-0.9076051613506095,10.523423295860603,-0.010283736827132952,-0.04210431130301507,0.044095002288914144,0.04108667344887246,0.026174678716202004,-0.005918884733007303,2011-09-26 14:18:24.165459118,9.090485285
49.018120171540914,8.353027706623722,112.38734757822523,0.07896315298477463,0.015986461444706727,-1.2851642138124724,-8.165744501378132,-6.576017839904077,-56.46463618137467,0.08941446696441703,0.03277781585474461,-2.210295928073424,-1.4401692745103916,10.284860982974104,2.4167091980369,-1.9217865634399263,11.65571751931224,0.060568486725041656,0.04235339407779681,0.1325781628792885,-0.007385617846801678,-0.022413349932006967,-0.10308602367817306,2011-09-26 14:18:24.275243473,9.200269640
49.01664463504189,8.352277360876657,111.83852116255879,0.014399886869604781,0.0047850953842632545,-1.240202329175072,-3.7780486758863923,-1.3912766008780497,15.396632886295482,0.026146718884746005,-0.06689178813169151,-5.402385934224172,0.8014161211650367,9.876441461994226,-0.8655453814295659,0.8382451468127693,10.909614386381593,-0.525929068838767,0.1516282257538017,0.06246494689119141,0.17129483646771398,0.007119656548779088,-0.09264785339337762,2011-09-26 14:18:24.375263539,9.300289706
49.01714522361975,8.3528968729457,113.74279422231716,0.016576303927224246,0.07971619927029286,-0.57696497918121,14.825271123621935,-1.6908273317589582,10.538986649482112,-0.0006519638281484233,-0.11195770707996239,1.8435836460718156,2.0353493510517895,10.010802661511933,2.0766207247627464,0.19251401665014425,7.647955386203291,-0.06823244659264205,0.03010640539123225,0.035172338800720376,-0.056487900064786475,0.07688280748866827,-0.012662687178982756,2011-09-26 14:18:24.475223282,9.400249449
49.01654949397454,8.353165442103125,121.59744414919825,0.044938313083725506,0.05041317456903419,-1.385434397216862,-172.66584325215004,7.530567436438685,-134.8874439109197,-0.9893951171725105,0.07005920201771851,1.346962112969127,3.8338963609356926,10.238785276174799,-4.016196431521027,-4.365843605789404,10.063090868307432,0.012266735441610735,0.21063074108198176,0.08981780382636449,0.00390966737180443,-0.027326345711587888,0.07742364056719854,2011-09-26 14:18:24.585475892,9.510502059
49.03057477920282,8.353499068599888,111.78189239951413,0.07789482135560258,0.01840148279472598,-1.1440309086675422,-95.31657770850119,-11.086403901946229,61.13162542500015,0.021320341427588943,-0.0835333332611567,0.2771174516953489,-12.19216106352374,5.880681575787147,-2.8338672560948828,-2.011029293876304,9.98927083762189,-0.013610684135623037,-0.0788895792233584,-0.5145867119287072,0.0768707171044837,-0.04813652483027136,0.3191042381932759,2011-09-26 14:18:24.685263070,9.610289237
49.016444169498946,8.35465147974283,107.43682779901759,0.17857932862427972,0.004354758655300608,-2.0933900752729016,-18.663490509920315,0.0950521922470493,57.21895529598775,0.6081735136289754,0.05217893229577641,4.356348404760402,-0.3448178355245671,10.299596070436065,-1.158253441537019,1.6648765189207286,10.480808514087972,0.02359619277392853,-0.01718257047042513,0.151989837846184,-0.003575617783192202,0.02309307056256531,-0.7802571130400949,2011-09-26 14:18:24.785257352,9.710283519
49.01637765127825,8.354477470286788,113.43551982826122,0.07042087714008237,0.012409668185031687,-1.4473834464430646,-17.58840667638841,12.576098602292632,16.79116446497721,0.19909925729705152,-0.10529240160341029,1.136931169393991,0.3213032935494879,11.919318930471318,6.553832232600153,0.44747355733821503,9.234249876092605,-0.03814746702253512,-0.0322105364538131,-0.86105994804525,-0.0704795569012012,0.004150761570201538,-0.057453486499729464,2011-09-26 14:18:24.895289401,9.820315568
49.01858922281175,8.352821827641733,114.66466718230942,-0.030663923647547636,0.028261027796063837,-0.7268277466924368,-44.382149062266436,-7.640944619613609,47.155572590379066,-0.2123928522590028,-0.10905099032212576,1.91576352353156,2.4394349215914577,10.685312023356214,-0.20217516410715533,1.3899552117399168,10.248162303573748,-0.0017292238942962592,0.07405133789257973,-0.03504231735840832,-0.05451633628350589,-0.21801128042585577,0.2681945286916585,2011-09-26 14:18:24.995253547,9.920279714
49.019335187353654,8.35316940229394,110.92330817736503,0.01546360740149453,0.008826839200937436,-1.7652767527815683,-34.31788221694634,-12.092135147159073,15.72792293611571,0.43756953917098995,0.10192626476634145,-0.007645206957854089,0.3282937384392298,10.593829478633074,-2.3081176605176275,1.362605053475478,9.882934886961207,0.01729914558301183,0.040585635874628524,0.0008220375542994235,0.005720168074897785,0.06273294343382868,-0.013425158646098542,2011-09-26 14:18:25.095448601,10.020474768
49.017129079580876,8.353067572535213,110.8619911424365,0.049001763207343785,0.04164557303552951,-1.070527670867416,10.404736053912368,-3.2370610380214617,29.79933700631065,-0.2141056802737739,0.12860588643946466,-2.3851939700262417,5.6207241117854565,8.218036708266213,1.5475717222301344,1.705661469675108,8.901694814345621,0.03616533573842849,-0.019198615338128156,-0.26838898435817554,-0.0054329380725442866,0.09109198202284219,-0.06089432538929251,2011-09-26 14:18:25.205291801,10.130317968
49.014286592537886,8.352743741587433,112.42595868587406,0.0871941280307883,-0.012163003353481496,-0.8050836877325684,-27.643691013278566,-11.588903073278756,-4.976999850222885,0.22825646173151365,-0.13092090098699244,-3.3555709434261365,0.540622983669012,10.108667840559987,-4.927805835315352,6.2800202400495655,10.311770545955365,0.026621640517924094,0.03159142737870992,0.20145977719037456,0.039374744911953426,-0.0346415412793723,0.08712501702840073,2011-09-26 14:18:25.305256129,10.230282296
49.01773455893244,8.35345215625889,112.60680657139523,0.13492719046222013,0.019285277071242866,-1.0483128603074403,-12.415874220388549,-12.916050619946978,-11.580719846600395,-0.12003161240834098,-0.09180940975819864,0.9814476191613802,3.8830087607398873,9.478214806704266,-1.1546776530236875,1.401994040691474,10.965648768911606,-0.01274475545808686,-0.01931176147138958,1.1305526394844143,0.09568112773396918,-0.06853117910019084,0.19430596270553935,2011-09-26 14:18:25.405276038,10.330302205
49.01963386446559,8.353246982118993,112.01923076044265,-0.011032014462876487,0.010467130985597893,-0.7354729423494144,30.2962439727215,-1.583528566007582,-2.9787559176103304,0.02092144884308525,0.5665618809643423,0.5535810841255532,-0.5737100606734962,10.340338718958682,-6.169343596996587,1.918367251246469,9.844329071317974,0.04990704745881735,-0.028625115334832238,0.02125184263358036,-0.028305292198127087,0.002664690079614316,-0.05270750299477369,2011-09-26 14:18:25.515293217,10.440319384
49.01823136552115,8.353219756134175,112.52922264754235,0.032004745276845804,-0.003988002527789497,0.22831226635112567,-13.829034610937342,-8.804779723685282,-45.37621611732736,0.6329163098047983,-0.2370460900582077,0.6448603105919,-6.204508941371837,10.58188574286358,5.8408346184810025,0.8216493539807719,10.835128572322624,-0.027856896750390107,-0.08623113984700975,0.10634117609967039,-0.023994479029895793,-0.025402661698535438,-0.21438283927633292,2011-09-26 14:18:25.615457491,10.540483658
49.01680891595003,8.352310099619274,113.07182090934174,0.024402363991279173,0.16200486615693682,-2.047216567718577,-10.349186258428896,-6.8527462535663375,-19.770748934142244,0.026237295663580167,0.5375375069142894,-13.343176275874914,-1.6684456822793479,10.371155636329108,6.134808090398515,-0.20433865838502263,11.01862593239456,-0.007438704516451953,-0.004665540211133814,0.23570588618144098,0.013908408345403325,0.05325792876951296,0.014024738100419917,2011-09-26 14:18:25.715315296,10.640341463
49.01463044913558,8.35351177282577,116.82033615815692,0.031536257168013074,0.030004388077723872,-1.0153230319492166,-5.070518969404116,7.37712691156259,-1.4484845026178643,0.05404983631136395,-0.06183869558115695,3.3032496204038484,-0.5577279405723097,10.423284547738824,1.7063650365564227,0.7732556860617608,9.673629732439254,0.046471112230413225,0.07320523441344509,-0.010149973914448135,0.026458009371874223,-0.5377889332619263,0.18271616055031453,2011-09-26 14:18:25.825310362,10.750336529
49.01799891161463,8.35264041601095,110.8438165032076,0.025202730809738907,0.006016431258556507,-1.6094186278001488,-10.325808557599974,3.5718422578927527,12.241934229873028,0.00982163440421901,-0.04149248813372798,3.843059831111449,0.7912733864702082,8.384110327613962,0.0057277671290838494,2.084581002759987,9.929800708649488,0.08538444931726073,0.08186705442535372,0.023633379141419948,0.17482073979004087,0.002908299385178314,0.06329673937150682,2011-09-26 14:18:25.925331659,10.850357826
49.014642858286855,8.355040769612128,113.31734935873428,-0.0057728098945960815,0.040716637779082396,-6.659283077680648,5.1940624277311205,4.099698966004831,9.514639376288052,-0.005252145363969922,-0.04323057109162621,-7.323966583496462,4.4674105770510195,9.293483495939249,-1.9748192311130275,0.3565042277691405,10.34365236864822,-0.008913120672643094,-0.15683424680296734,0.020884103440026024,-0.03407336355762945,0.050449619589461855,0.14868699045243416,2011-09-26 14:18:26.025341474,10.950367641
49.02456003793756,8.35324965163701,112.204284955329,0.0009378248377601914,-0.08383851156626859,-1.2726127326516465,10.720135722414867,6.36686508618626,3.59338011931761,-0.0953286813958527,-0.25105369965254887,-4.083866152734228,0.7845565415501524,14.045195312712863,-1.9094164519863488,0.36653806498157504,8.980613962060119,0.2616482033484807,-0.01939008345788995,-0.027864400997215925,-0.033048421886322676,-0.08371500060993234,0.04404798445376747,2011-09-26 14:18:26.135485729,11.060511896
49.020505386180616,8.352762041355277,113.57192058204345,0.03983816124706221,-0.017825522729177028,-1.2015390378552637,-5.707577341581793,7.464951596582966,132.3280732028146,-0.0035198417601370194,-0.05014190669450081,0.6250182156877315,0.2274066568308351,9.521939481559164,-0.29250425840701133,-0.3290481759183349,9.787270122563188,-0.023177585356477567,-0.10849797841489647,0.11176778992612474,0.03767097417307248,-0.03609082140772377,-0.35311565561428393,2011-09-26 14:18:26.235298701,11.160324868
49.01520721141085,8.353063902762116,113.4770973897296,0.05722564199275883,-0.07699068711131347,-0.08853553441118178,20.708544238773026,5.857358852133151,17.13646412506879,-0.01259310595241574,-0.13211769961311703,0.40406731596479223,2.0516107950354465,9.518432828128825,-1.8710974508487062,1.8276418664115923,9.889169616386386,-0.0580735418312333,-0.32408400613431443,0.514194367529281,-0.004930761504122421,0.008712698317477688,0.037959330871702036,2011-09-26 14:18:26.335298911,11.260325078
49.01415628849884,8.353459036661866,112.36576579022093,0.03711981359225083,0.003260940927140639,-2.4169785103557926,-185.09021119398295,0.7985750843756159,-3.867526866750042,0.04943930275875598,-0.793741567766826,1.230484201277125,0.0930061408157144,9.470289483005782,-2.557638639847735,6.236016626725677,10.152139073631922,-0.018494639118497063,0.049234145806024934,-0.11643040844303466,-0.0215506884502084,-0.029882924757629784,0.02671883428823247,2011-09-26 14:18:26.445323570,11.370349737
49.015433638485774,8.35342352784676,110.97729484285797,0.01863634505487535,0.00295776990127802,-2.9361458122270863,0.6041655695257369,9.71587344543719,98.07165158390711,-0.18036717208620257,-0.01530488255615664,-13.426256410872735,0.5496290697923673,8.7274112414658,-4.819849677141754,-0.8368679048319686,8.032382544211979,0.024081428637179228,0.07125494855779875,0.029631661079840416,-0.06147626891173003,0.019806830614856327,0.4633572804407338,2011-09-26 14:18:26.545317841,11.470344008
49.01783945313499,8.353411125733862,113.71966107162694,-0.005113017273595723,-0.029940685662609327,-2.691840559107388,22.782769880513964,-8.350151883477444,2.651739918333276,-0.15439461165136686,-0.15761760402167746,-0.7590458771662352,3.3901181127078757,10.47589966886424,1.714900936901285,0.3030706509938122,10.169882531588867,0.21903476518576614,-0.1316794784924847,0.10824196718979284,0.0868119736138975,-0.03993947352639724,-0.08680509660350495,2011-09-26 14:18:26.655358215,11.580384382
49.01501384870545,8.352969212331695,112.79607477490681,-0.02214096809982584,0.009677677690395278,-0.9034509864618053,-23.011238866309153,7.5778058722077795,-20.31351260136289,0.08785256687523055,-0.3467000762924959,-1.302318574816302,7.768235874663514,10.232181970293734,13.808243577305806,-1.9124308340194869,12.577306002320316,0.02087099362620889,0.007610098387566079,-0.039865848736409804,-0.017021143138226374,-0.18880541352408534,-0.011584610805324948,2011-09-26 14:18:26.755320135,11.680346302
49.017203967599656,8.35253615225226,112.5350680659224,-0.027492043271414864,0.035193454663260376,0.029071506374955813,-25.350614373701163,39.449837985395796,26.454480824769966,0.036051233509033845,-0.12973599504380234,-4.451668950145519,-2.03701282762422,11.16491111516023,5.825537593539434,-2.4386660095291255,9.543523131507001,-0.11775409572759028,-0.026573187917774344,-0.10885756651336195,-0.04990721895453213,0.021625051832236127,-0.15610539744928636,2011-09-26 14:18:26.855358565,11.780384732
49.00793464395211,8.353673597304244,114.2074130146873,0.06150874110893606,0.02331881198792576,-1.5613426301349635,23.84466822199741,6.715327482205263,6.989015379415924,0.10828785799192492,-0.2828134081838465,0.5304700828047488,1.1530903698888126,9.32016545345821,0.2964648076294391,0.9814479179300586,9.321349945707636,-0.13273535577380952,0.10244834460399652,0.3652401688917052,-0.010153409380979765,0.015724516423852104,0.24118660398993108,2011-09-26 14:18:26.955375649,11.880401816
49.01773661466341,8.353713608251729,112.4711404888264,0.06918383131162661,0.008775848001538475,-2.6329986232046516,-27.750019306497293,2.2256213090942447,-5.9035407258408,0.08672391493021567,-0.038332475059935596,1.9645501086187824,-0.30688502356025715,8.6340471061556,-3.46368423784495,0.8910918657436993,6.496812663513721,-0.01874273324355221,0.08603588280014589,-0.07271410129227349,0.07326860577016382,0.00036604551788847056,0.5488176240882648,2011-09-26 14:18:27.065594226,11.990620393
49.01851214088673,8.353012996375504,113.39420593194914,-0.5298279817506538,0.053948748493919264,-0.6774342367714691,-26.115113815925845,6.624717102848182,14.807752455802241,0.12686339042190425,0.019501217538675085,-3.56365573455373,-0.33998114525257805,10.08398163295349,2.618746254803629,-1.3150835199166866,9.73576630525766,0.04380271334322754,0.0017460654754028603,-0.5099264654567588,-0.0038625843608010814,0.029442989446773957,-0.17318774418665323,2011-09-26 14:18:27.165521074,12.090547241
49.014745534517004,8.353216287875226,111.76326012140677,0.007723015310562966,0.015684703677845677,-0.14494130204364497,4.786556641791064,0.1792895572269264,7.7930437233895775,0.809987192773167,-0.30096439573263445,-1.2321226695647076,8.33565973738938,8.231567530205142,3.6848294600872595,-1.1761284129737106,8.48524305058944,-0.05014843718789541,-0.049376741475709765,0.33261171864283023,-0.05758077429197772,-0.037002008557268734,-0.5260791940485665,2011-09-26 14:18:27.265386004,12.190412171
49.01452938131192,8.35137417195984,112.5500838123467,0.0783783553349851,0.006482729691390826,-1.2523443429903032,-69.73234848796756,2.938495334890698,-26.581885158337055,0.090786388627161,-0.5246968805324881,-4.890137361841197,-0.14741806706799493,9.663598098593848,-2.615817165418479,-1.4253492641047134,9.989478130138867,-0.07798199165862313,-0.19629753679977419,-0.08716637657501383,-0.018311357778053067,-0.045628154881026714,-0.025646999844123764,2011-09-26 14:18:27.375367298,12.300393465
49.01842080238718,8.353050335876583,114.21756545896145,0.03619748145693384,-0.014522406342833347,3.5766988853853383,-20.145371470902624,14.82769844909278,7.801498436682793,-0.10426690475934286,0.13886611308503033,-0.9612489975391129,-0.6528795369033297,7.473895487416314,4.877553308805452,0.3496934251484468,8.684371749267397,0.02535040120502641,-0.058575035203362484,0.03882844981702886,0.0033314446944741616,-0.009271992311813616,0.11115295920262497,2011-09-26 14:18:27.475338327,12.400364494
