lat,lon,alt,roll,pitch,yaw,vn,ve,vf,vl,vu,ax,ay,az,af,al,au,wx,wy,wz,wf,wl,wu,timestamp,rel_time
48.9485825523179,8.497321263707512,264.2786016964617,-0.06588776217996267,-0.10586480203384115,-0.9204069023274669,-49.31501355948646,-10.332200728695526,-25.970952790978533,0.0005721539837162332,-0.5723056768168264,0.7194919342161514,7.601864572037814,10.31100642820309,-1.694158710013495,-1.7173636828418608,11.82854558370077,-0.061792235982273534,-0.015820997137949204,0.014900488195318152,0.025412935120503213,-0.018172741342069938,0.028634164311394296,2011-10-03 14:57:27.036448963,0.000000000
48.95558557088931,8.500404188524206,254.93757154796336,-0.13940793776452365,0.03639890610993663,-1.2675209190262176,-4.25336750885074,-9.92117294823798,5.8491520193521644,0.3755496257528376,0.07841497870664249,-3.860623860527784,1.2728369292848831,8.736331581048816,-2.8272122511209083,-0.8617524893123857,9.395310652235889,-0.0020012337496845578,0.1384616979445963,-0.3116918990272438,0.07443000300296335,-0.03309506848153806,0.12571043192809614,2011-10-03 14:57:27.146615260,0.110166297
48.952575797977005,8.500667693622816,268.6564801689355,-0.09029200300364858,-0.02139020709112599,-1.7754958144640276,-83.29903870662686,0.14802350399047337,11.146305325627397,0.007446858676289157,-0.39898365803265384,0.1500980581047499,1.154221916477598,9.772991216751693,-0.999957752141956,0.3328724257702497,9.884707067602205,-0.0023262124684800623,-0.022238307297807118,-0.5535580660400228,-0.029226718484620412,-0.032582486750096125,-0.24175419042956647,2011-10-03 14:57:27.246339073,0.209890110
48.94629670654547,8.48765004446158,271.1828532911675,0.07484290841807503,0.01920061321943415,-1.3363599944074225,-18.033888284011145,3.2427024228102193,2.0302175495999992,0.09163982043342797,-0.6879417460035459,2.0511617843636913,-4.800790756461686,12.606709618577149,0.5611666281055648,-1.7599398628228753,10.067726268837744,0.009964883427546332,-0.006744378881306681,0.4271299157405316,0.011240192182243586,0.04089456529016436,0.18588536060415398,2011-10-03 14:57:27.346351297,0.309902334
48.94982921236052,8.478702429847885,267.59026111084245,0.06971401801684415,0.005522396340957126,-1.5797174987838316,-14.801175501979134,-11.935122775225697,18.366287992049028,-0.10236980943237346,0.26902301074993934,-0.6239811835590793,3.5790694638176306,9.736371302890545,1.7145974024776212,-3.9336981030553653,10.32322031837839,0.02099366454170989,-0.04024131630639058,-0.06618617770531549,-0.001811553439253179,0.01543585005880748,0.05130119948075158,2011-10-03 14:57:27.456352889,0.419903926
48.94265081276771,8.494670583257939,272.36431148582767,0.08471833305986257,0.03147257645738675,-1.2156568439603053,-4.918010876917956,5.011238710122976,4.727467365296193,-0.12148648742599008,0.0811767317082627,1.8629591805128594,0.181679113790855,9.728997419186799,-11.297918783005667,-0.009371822596888665,9.447069877447355,-0.004793568743208947,-0.0220699144513266,-0.14772619433809653,0.04963514620915957,0.16597441843421995,0.020246371169488582,2011-10-03 14:57:27.556322557,0.519873594
48.954359446438225,8.483932168734338,262.1693381290235,-0.18930971500793944,0.050848522310105754,-0.34886841549522063,-7.27562685026796,4.576035827353783,22.12400465610492,0.012997681021349012,0.6834313075257057,-3.53176691361699,6.411118280364499,9.869252215964652,8.736392384524652,0.9263979226185415,9.541715139297082,-0.00885490817872522,-0.012337707852386859,0.10487181836197049,0.0023328817467666166,-0.024763474202898445,-0.10280102238740085,2011-10-03 14:57:27.656496898,0.620047935
48.94180494599115,8.47189072322928,269.70093482194125,0.010379981444831522,0.0034608114142963215,-0.6900505444230789,12.223525623125512,-15.395608479009862,9.115447273671005,0.060733394340695385,0.41833903420120894,-1.1839150215009808,6.624802856430547,9.915896229209181,-1.3134218586329802,0.28780085472000444,10.184720518722324,-0.0419249007753349,0.02365076718207375,-0.14911746003074422,0.08256661056598212,-0.02502253624917306,-0.041433081936878384,2011-10-03 14:57:27.766341685,0.729892722
48.96018570675585,8.497270953577067,269.2727813870825,-0.09014732183615884,-0.015860907987805373,-1.5731846278194552,1.4328689483321302,16.283893725976178,40.8681325083181,0.03942516643561278,0.33099752110325104,2.445162974761068,-0.9906105580057905,8.713946648203908,1.185768596498971,3.178989322903415,9.765851596237919,-0.020306457761055222,0.0148461108135967,0.11345552611363531,-0.023422636549118612,0.0055112935321417755,0.06838069246060034,2011-10-03 14:57:27.866299934,0.829850971
48.95038645089119,8.485133722180555,185.39912696453604,-0.055213777362116155,-0.008203658423987256,-1.7825101269665038,-3.7439785653321245,-16.504748579032068,21.02047930651561,0.28105740153978964,0.008163142126063075,-1.3358222666716095,10.266204159463875,8.213160926078265,0.6751279483087391,-0.28020506564544273,9.928413347794885,-0.012570262149091262,0.2335601428475673,-0.20980107208620172,-4.550874469514115e-05,0.02240534403443883,-0.01037985395837544,2011-10-03 14:57:27.976303969,0.939855006
48.94499638571984,8.494393846170192,287.0817698932985,-0.05872119704223948,0.09183727307380261,-0.652959534250414,-10.821046619166545,-0.9151188984394136,-15.265227790919557,-0.379164288413673,0.4322421600334378,0.6668505839811445,-2.4706115254452987,9.715975385967303,-0.07588608492742974,0.17123621992348123,11.974277592159055,0.027338071125552053,-0.0594473162683708,0.16235600056420307,-0.024518448208531107,0.02259108493738354,0.10446451878339426,2011-10-03 14:57:28.076362038,1.039913075
48.941000270778,8.484874995156227,266.6423489739084,-0.06060117203597668,0.11829608062438808,-0.7379994996275134,19.02871099267193,-2.1847359575558913,29.28427515386032,-0.08804611474918621,-0.28402407661048557,2.5049196863596865,1.251607720049416,11.144763123916569,-19.930410948197387,-1.84902629238097,9.999394115505602,0.21294835043198168,-0.022316941761569443,0.03332761045889344,0.01125738030312768,-0.12713475037651317,0.09215451176395921,2011-10-03 14:57:28.176384750,1.139935787
48.946196259917414,8.443189690509136,276.29866016927235,-0.046726859607994595,0.00974389808907005,-1.4491800424641383,14.927221797367348,-10.932429706114064,-12.284867874648974,0.06881699436608625,0.3216611231050065,-1.408134120979013,-0.8243408237511949,9.431868531572475,0.3433018729521786,-0.8607229656313717,9.49623014210744,0.04442450118754788,0.029791609503617016,0.14496646733297477,-0.002869639831613941,0.0013304255819299535,-0.02067011019933204,2011-10-03 14:57:28.286350934,1.249901971
48.94073871319426,8.47755561861859,276.36612546295066,0.043624068815092426,-0.006505662417302428,-0.6269947852692466,-7.658626411986875,-6.042838536093044,29.367781739987954,0.1668129780269314,-0.3184661167559683,-12.812290651888015,0.9366055255314502,9.673406799092197,1.7246621963120798,-4.436032212068365,10.199550127369312,0.03626556413325075,-0.002156688175720697,-0.4857094873003064,0.00010634097931525954,-0.022578809059525622,-0.022105502454096815,2011-10-03 14:57:28.386232939,1.349783976
48.92705725041276,8.48478821960548,263.742917989381,-0.09331243535756673,-0.0716355626694027,-0.8575991203718909,-6.4600552219697605,4.72988668933941,-8.579257307262946,0.21507939632255127,0.15033973110341528,1.655570161812085,-0.054182394566392095,10.138384506575497,-5.107024525884363,-0.9787727069215233,9.193264219470379,0.03474431778755714,-0.02393924785486283,0.18766038464354318,-0.02258399708059244,-0.27892600791775246,-0.07911283163883344,2011-10-03 14:57:28.486246830,1.449797867
48.951722009806076,8.475979154346605,276.280566403975,-0.033807379151781856,0.028306993421006663,-1.847976223281849,-23.3190361444726,1.554396261512672,-127.1290071691255,-0.10976910444920039,0.56706363607497,-2.2123640779564426,-1.1700793155529707,6.9719415304490635,-5.223292075240991,0.14598909109536357,10.026879814713658,-0.013483195570693534,0.013776681066970583,-0.0328963213313323,0.035315279241651,0.000870926267746838,-0.042879213805827224,2011-10-03 14:57:28.596347200,1.559898237
48.95705367187445,8.491559022999112,244.3653702344753,0.0847278540001114,-0.006381055087926409,-0.9902533902853198,31.535219964673196,-1.589240225158568,7.068346574448582,-0.06834683025869684,0.6015444539462956,1.4600971039046624,0.6708233010703335,9.960677688114233,-2.524362749999136,1.001817065659166,10.322554740686972,-0.14418692122831417,0.19873694082807547,-0.13256756894399777,-0.033491524887565176,-0.008632947991918416,0.1344669220121504,2011-10-03 14:57:28.696237865,1.659788902
48.94725156899068,8.490571380859208,269.87586068423116,-0.027680724562129177,0.02299806457934739,-0.47692602475101387,28.71327843016891,46.08727730776587,9.958961896031937,-0.04005245679063742,-0.7223126523035349,-0.28048304682806985,-0.7527493688518847,9.81539607804269,0.41405450898173646,1.911476843437091,9.971941323955782,0.004067009563524268,-0.01707419363526178,0.2587391039820295,0.12352521484597417,-0.013741776896933441,0.22869011820418733,2011-10-03 14:57:28.796259175,1.759810212
48.95205924382439,8.490952343494532,247.1875167444842,-0.6072204904092398,0.024635300783937567,-0.8352560573953307,-139.8815383041644,-1.1711491455784584,-17.61268910045761,-0.04327722093220255,0.03421272600495054,-2.384263792867628,4.161560501185828,9.97808723700659,-1.6572928317876159,0.8625687502017938,9.469259178032363,0.035324984395404685,0.023370256896895175,-0.019692173300961364,0.007444602267134302,0.0359756097748496,-0.09239595460161203,2011-10-03 14:57:28.906177965,1.869729002
48.95678970711552,8.486691887910203,274.0882520335603,0.249099059574856,0.0010723117698303707,-1.8907553683521643,4.6922537701841485,3.637282823469512,8.712575504349054,0.016310475706460797,-0.7388896029445969,0.13575203589011808,20.529455562019198,9.65265748211206,-1.9928987009067125,-1.6458860782870228,11.14346327099723,0.09940877490917997,0.0625176984070944,-0.14340038503196875,0.01258925344472695,0.024338800536252453,-0.3086902300805111,2011-10-03 14:57:29.006221139,1.969772176
48.957126597345486,8.486550780047983,278.5790437032355,-0.08449680641555514,0.09432929158686199,1.5643696070188542,-18.089420919888774,0.24865471955299334,22.66841728022111,0.051415769707039,-2.2263434737229524,0.2648046177269784,-0.3005334611684436,9.761924368306696,0.5683309564770627,1.213817499637195,10.531683015300839,-0.18467778175949373,0.01653119542197692,0.30397853838348826,0.04665119173588678,-0.005066942335453237,-0.07284586946311643,2011-10-03 14:57:29.116348648,2.079899685
48.94060235568878,8.488965508536207,266.4785225945413,0.058070332253052324,-0.09101822049662711,-0.5748453726052198,6.40275827289654,1.0176975790024758,-58.730191201874916,-0.1738214647525211,0.5448561678743268,-1.0138577816897778,0.9384455845534364,9.970018468789565,0.8291583479712968,-2.476232191289788,9.855111723047477,-0.0624024579876327,0.012432112952020498,0.007689820811121192,-0.038012910983033686,-0.03234799494053404,0.0027687487454376653,2011-10-03 14:57:29.216128213,2.179679250
48.953179804788725,8.479890956289674,278.5375244830655,-0.18495805248508881,-0.0037717210635735093,-1.3443387603532992,3.3857569514242276,-37.40240391373542,13.206706653677681,-0.059744701147103875,-0.5834875207245271,0.5965263762794165,3.7967792966738663,9.824583884556398,-0.32970966482392067,-1.8727832169510479,10.128090482778438,0.015687248521079045,0.05464547522582695,0.21821351657317423,0.013798712238806719,-0.024192827727643997,-0.02209264690180122,2011-10-03 14:57:29.316122863,2.279673900
48.94596931330671,8.494375568515881,261.18778424056467,0.24140589458294467,-0.014683970759163209,-2.0849148514774036,0.24047315478580877,-14.262858518258914,5.001339526517821,0.18977299387282812,-0.24963025138691192,0.47572416464846123,4.4584349234115,9.343887182576713,-3.9005336559403827,2.572485631608711,9.790603503002854,-0.06011651159438201,-0.17235689003478605,-0.03012118831875192,-0.012117701106043053,0.0015685123829897155,-0.05387728568319508,2011-10-03 14:57:29.426094863,2.389645900
48.958663917288796,8.49260643362939,272.76501381511616,0.045996818411553626,0.023174883260305288,0.061051266022689954,-0.6055521195310936,-20.642732536429357,-6.829603182437088,-0.0076116590466141065,-0.17931958462228523,-3.7063793911161875,-1.2725169189804397,9.611251836873329,-4.032708111027426,-1.5001923388594869,9.926397324212074,0.024536561222970647,0.06170304777892235,0.13461051907804372,0.028763481156012183,0.062283433797847475,0.6930467896971599,2011-10-03 14:57:29.526120683,2.489671720
48.94232460366983,8.509564150867,277.6745235115102,0.006847259011960902,-0.042345606803313805,-1.3026431421538005,4.516122571728502,9.887919444246418,6.387564939992242,0.12491468526537931,0.1306216876992336,-0.10486037899540984,-0.9383158459489553,10.131513280819332,1.0028665096656342,0.5493200510500028,9.871668577555093,0.021771303063921273,0.009961201459712056,-0.03076631380109747,0.014377940751156884,-0.027199224238830037,-0.010904815104432653,2011-10-03 14:57:29.626224698,2.589775735
48.94680011411057,8.525228985748578,267.772520993098,0.00902156382566461,-0.01656127033574988,-6.275331499187553,5.954572379516961,3.9180485332599777,12.025989814159082,-0.02722533987727935,0.14370224509232907,-16.087704344209893,0.29120816458306403,9.682498652681883,-6.682388812770504,-0.4535609245538288,11.67248009304012,0.10844189540542455,-0.15359887322275909,0.052518644954361766,0.03345723322922853,-0.01791505764638142,0.15743358608063535,2011-10-03 14:57:29.736078532,2.699629569
48.94714558262536,8.488319974820648,265.8223163374429,-0.8377556869973464,-0.05442725812888447,-0.5578882276044226,-8.838638390902448,3.364740000700391,-0.9664171832499613,0.03337002030138823,1.0766981408642933,-14.209403484903369,0.5166108277821717,10.70890864394424,-0.33785066473365344,-1.6797966469856507,10.198782095516567,-0.007072507105112346,-0.01344985835131887,-0.03643411124605858,0.031109525065383253,0.01781522246433491,-0.22956432045753,2011-10-03 14:57:29.836074942,2.799625979
48.94323011652806,8.48579596350644,284.4254931097554,-0.07205543307229956,0.09677952989853904,-1.9571936539086203,-0.796874379674402,-5.982485721913608,-10.68344917439583,0.2754899658659772,-0.32993477684322536,-3.176328744820429,0.7709757443320246,9.51855763961982,-0.9128067268256355,-2.0753479431752058,7.07163687163249,0.004561474223162854,0.0037034395012647365,0.16578328435015638,-0.01538841091093369,0.007779273141569733,0.0449819340789572,2011-10-03 14:57:29.936048518,2.899599555
48.9502544247977,8.480952100584995,276.88518190080305,0.2541252591619101,0.025579541145353917,-0.3748499765832449,-6.864344705549259,-5.350759142616578,1.8515956453641271,0.0112576935748906,0.5021586010196161,-4.329096842480755,1.239447372331308,9.914579301309697,1.4825431227823578,-1.5823371839767757,9.83319164136797,-0.01204069004496714,0.031056800124979123,-0.044409691254178894,-0.13269382484567813,-0.0021196861803142618,0.10090999417798514,2011-10-03 14:57:30.046019479,3.009570516
48.95267645572204,8.488650961653786,265.9141101208962,-0.025880512290340423,-0.11290832171723778,0.18111593209189503,-24.530614438234863,12.793512268894794,16.382814408142174,0.09861664346251943,5.19288092963282,-2.5699036464362988,-0.030820296579383066,10.024309026934665,0.34801724632178854,-3.7380043077951797,10.039918347163248,-0.02864283153980111,-0.008944895732521097,-0.12690650741487988,-0.05567605042988105,0.004489548936625334,-0.4688941932819227,2011-10-03 14:57:30.146155624,3.109706661
48.95632831331474,8.492661717097468,266.3160700611546,-0.2514922495585551,0.3182087966368783,-0.4311973147344921,-10.71074503768336,-10.354537476538969,-7.651158788247475,0.5218534808013543,-0.2076445740142992,1.2600209166325562,0.7138822718237924,12.204646410194606,-2.2063203599674326,-14.89091433629297,10.417670055879988,0.08628267118541898,0.0015592529239964446,0.038341268126870026,-0.02335959901310229,-0.027157903437717124,0.030622432350711874,2011-10-03 14:57:30.256039427,3.219590464
48.952581455581004,8.489523464470228,270.8902528770073,-0.010041782355689699,0.08735286070147676,-1.619372943429668,9.45871659249125,3.2376456035129273,-1.8694892215574734,-0.06711647799597459,0.24512981060994535,-2.013417762603902,2.336278631632636,7.861727199104379,-2.8933223566755375,-3.352635321487128,9.180280081199005,0.027247698783734703,0.013491780909021554,-0.054839824760642794,-0.15904465997341957,0.001251096034654213,0.31960732046916224,2011-10-03 14:57:30.356044323,3.319595360
48.95248818814723,8.472985042296534,259.3387676083429,0.06051923464380258,0.009233081485035224,-1.9078743328936216,1.3590042065434358,3.876420675802942,-15.60232435711865,-0.1622444278816489,2.3843069481749177,5.897543304770619,0.9792997366132653,9.565355661629093,-10.566210844073561,6.561948997322216,10.380789451901967,0.20810423915888474,-0.009118733304458657,0.033564119381137805,-0.027237308053415694,0.012208503387306596,0.3985034347399052,2011-10-03 14:57:30.455994934,3.419545971
48.94480366085998,8.485275970496573,273.50792977637343,-0.17191230268163304,-0.016071638177623266,-1.2697977450267688,13.825675633267416,-6.878494266458544,15.810803164332997,0.010696213749383239,-0.3859414484754306,14.465021198939668,0.48837735174086494,9.690491130564961,1.930727950738712,-1.5299475764251944,9.253149818280232,0.021939765560310527,-0.049309462222375734,0.0018230897849329263,0.2013428109403964,-0.004891591895925251,-0.033323589841733205,2011-10-03 14:57:30.565986444,3.529537481
48.954199390436095,8.489032255703217,271.08667392655,-0.10400722876275945,0.028974559481062808,-0.9990524689828414,12.758090160325107,10.38622565763027,0.383652686841375,-0.12987297160249336,0.08839730673514119,0.1654697776549943,-4.9165839003582725,9.809928393722632,14.559522619804472,-2.690844163975908,10.008026163425491,0.0003702009857874125,-0.21847213044644492,-0.03897129802430452,-0.022398437118238818,-0.03502101945753996,0.19761259423604552,2011-10-03 14:57:30.666190178,3.629741215
48.95718353651597,8.48998060832784,268.74813452780177,0.04340531897789317,0.0073523122531833855,-1.6015252563432534,-9.075413631161199,-1.4650279926025047,-8.249809693279598,-0.19623416896119764,1.1384665811785553,-0.7851135742322805,-0.4504326510698138,9.78408341976381,-2.803279911732954,-0.03140804630287248,10.309935266592735,0.033710033996837946,-0.009712784273827513,0.18916540337251722,-0.0570165647035392,0.0319361345521839,0.09892433710863616,2011-10-03 14:57:30.765959514,3.729510551
48.953713991148994,8.482553631195843,305.92900154173583,0.001028704260562216,0.034947087316413446,1.0769793082354402,-15.724419071130075,19.3926018683033,5.8954927399948485,0.16150976797394248,-0.23261105370976728,-2.193965900718527,-0.046117317121926904,11.685051915249618,-2.1737084148458856,1.0578471426710458,12.189787333581874,-0.027237770043106374,0.01435635462913101,0.15871902837220936,-0.01662609928684853,0.0170698414032479,-0.6002297626562104,2011-10-03 14:57:30.875941960,3.839492997
48.98455654870486,8.494367096230658,268.4784899673102,-0.03984512777377916,-0.024491804637482753,-0.9678105733631698,-15.146985477477893,-2.934771174258402,-4.734880980788727,-0.09289415016744551,-0.28515985215867673,-0.6082582666444856,-2.9419680130796193,10.442586178075056,2.005309806972201,-0.40985449784237116,10.97688874145109,-0.009751416148054446,-0.00403862509907942,0.05163691038025915,-0.012223065792374237,0.011439846150655564,-0.15546876841445545,2011-10-03 14:57:30.975934649,3.939485686
48.95114294490031,8.48669957537694,269.6580490276625,0.03231542295579512,0.29213733642144013,0.8102041868941604,-11.047601611383966,2.3394170284246365,12.027099524604578,-0.04357084843486875,0.32094489027812473,-22.914755349699494,0.7537538824411187,9.404941471324912,1.3313462673485228,-1.6646055753047946,8.550538739639295,-0.004730163514076037,-0.051762840322835915,-0.009987879724709988,-0.0017547769049200384,-0.047644445992876504,-0.3545013372119943,2011-10-03 14:57:31.075949820,4.039500857
48.95498908835636,8.488798600706438,266.89353913429846,0.043459786123580035,-0.060325530433211434,-2.8663170071082558,-7.380781063705027,7.6526585770378635,-0.2556566185427047,0.10940158941885404,0.34447270092442367,-2.1726213999150703,8.883065400252365,9.90594370968965,-18.588396975538053,0.9220067170473372,9.581381108003072,0.031971523038793075,-0.03334343112915904,0.03134998251024076,0.0026937432581967398,-0.008294570384811177,-0.3747695367144336,2011-10-03 14:57:31.185920654,4.149471691
48.955992837305885,8.480975720893474,300.7610772600729,-0.07264936415044435,0.2969799466760246,-1.0334426175994873,4.542286604121534,2.5951580306146633,-9.186399839722368,-0.0059058839977793876,-0.27666062895237437,-3.1697633904872595,-0.4237837601955008,10.029163929996683,3.116933442801196,0.19450098607009866,9.718318828372823,0.031652090645172645,-0.26383180756388197,0.00857862739934343,0.0015537478452466048,-4.174908762223737e-05,0.12302790356137885,2011-10-03 14:57:31.285886356,4.249437393
48.94515136174291,8.489377921541736,262.58565012590435,-0.05116367952068062,-0.01202100817638211,-0.7126696306072787,11.56234750587128,4.479286416872304,4.337788539307869,1.07827261954373,0.4120889912756102,0.3734147751525029,-1.3869457854955658,9.851126769190701,-0.5193701755218592,1.2220364642043144,10.127019554706902,-0.006858503003524979,0.03898136837390344,-0.03058367157085652,-0.01831217064945411,-0.0206394874195961,0.0063988569438391965,2011-10-03 14:57:31.395884684,4.359435721
48.95125224920482,8.483769610216761,263.48747857922314,-0.1215376658907782,-0.02632827960263858,-5.477601105643035,-6.455049907958761,-0.5201617862466201,4.144428055584084,-0.13713486344977893,0.3108357104688779,1.6064454226768294,0.2941386091243996,9.42068449784534,-12.210583340379543,0.8449094694733617,9.739914049838655,-0.029666776154218484,-0.004598832531435458,-0.6063654146038469,-0.02095902091083212,0.06388390328817659,0.4570062713806689,2011-10-03 14:57:31.495863128,4.459414165
48.94671206064334,8.489732629377391,269.2367034988742,0.022335668500157904,0.12157698160657732,-1.9727860071682786,0.051190117548430614,0.22097360962117807,109.80105761289538,0.004809532686803699,-0.0391752221153622,-11.661570398032673,-2.288348574374102,9.115039073006296,5.811716196397039,-2.181095513825496,9.536837465214418,-0.009711546322600169,-0.015924200216174075,0.05824473111145961,-0.004106841250197342,-0.04912593642228537,-0.47117173004811763,2011-10-03 14:57:31.596042703,4.559593740
48.96003426626717,8.484535390651986,273.0505130337225,-0.0034265659980184,0.00010125268367588633,-1.9123800641696347,-21.100114053443615,14.921642214365026,18.35977279964857,0.4619939587442802,1.1306121563540845,-2.9313478488730063,-0.16549483189674394,10.754098361457162,5.920331064094195,-1.6241077504327819,9.839795597037417,-0.006212247443486415,0.009404599855078131,-0.002486433873752348,0.1636544486041324,0.004424254579220031,0.04784904031909809,2011-10-03 14:57:31.705877283,4.669428320
48.954599344832424,8.516481022390593,275.97896497825843,-0.11917445351620198,-0.03751104953048786,-0.8902319321904121,-7.387259211192189,-0.4999314699629993,26.688394572996557,-0.1666987351432579,-4.315768856726625,2.760878230732105,-3.7268261052486866,9.487796176978422,2.3088104473712883,-2.426928054972824,9.860768321580107,0.0003336502902699459,-0.026456048456951146,0.17299914974062036,0.0163671871928394,-0.013153256114863923,-0.009729072293680852,2011-10-03 14:57:31.805826904,4.769377941
48.946784962149046,8.479263446881683,265.29959112540024,0.03533763756704246,-0.0488584177388513,-1.3781478964423102,-2.372010674954922,47.93366108344241,15.89356330216148,-0.3686307665352659,0.14873669658089683,-5.4329750178267435,-1.7816536880924045,9.790008224993349,15.32470640625183,-2.217346368561806,9.712771636437704,0.04439743663967226,-0.006116682327240437,-0.0711107990711513,0.03087226220955292,0.009027630244760184,0.09985531607397075,2011-10-03 14:57:31.905824029,4.869375066
48.94908780905195,8.48861534336062,264.5118559353552,-0.1013327940764337,-0.09431871630117894,-0.5741782788259464,-10.07366303245648,3.6525273680626276,10.910685243994777,0.05499409058078135,1.0608695862958593,10.540661501005976,-0.29907936489660625,9.813031652357415,-1.0119775733678897,2.201604749208105,10.209446910065562,-0.018488665789621345,-0.005942935478544679,0.2576571840947555,0.04680187807440794,0.04531210166156513,0.04820951246614515,2011-10-03 14:57:32.015803034,4.979354071
48.942117861073214,8.493257123302865,272.8521526913567,-0.21751542674299043,-0.09036686002259803,-0.6331302630537253,-1.0831193286462524,-8.90243701640923,1.7265748532636982,0.0025853682484358433,0.4028017063281327,1.761565740349646,-2.4766913442163356,8.578014055908668,-15.648513709829055,2.089877927953072,10.008803887126563,-0.03162903157061501,-0.022528123024007158,-0.12830094098201408,-0.0349779652531424,0.017697952813022628,-0.09708211276644661,2011-10-03 14:57:32.115867411,5.079418448
48.95318149328813,8.48100855247911,275.3797284133953,-0.04816548518010824,-0.018848722781744674,-0.6711853970461796,12.30474713684759,13.742078070991909,15.173679288445822,0.420257292285035,0.028854665603353903,-1.7015307527958727,-0.92858797261058,9.600747604172536,4.580760519620488,0.23851096421421494,8.714751854628162,-0.027120563260830382,-0.013269854789043547,-0.08012358806317217,0.016887853805625443,-0.01836670110942997,0.1116616128580699,2011-10-03 14:57:32.215828880,5.179379917
48.945885856434664,8.491640973562783,272.79587053536414,-0.1165990051510689,-0.03497051977143213,-0.8286190708413259,5.564469666592023,-9.080228589976894,-55.074816847037,-0.04619031245309249,0.08490036429747672,7.339522512848605,-2.439103248341585,9.678486551012584,5.312936793380864,-2.022776850148012,9.89894151621779,-0.027134216073463654,0.11287635453006076,0.0960349698351387,0.024841727309738947,-0.018415105030680955,0.001285229342085674,2011-10-03 14:57:32.325772887,5.289323924
48.95109568512332,8.491612011148915,270.0086031532927,0.032960652706778226,-0.2613876477505661,-1.8674200829368157,-24.44117212043242,22.260975848607323,13.717709297632494,-0.08311859629748303,0.4467456255996689,3.9364717100121607,0.9666870780166908,9.093981617936638,0.4452049509027096,3.530858149675604,9.903522674939321,-0.005009950521869977,-0.04030448086492537,0.2162904648193603,-0.0157439519082054,-0.018527795751336406,0.12061239918946537,2011-10-03 14:57:32.425766039,5.389317076
48.95626594623016,8.489997461001522,291.0319514127768,-0.050216962880731124,-0.04791531891347456,-1.398696183181996,1.6827801353617091,3.5794813065473137,36.74316097455941,0.09025216220218214,-1.5268492849811703,-0.7183386442664972,-0.9595483790198069,9.333143801964377,0.7494618078377028,7.452116762873289,12.165694190414017,-0.005526875927153778,0.08207979712932092,-0.07613313696501775,0.02787121590692047,-0.04592473060576197,-0.5432026699083148,2011-10-03 14:57:32.535748461,5.499299498
48.9543397777439,8.494615934049211,271.3749053633762,-0.08449559981219211,-0.05043138566590273,-0.36595053767919516,-12.123295610882476,4.151302016481473,98.59229864048169,0.24299031749306088,0.33898665498925445,2.200475348999613,-9.620983750469058,7.65880713768907,1.5068489593601169,-0.42582358938898063,10.094087462094906,-0.023396192988501693,0.02454589307519215,-0.11208335513063455,-0.02146944307501414,-0.007262036160349862,0.03079784974765093,2011-10-03 14:57:32.635947438,5.599498475
48.9457836813939,8.507517747832598,271.70502636667374,0.07539656096253937,-0.03725971248518316,-1.283914004835852,15.244427117750138,-4.831867501832398,-38.07841974176957,-0.11942318171453227,-1.5440418671245066,0.19162945745604332,-0.4105873335134235,9.954626261109702,1.7719837574289752,0.8782588889763743,9.6406699526236,-0.009727116262634845,-0.015218507083180942,0.8063425772616865,0.015901419981435506,0.14957775189041989,-0.055264333247268135,2011-10-03 14:57:32.735712829,5.699263866
48.95645591728695,8.517372383968484,264.2907895574912,-0.13584315556718904,0.2898727650413396,-0.6338611156097502,4.5737075915237035,73.10354193875476,11.441010560971558,0.11034110016056732,0.20458608018174523,1.86783368987447,-0.4266893187640061,10.15311284757247,1.5894021976526118,-0.1862142557649918,10.00052446089445,-0.030939236395531058,-0.09343183503081864,1.4735152499648623,0.019613138505757202,-0.014496126723517045,0.6450179092289058,2011-10-03 14:57:32.845703183,5.809254220
48.94345837043793,8.475787791179714,271.2107689422557,-0.033852269381552516,-0.06071393776777073,-0.45565088166646844,-11.304002082429928,-2.6846836684302846,-18.724103688480536,-0.11706026253721324,0.20410325397195708,-2.0229717804207663,-2.5156828672073,8.641496056391803,4.042507606035868,-2.9168248306977085,6.755734777120486,0.008531624982921288,-0.0053587776863527215,0.06471980806888673,0.13646498892619047,-0.000368385969342347,0.002819509078891175,2011-10-03 14:57:32.945747860,5.909298897
48.93950507782245,8.447579761063807,263.32190402557575,-0.06823583682319566,0.0619761959096795,-3.529082237086716,4.7046556467396625,-47.6882302420738,88.21852362246554,0.00894846240389849,0.18281226466042394,-4.673699540154113,-1.174047773617215,9.462132470838572,1.8548345404417161,-0.7076654764139738,9.900421881720542,0.015021394124652011,-0.00577957627181722,0.007130172638170482,-0.027521020378911965,-0.029662404961466503,0.054591379114089685,2011-10-03 14:57:33.045683917,6.009234954
48.945767025646326,8.484337583358531,271.8051576385813,-0.0960036008947051,0.02051572959758056,-0.988516117265115,6.412242086893988,5.1586792699602615,-11.289671240154698,-0.11127631171546344,-0.45590360009722775,1.9586773848304015,-0.5872056167234343,9.958476515140122,0.463214705872273,0.4394021557318236,9.666688995299785,0.05475149505399743,0.008201962906097815,0.17730407343366478,0.152340433753158,0.0002231799310441823,-0.06257263258808295,2011-10-03 14:57:33.155719624,6.119270661
48.9565953788487,8.489755441450315,274.5981916784265,-0.10257741844867897,0.1696851921599545,-0.7851069660964978,-1.2974050371216,12.887623212010407,4.804233277935455,-0.7046780843801603,-0.5063887389841014,-1.043689895192549,0.6119430494595898,8.890076654945338,1.105599392642922,1.8620023255085105,9.42848719250351,-0.001822487049606952,-0.006666684362232098,0.03275321391313907,-0.009986358240769775,-0.00861836363194399,-0.17183974021199147,2011-10-03 14:57:33.255693282,6.219244319
48.94688552738654,8.479740321439909,271.5149241539317,0.07633911944049626,-0.05268087761806087,-1.704580436609247,6.961868485309989,4.539467726846737,-66.24702221494154,0.6293189713972481,0.181854261530843,-0.746138549668149,-0.9735234765422823,9.842260980333299,3.145488461570465,0.17975424599727824,10.078191659883574,0.037535979545345974,0.004995986165194472,-0.21883765804487465,0.009781579531338923,0.003133016399039902,0.10712618674854948,2011-10-03 14:57:33.355686136,6.319237173
48.93923629204919,8.478820137908809,266.9160806882207,-0.49424077573017505,-0.0352970017708544,-0.9264136786362406,-6.181756356770715,5.601491343389513,10.114328452641885,0.08971545678492275,0.43926672837815783,4.7734363327686005,-0.334082908796134,10.132577348678339,-0.29225416789751923,1.3333706927879159,9.470558968431211,-0.03218386713053287,0.0014895866493286913,-0.059242823044380756,0.02118177729661663,0.029376696867626013,-0.22787194833212107,2011-10-03 14:57:33.465641126,6.429192163
48.942141071637764,8.486386729910926,251.1703336380724,-0.13573625661768376,0.05526091363093686,-1.4992217792448295,36.59871510524982,2.6330479383490157,13.454058976055613,-0.07928693233921208,-0.22703127863186973,1.9895857144017453,2.4011756395791295,10.10900699819522,-0.589939255968895,-0.7295356405560887,8.781512612700153,-0.16514564746602262,0.04074982071133791,-0.051080693721556755,-0.09001721381421125,-0.015861203913898926,0.17118119924674915,2011-10-03 14:57:33.565646001,6.529197038
48.95700246655809,8.482509674659017,272.6655906158499,-0.33162424862985357,-0.021488722886059165,-0.9940146192994703,-3.279884413820391,-4.580485497289734,-0.9299888855342502,-0.1011177859209375,0.21025848523093363,-4.2049068384138915,4.880061849950861,9.42517322305337,-2.613494643348533,-2.0227139885184644,10.094357995672823,0.016350784822078565,0.031741588825685355,-0.09957394363567056,-0.023367514745004248,0.022474387062752798,0.10325484780769123,2011-10-03 14:57:33.675833977,6.639385014
48.9520968236445,8.47898080040435,278.1677449330205,0.05115938375205073,-0.004856755586089042,-0.43843819954457297,3.249920697311543,10.733347501063983,-5.0276532637660125,-0.6137561873557839,-0.23165342071349027,-4.699035474355344,-0.6802631264534116,9.277083432618825,-6.329906423530175,-5.2179330215433195,9.62242526879285,0.015433326424985024,-0.01654626175797193,-0.11246881736923198,-0.013895726247277012,0.06064331222412839,0.05973865997020878,2011-10-03 14:57:33.775633369,6.739184406
48.94700278628861,8.529083144509574,277.48578763326844,-0.059801193113750595,-0.011357718473269125,-0.9768980370338188,-4.135267178516748,-0.5581400671015593,17.900828869858216,0.061762815741332605,1.9653059271134452,4.38572620352235,-1.1446560458943777,9.780225322209576,-2.3488776755279197,-0.7545024087756829,9.191280612482746,0.00485702970194337,0.11114032564860733,-0.0008112258133046706,-0.013132187518921055,0.02979560878452452,-0.07511548935034854,2011-10-03 14:57:33.875621342,6.839172379
48.975073597929295,8.46968601309286,276.7107564432916,0.012748771307611931,-0.05602123086165303,-0.8894094151053908,-43.62593998584451,20.155418556673865,8.180270155972657,0.07754484814899536,-0.18795213107423875,0.885028871802797,1.1894818746123317,9.724193975504617,-19.86149580664871,-12.747035659264684,8.581129703343539,-0.0010223484291882936,0.02684936690519743,-0.016386215001378594,0.0016980433018495083,0.0029442806731382245,0.31714314199899135,2011-10-03 14:57:33.985590967,6.949142004
48.95498563846198,8.481396334106234,268.9660881406297,-0.08286511037865149,0.010980135137098527,-1.6009713785002584,14.999056138941715,9.264375702477416,16.842700146130223,0.11347422659039089,-0.04201461847368644,1.7783885459769744,-0.4072109589319344,9.865887883421378,-1.385994404501457,-1.6833471618749813,9.455568627167787,-0.006343229160320265,-0.01032253755498701,-0.02330089677007179,0.005922356661368201,0.1876407421029817,1.717603633726988,2011-10-03 14:57:34.085739267,7.049290304
48.95192494192331,8.490688159600092,279.195449586343,-0.3022707978400955,0.018580969736829166,-1.0082607361901552,-3.8532232274676,-10.709308538114428,12.786959183890296,0.0789973181812181,-1.1658707783241222,0.5922397210009417,0.9741447834768606,9.585462851201155,0.06959736576781683,-0.401026015865873,9.945168350925977,-0.01631477290818252,0.014265401962353222,0.013420249446108597,-0.021477542864791612,0.019745475211207116,0.011599513432537855,2011-10-03 14:57:34.185666875,7.149217912
48.9573019070536,8.480701846043708,300.1023081320667,0.03595017387990647,0.0006664794352451782,-1.362338813866281,-13.470924693867577,6.924524501370829,11.868754116876138,-0.04295284679433224,-0.03338046470365645,-5.752088054044685,1.996171833597697,9.841902435637918,28.405591953144064,-2.3695014246533854,9.138772913281356,-0.03681980435121129,-0.05576922731983739,0.20359763873967548,-0.04642931616057342,-0.016857529533251377,0.07041218501110272,2011-10-03 14:57:34.295565650,7.259116687
48.962289018442384,8.479979721027878,276.3817729764998,0.003679791407216089,-0.030260004314099257,-1.19618989843963,-24.9631580003193,-3.468861278231249,4.156849740906514,0.14659976349554485,0.20162608556326062,4.7623776509069655,2.395159116243085,10.177592156855892,-1.565995318479948,-4.22277924544868,10.029718770563369,-0.015110862804704464,0.0013450936120147868,0.018306011057552543,0.03949821908170502,0.002660308281653264,0.3213521546899114,2011-10-03 14:57:34.395554772,7.359105809
48.95698591263452,8.484393086386138,260.28951226109854,0.08275481954749113,0.012077654047562433,-1.2212742587157268,6.064114174523905,5.352319935684398,38.87062986360392,-0.06412151884046016,-0.14720358235737743,8.514459170112422,-1.2287799284046512,10.006902199937285,-1.186237777191945,1.1541644932834867,9.814984100626464,-0.023630727902421884,-0.07736837075436835,0.03696757786852481,-0.17263265316294815,0.0025225913739733924,-1.3907110629443977,2011-10-03 14:57:34.495517110,7.459068147
48.95594168159638,8.478569267889808,269.2534996776631,0.008259120692359553,-0.05837528035652997,-0.5323467641284982,-21.54337462147139,-5.717556685680345,-11.60114241093055,-0.029576426980095334,-0.3201422733142172,0.5799913727001923,-0.6489087795380604,6.35169944255917,-3.1951129740583304,-1.1866966316923606,9.663784937030815,-0.01909951268486202,-0.020834739799039617,-0.14868783813644762,0.0017609744768171676,-0.014652122824809963,0.0468748986967507,2011-10-03 14:57:34.605615669,7.569166706
48.95061645294981,8.488535218587574,265.7607557557049,0.040254492881545874,-0.09611895939742453,-0.594177994134917,14.844768069025324,1.6923859236284833,17.3121819758734,-0.014084192112810536,-0.0626898852565757,-16.826201781907994,3.9929160235676178,9.579111741120585,-2.2154687111628686,0.13350996858636616,9.477234810522607,-0.0022214665389597766,-0.015411371276070217,-1.0375106569910697,-0.019945442680471485,-0.0024558552592260693,-0.19470895918933798,2011-10-03 14:57:34.705534279,7.669085316
48.94952155397795,8.500748815524505,266.6568757067195,-0.10393141885430553,-0.03271888186298122,-1.373422036924186,4.721330525404892,-39.62249256855678,1.6404615045079858,-0.009382982270619749,-0.06814884389664486,-1.20951202990558,0.6651109353526758,9.866906476253689,-2.4089531308434933,2.670929306289344,9.467780776637118,0.02555937908167788,-0.03497767277183141,0.22642622623994546,-0.042133973876131825,-0.017402344859345026,0.19626651561500785,2011-10-03 14:57:34.815488506,7.779039543
48.959204872083006,8.505229706786261,278.40743626191136,0.11418731503930168,0.009864767280282152,-1.9944321865842602,-2.7972464458395203,-10.969964098368381,12.708332638370049,0.1050662163964943,0.04518181520335908,0.411273079007969,-0.7271366649976924,10.134375608853619,-3.0567764153038617,-2.510880964574101,9.703160759776727,-0.04024007564407506,0.027127050317891123,0.021309916545512415,-0.05085766471319547,-0.006260498362329795,0.2716797831527719,2011-10-03 14:57:34.915518229,7.879069266
48.987271004615465,8.468361027918117,238.3999181610409,-0.013905297061927316,-0.08353160257646865,-0.9395278765563809,-15.304100632715393,106.00498447476643,-6.437323105184805,0.04209492435674021,-0.3117333313470484,1.3958830643153448,-2.0259836932615563,9.505587744248999,-3.5885514237719063,-1.76518893636128,10.66746002218831,-0.00045640068604566996,-0.0019909595711977827,-0.07768059318207293,0.02021522441273768,-0.0058833106037644795,0.004520277213521681,2011-10-03 14:57:35.015470401,7.979021438
48.95583757471275,8.48552364668076,266.68574721667864,-0.025386251689341704,0.006746464040611584,-0.5206673930098766,9.156177947348993,-4.441263796313123,-25.295216660890095,-0.01726139371573186,0.5098105468300322,-0.13260347753649512,8.77838967791247,10.177266219547787,2.3646472893046226,-1.8604851489547216,9.782495643869133,0.0718070318198211,0.01641566898368884,0.09439062534857344,-0.01002755346909385,-0.0004233364237130721,-0.007654072150229976,2011-10-03 14:57:35.125589469,8.089140506
48.95785871376724,8.491447289133031,273.62198938515456,0.007896463049905739,0.03192489437083518,-1.2961608986714788,19.250812701690748,33.41543396383156,-38.65244774630312,-0.01727199987830848,2.2834503639427655,-22.789117306394125,-0.9845165365954167,10.00817248840384,-4.783827233615937,6.06649786404107,8.118758906047251,-0.02135431704625342,-0.17630335035035372,-0.03725740965672396,0.04064875700117159,-0.0037799332645952486,0.0715998241395282,2011-10-03 14:57:35.225449958,8.189000995
48.95427396484734,8.48755838581805,265.4057155067365,0.023184080501124374,-0.05339872040700637,-1.0523005177301115,-5.821622923790322,2.8712235492457325,2.1835397974541477,-0.0529075112261315,-0.22471422361657817,-0.10981162698848604,3.834224943408267,9.738717429584382,-15.47298983020496,-0.847481125010695,9.75486176315462,-0.013711029843420408,0.1604416435236565,-0.056694009760137484,-0.0931172619050389,-0.01722073514620699,-0.039367760699680954,2011-10-03 14:57:35.325448409,8.288999446
48.947023522875824,8.487699340166463,281.44852396376507,0.008075491633546875,0.05367388331843974,-0.7297615167827064,-7.336112847685817,-3.537754042029241,15.339842634941368,-0.010539189469631366,0.10785750738183504,3.5013064086457018,-0.05448301744065079,10.818850791743614,-4.290343096175091,-1.4256566269596418,9.27950310488576,0.0006742669509371274,-0.024228337042460694,-0.08143642419519875,0.25381832844128316,-0.004204519356016121,0.009570039104155817,2011-10-03 14:57:35.435465692,8.399016729
48.92215722715101,8.49045124428207,275.5257672191799,-0.11076004138993378,-0.013675882800365908,-0.04985933996909786,-12.27441183248322,-8.062772245761925,10.98585974989729,-0.0034308408632902545,-1.4238457812719532,-0.7113093251873159,-0.640045710031106,10.154740327885861,-1.6614000500467005,-1.2343742458714042,10.178276936517104,0.025686502101739103,0.005702639693847378,-0.6648292803169918,0.03739415300225105,0.007076150023820212,-0.2666357782345684,2011-10-03 14:57:35.535414786,8.498965823
48.99904736632796,8.518849300392677,266.8712467163167,-0.03003908593558663,0.030705487461447894,-1.92911155498024,50.293507142995324,1.3624245822922554,20.274284233323282,-0.005492395240479387,-0.04443007715334489,0.9641551043844622,-10.290897284719962,10.803332282033855,-1.2484164552531702,0.3689746955728805,10.142629261886695,0.00025993135652307325,0.0007424782389513981,-0.16730220990295414,0.012677561178576205,0.005085116213862989,-0.05683825918304749,2011-10-03 14:57:35.645607535,8.609158572
48.95496347890304,8.489340870890222,273.4049761856468,-0.11037078297767802,0.014308283616962732,-1.028566908874459,-16.165413669267966,6.410703808503426,79.30059198832268,0.06251665906678064,-0.9391252961441031,-2.0452774255627335,1.4850869730513683,9.490910856095173,0.6830129939551127,-1.745407830355025,9.795705636059896,0.0658196266594416,0.0015719687431876364,-0.060262158785950135,-0.006935426103460525,0.028737227901810866,0.28124529671075005,2011-10-03 14:57:35.745384371,8.708935408
48.960109263458975,8.493544130606846,272.891338496895,-0.3941956533413324,-0.01566283475934857,-1.282759380837644,-17.998100092309556,-50.97411873117589,-41.931466167506464,-0.03592164091390508,0.35100814034356864,1.7775631149347921,-1.2311214094266143,9.7615223287425,-1.6997504198166167,-2.2522677796886734,10.517183398635852,0.014202100860193974,0.07328425361352463,0.008782266537834028,-0.0317668827947613,-0.18157775322753852,0.08860920844000408,2011-10-03 14:57:35.845392726,8.808943763
48.94826158099316,8.490717663214854,270.468413793312,0.021663777288600902,0.027605241984921654,-2.9211909288500415,-57.19631528761966,61.56089322283192,41.4959805932261,-1.306597921070773,-0.541626836723974,-2.6824938628251105,-0.41970591607853724,9.824259226389975,3.024274459316041,1.344862418854105,10.530259994044455,-0.006824761771633424,0.04948021250919105,-0.9867719111096412,-0.0016381522499703005,0.020231525676950517,0.22935665332363425,2011-10-03 14:57:35.955409797,8.918960834
48.94791436532747,8.49009211012449,263.326333198264,0.034522002731621516,0.25385791075044956,-1.1995906334618565,5.115092617983354,-9.504575320153236,8.363624793919055,0.12180533107835449,0.762544245028823,0.7123902532675795,1.3554379454060292,9.784781691007739,12.989856927446505,2.7958641458453743,8.911357556094414,0.0032303615804838114,0.03646869634116015,-0.05761077756767104,-0.04244971546314772,0.013331561274540509,0.6721435032751282,2011-10-03 14:57:36.055338126,9.018889163
48.93330345490621,8.476321480446732,256.4502910331293,-0.11768913724001288,-0.0009612933650331749,-0.27851979437620666,-22.668955249969382,2.850487889912189,14.213275176500055,-0.014999004440389567,0.6813361415541633,-1.3211879510178202,6.986644039174693,9.881646326882743,-0.21127308018674468,-1.9786463725914476,10.192152054241305,-0.04275796183235055,-0.012418873489672948,0.10799852176724876,0.013413914157953039,-0.03952687560625958,0.11637258439202054,2011-10-03 14:57:36.155377733,9.118928770
48.95663745405572,8.47976212189021,267.44133621316627,-0.01736550292993542,-0.02899463500535597,-0.5763564126717833,29.345197187155893,29.563067658947297,13.441860861861233,-0.02713623733808334,-0.1362601060208254,10.724364832320552,-1.7938728065177032,10.260886240898078,-1.9275018798005412,-1.978800612018111,9.788313875325324,0.03461658553602422,-0.027445269970938,0.3617386892955514,-0.02970862786334905,0.008179591686753258,-0.014649184320991403,2011-10-03 14:57:36.265330791,9.228881828
48.938240888433555,8.481980591545243,268.8350905205359,-0.0871627015272892,0.05505056170275953,-0.6647694613352915,-108.58099464103357,-63.006180273798634,-1.1358482556791785,-0.11097746683888698,-0.15066861719636332,-3.3522330105253157,6.8856248899321395,9.538955127780662,2.5654910379656277,-2.183812030431332,9.57412274761217,-0.03590986235732582,0.007219727360441916,0.06454780930733807,-0.0006097604462835184,-0.003047449245302346,-0.04385755771301922,2011-10-03 14:57:36.365332137,9.328883174
48.951061184721716,8.49087343660453,269.93633057175117,-0.00690040863316424,-0.04469856243465456,-2.032012649772001,-4.018683289825815,8.277846816902734,-0.7868035016114376,-0.5312600987787757,-0.05773617297275015,-1.4042017055416918,-1.9295497399547108,10.355090018976666,3.3063220550881787,1.5515772477414,9.846208774286382,0.016992168016972897,0.014495297972605608,-0.03796428315642014,-0.01410976246912916,-0.03196405865461035,0.2056597148167022,2011-10-03 14:57:36.465298574,9.428849611
48.95833808122943,8.48820077456128,317.04992887224313,-0.5545812057413252,0.028709956805363666,0.36498957514623853,-4.7057614752976855,43.052619604537426,-7.3617690893291154,-0.08740739788432778,-0.4233396646135662,-2.928196704724825,-0.9078146705904128,7.67775941944908,2.210421743838408,0.4984897871657328,9.544543667122007,0.01844967205789548,-0.00550543981531498,0.37718966726303305,0.006078350361918499,-0.026079297848762464,-0.0657898388529953,2011-10-03 14:57:36.575297342,9.538848379
48.95247903321104,8.487062314744563,272.2736249451546,-0.013344865853040153,-0.06297653016451477,-0.6497014616307466,12.726120167011416,10.829757298410508,-62.453095838943696,0.009221935032500845,-2.0184936688701165,0.8886844384546717,-0.32266507950737333,9.964111726252005,4.74912773783582,-1.5059886164305647,10.237469852785901,-0.037640884788500466,0.15892551500170216,-0.2596999042151444,0.008042721226509899,0.03376614683273047,-0.14770828606781164,2011-10-03 14:57:36.675477957,9.639028994
48.95017442613224,8.50455709263456,267.52660050381274,-0.0310159293082872,-0.16511047048130573,-1.5290506000404114,-29.20820274761698,10.918080865410435,-4.799530170522751,0.18321450343886234,0.218115555981458,3.538506805628408,-1.2102693786953993,9.707835748572899,-4.361428425395507,4.537049200505674,10.080169004777355,0.0648755524228712,0.027435816126681802,0.04589231285623945,0.023184337208957694,-0.006689174116043835,0.04807987559233006,2011-10-03 14:57:36.785296570,9.748847607
48.954982179872204,8.484626270503677,277.5141140551433,-0.020001724222776168,0.03051988326795352,-0.6386208311860782,20.068760134272054,2.513715340056158,9.413750106640249,-0.04280496055392068,-0.15419241759489347,2.8493019027232394,-1.366526618081472,10.90359056694417,0.34027010451875017,1.5683380593532588,9.894009759417933,0.02696681007795506,-0.027418648654294723,0.17792133723375536,-0.010663863769380973,0.10653517672566533,-0.41688112497410446,2011-10-03 14:57:36.885379787,9.848930824
48.9498264729466,8.479811632001779,267.2649393766192,0.5214762083781646,-0.03280634743673834,6.066959342961859,8.872563297678191,-8.425710669846566,7.892500641490788,0.14304824031201072,0.6041669970464301,2.1872957174479026,-0.44136380215683807,9.69655340048809,-0.8237821311867455,-3.4421653538920363,9.856101225856916,0.012735855670288032,-0.016787860406597032,0.491702012415321,-0.13369252288661715,0.0025330180703718322,-0.03066640356416035,2011-10-03 14:57:36.985282880,9.948833917
48.95116064877307,8.494008725333899,265.1173974244042,-0.26204237029088,0.049640223483037114,-3.052649374458861,18.072802685676923,-0.6683611857177345,-6.50907784460971,0.13222659128289543,0.052532654478072864,-3.002697470475862,12.508859251354362,9.354871986439013,-2.021575216043374,-0.5024477512572424,9.56823279176913,-0.06376809934132234,0.038645293151918975,0.056128397084881446,-0.03479323566519323,0.02430347483532093,-0.08626366693089077,2011-10-03 14:57:37.095385255,10.058936292
48.95801234645013,8.497077843889244,263.4055736554591,-0.0400166659620252,-0.31164671248916165,-6.0548984563690205,2.6015050504661295,-0.9372511097870824,9.70272393089446,0.01164407880399482,0.22573283556945653,-1.3371421594548059,-3.004137175598158,11.67978800814355,-3.23223929411832,2.4054208735047418,10.348402709587026,-0.006710556242912311,-0.0070160159882134195,-0.48326980800339164,-0.31365213496008065,-0.0004289126860347491,-0.09967335664457085,2011-10-03 14:57:37.195301763,10.158852800
48.92311661287688,8.496254548919294,258.7348532277903,-0.059809796060208836,-0.2823095005875703,-1.0893387726339392,-0.9110307063798553,3.909107699648882,-81.19072283066555,-0.02707538118058313,0.29913575677403476,-1.3259118472079308,-0.9069796981852919,9.783440416799738,7.98835269019929,-20.867856867738247,10.197231381766292,-0.003746260454910352,-0.017047320231985685,0.482912292588015,-0.022129540690533078,-0.010108800051160959,0.12183345324859124,2011-10-03 14:57:37.295236048,10.258787085
48.95675280132978,8.490476926986195,273.96517666580775,-0.06072884742759059,0.2046146476773231,-0.776868404000191,13.43405328514536,7.187659179187683,-10.658253195426164,-0.11940194948040635,-0.33605752318787596,2.6220322267921343,0.8667163471264359,9.535623544627148,-1.4225504670178246,18.070645192187033,10.50604068361752,0.049145901740800746,-0.020100117807357966,0.03599170528887003,-0.043190777293207985,-0.0068353268618918045,-0.0018293846676622689,2011-10-03 14:57:37.405183290,10.368734327
48.9514782669453,8.490487939762648,232.81808744783362,-0.16275206705517895,0.06472129761890831,1.5012146772385302,-18.766480804914817,-3.1852943453605014,-6.347549440467327,0.10272753263922411,0.738074018709134,17.90859956214801,-0.6258089933270851,11.37551350558095,-3.0267331939975,5.32769757038468,9.826190614183076,-0.004260735286378876,-0.008991293641197867,-0.9710650073153928,-0.03425457135215924,-0.025764113568317794,0.09758382388105642,2011-10-03 14:57:37.505188965,10.468740002
48.962659345330465,8.499849893334751,281.1031015842299,-0.24082913267430872,-0.043238314049839334,-0.7055363234716564,5.638030484976446,-26.172354460995297,23.441897953614166,-0.046972044823600345,0.6457742114838986,-23.967975214543262,-0.8259280310953989,10.425608073102026,2.6686923679424353,1.7171441284077271,9.605520384664954,0.09734851330637437,0.05172893794238979,0.16283115675289822,0.04737142284978913,0.004184637467817309,-0.22234065646808737,2011-10-03 14:57:37.615295989,10.578847026
48.943839057507475,8.479426259780071,267.71211935105373,-0.021001397366616138,-0.016123219378305704,-0.7978276701485074,2.7869635727569966,3.5155569053459224,8.876361903731851,0.09232574783363562,0.4702356900790179,-0.6670753349721854,0.4139752861355481,10.530892661658884,1.4496086763967302,1.5683536195677832,9.93180954208,0.20689990431012198,0.002287258477572286,-0.17038775012824445,0.004802460073165841,5.717261602021951e-05,-0.0016901564127260126,2011-10-03 14:57:37.715195944,10.678746981
48.94905968626028,8.485763103704619,278.15296579965695,-0.14649410932966744,-0.058160629026851304,-0.7770726393466685,-19.053194532980687,-1.319051134334615,47.48938244539216,0.0024115785018809337,-0.7886474136226534,-2.315483082272322,-0.8080763595408325,9.551590342230613,0.03737804033666914,-6.439205094721543,9.242573712743937,0.024390850084843683,0.002899096161035528,0.5188415403106421,-0.013592034970495173,0.007680238530481836,0.038129305988243385,2011-10-03 14:57:37.815159104,10.778710141
48.9648698914122,8.509637842021933,297.45556223867516,-0.15741562966408865,-0.060704201601937804,-1.0931918089091726,-49.460099007361826,2.290988769395817,7.446685524706701,-0.08627038686763601,0.4899943621467001,2.222873853545216,-2.5118848200580506,9.52190378298072,2.2920860310958298,0.48874212710982745,9.00692999892799,-0.17973320421386568,0.04490118233903194,0.10750941411072555,-0.0744479085764864,0.015622803352845036,0.12937457627412863,2011-10-03 14:57:37.925145295,10.888696332
48.95282276126112,8.485679242555404,261.12908325003406,-0.05618385079876986,0.026749636102098018,-0.2775057107965597,-9.912621563255172,12.197236497294375,8.007089810126512,-0.6027738745480286,2.460890470733983,1.167038146779682,-2.1174214904275726,10.186588763400971,1.348386502989832,3.021146678878168,10.029441998329347,0.017125174506021825,-0.007361973570106374,-0.11374753658085336,0.0352616578071406,-0.017158461659250213,-0.2813189799496067,2011-10-03 14:57:38.025132475,10.988683512
48.94893813849573,8.483611786240306,228.92330908575872,-0.2156042359595536,0.4117948226285379,-1.6217694761558548,-10.22714952130767,-4.914226854892552,-35.577688395918294,-0.06987495993814236,0.327957063953085,2.3888608862800123,2.499008868175385,10.190585227709791,1.1485054690345247,0.852980891860528,10.931456757241396,-0.010020846088227597,-0.00764040137994696,-0.0069104114476027535,-0.008830837656767107,0.00450304127326155,0.19755482087672777,2011-10-03 14:57:38.125327391,11.088878428
48.95025604125242,8.480999226588974,244.8084161267437,-0.07884451207547052,-0.023824701549819045,-0.657406200870075,-2.7542630699312367,1.3895740901286702,17.223639442701938,-0.017975507470048606,1.0498532550427648,2.564818879348279,-0.7227700448063649,9.754153245459111,12.105294348420022,-0.9728957857949758,9.79258124303523,-0.0376425618908505,-0.03928355820543597,-0.08158673686378787,0.01505392004827318,0.014038745466173164,-0.01893841253334655,2011-10-03 14:57:38.235129161,11.198680198
48.94689985780148,8.481955459211374,260.8841483091778,-0.0832874159042112,0.15443684144989756,-0.4468171335463116,-26.598984927767777,-3.3071990023915068,7.820791001254575,-0.10385546480441415,0.2216120101223484,1.7542660461582502,0.28458708311317193,9.752784886257672,-18.708359698424104,0.6948124660381912,9.445093740924245,-0.023286819271520647,-0.08403597322756845,0.04297775340639036,-0.026533720241376964,0.02818846314255711,-0.3561054707378308,2011-10-03 14:57:38.335088433,11.298639470
48.97739999052948,8.494424696724343,267.6461999196096,0.02728570352809784,0.031322371026078405,-0.6668733227090158,4.58401603976146,9.181063083731853,-4.288544830690545,0.06215030057901438,0.12220238268284228,-3.23462142851536,-1.8622801992199236,10.039796013068598,5.655166296035346,5.717790751176573,8.783481387771744,-0.00424823492706374,-0.01886436332920423,-0.5468312520530645,0.0703245850493055,-0.025167357040823884,0.10376750534024133,2011-10-03 14:57:38.435084743,11.398635780
48.94525460452593,8.47911920444817,232.25561776829426,-0.03885272141115311,-0.003510120344030008,-0.7868714833115719,-8.425185737956813,-10.113298598718522,17.692462216295976,-0.01327285067380023,0.1655653616043124,-2.135648154108427,-1.1142361424258262,10.50861712715805,-3.090385449860777,-1.8311937297275083,9.8172307012999,0.030546886935448925,-0.02272626964701253,-0.10124858367339933,0.003117418345740287,-0.004000254964580413,0.028355406232283907,2011-10-03 14:57:38.545073069,11.508624106
48.949749325498885,8.492912632604462,269.14974358524165,0.2113959357067217,-0.062286663499277896,0.004407172953427629,-27.329460668900946,10.208429177439088,-12.618289349261126,-0.03406365900467227,-0.713091728256385,-2.562201026411251,0.5489495729417018,10.879611954232494,-3.2149426322248353,22.17059424890759,9.575797508252395,0.01660899944494539,0.19903462848287456,-0.08887276626628723,0.004481152943092556,0.018110984755231516,0.4298336825031755,2011-10-03 14:57:38.645339929,11.608890966
48.95543890931124,8.489680152484222,267.7856921359772,0.04444352330395315,-0.01797534995814075,-0.9414565564210781,-16.971026781037764,-5.940704799281894,36.7418792593424,-0.047847788133585464,-0.2928891354456705,0.7747276009038531,-10.056162782676473,10.014728452348598,-1.6311341049028472,3.597384216322016,9.919652228065493,0.15362651033432623,-0.023655447460380178,0.041584001267104376,0.01094266610800684,0.016068246423210683,0.06451837736766558,2011-10-03 14:57:38.755068348,11.718619385
48.993925263116964,8.483329415666974,250.2292000580638,0.0878681765206782,-0.05323064439696186,-0.9533433187091097,-7.424164358815451,-45.79954602383548,15.05798963255657,0.15222974193382285,-5.39276472469031,0.21718577186213156,0.010756236377179818,9.762526112137216,4.337079981655329,2.9875985731992527,10.08213502131638,-0.012328688704070827,0.012250359157869034,-0.14779476341515255,0.00385621986111925,0.05411513176869334,-0.05786665493575146,2011-10-03 14:57:38.855077162,11.818628199
48.92332060625203,8.48323406582191,272.5034824655228,-0.11251984083072868,0.04150718335460861,-1.3937676911114663,-47.48631251222951,5.384092562273217,18.093480930876567,0.036674568759294535,0.006557866737250631,0.5511890525961356,-1.0257710612906776,10.127521644633786,3.173391995953391,5.328903135879351,9.317432074539632,-0.025402560557823372,0.02476744798087986,-0.13411944531439032,-0.16853160216051624,-0.02198525011806357,0.19259670685148214,2011-10-03 14:57:38.955053938,11.918604975
48.95204226799812,8.485404480656046,275.3570206252098,0.0502467404901986,0.036110408643579284,-1.2630148122279627,-2.185196162787554,4.984240051552244,-10.065516690161761,0.0376941956293318,0.02758374835132077,-1.7077619259339518,10.764435034476378,9.879958589073684,0.8219692546503241,0.3556025082391925,9.709686581197172,0.012880056464459968,-0.0006875400250365097,0.08135225254259351,0.007767714306041392,-0.04021736099022536,0.01248428984650149,2011-10-03 14:57:39.065009010,12.028560047
48.94752382954054,8.49010746555564,269.0432490449629,-0.10118895631594492,0.0038518143119172974,-4.326611414326755,-7.002067290024932,2.2484872598191923,69.5948752155771,-0.0444512567376015,1.6770026992730926,-3.6696044579558493,-2.420898601385513,10.1612860810208,-1.8922256862903857,1.1175595155012035,9.78578957429147,0.01005878452821627,-0.016122374790424242,0.1212278235830845,-0.023892377970726682,0.02196509348771687,-0.0659505013973297,2011-10-03 14:57:39.165037967,12.128589004
48.96780282466163,8.477362298870519,275.6214643649405,-0.10827218060035088,0.0022691975046844463,-1.5496727207151015,-19.205509909435172,8.75584635267394,24.946625496535223,0.13785076819724795,0.5796948133622881,-4.58836813092226,0.6713410073272112,9.62078617274364,-2.2958214926561338,2.856086299513498,12.118483335693778,0.13035953560455762,-0.009641630584411845,0.45203791020716233,0.024017633356224803,0.013455879231401182,-0.06321731507521426,2011-10-03 14:57:39.265014596,12.228565633
48.95923042590906,8.469851527951748,266.6001309952795,-0.09804183566548427,-0.011262939172806779,-0.776986944237311,-11.088441849357714,2.330672850180487,18.694604908805637,0.13973622090096913,0.6788803649010835,-0.0085312180856556,0.46453318943590616,11.251483918299126,-4.735328940876947,0.5996656909391512,10.07971317491539,-0.03993035728899249,-0.028496224462646165,0.05678743993063895,0.02326488084929944,-0.07917217195372447,0.07535549015457609,2011-10-03 14:57:39.375003540,12.338554577
48.950407778884845,8.488427029443425,272.54182575206136,-0.0805088133187164,0.018254129491051648,-2.420377319412028,47.50779881872198,2.843994223410427,23.91183653740866,0.04533492850652379,-2.631046531880287,-9.535657366551414,-0.7835738376712069,9.918990399369095,-5.937350849272285,-0.5787992628263416,9.602752352908368,-0.006682219062759273,0.028829928998721343,0.32439265279381335,-0.003695789109951688,-0.013926859743612883,0.021190365940474104,2011-10-03 14:57:39.474996043,12.438547080
