lat,lon,alt,roll,pitch,yaw,vn,ve,vf,vl,vu,ax,ay,az,af,al,au,wx,wy,wz,wf,wl,wu,timestamp,rel_time
48.95853462001596,8.485922328500237,267.51650732278085,-0.1387120040712076,0.060631711266414125,1.5490771730032873,0.5549995250886401,48.198025013919334,7.852389194902479,-0.09977969687565429,-4.586853653361327,10.681470116232331,-2.743466119763225,9.908711779284987,-3.7484731639216786,-1.0508203828659999,9.86762931849558,0.11314886918114393,0.015486989089714428,0.09319592112705086,-0.013397919267508406,-0.011214581713565546,0.9426140597613377,2011-10-03 14:57:27.036448963,0.000000000
48.95174639781153,8.48691792188605,276.51448567976416,-0.1280722195491378,0.015184057007889053,-0.8459906042010332,6.842721221737584,-39.12586694693066,6.220548708472732,0.015067163737903096,-0.8709564785247345,7.452884841811428,-1.9244436427017346,10.028638822506121,-0.21343654464962586,-0.4572588242008457,9.900240569414464,0.012280686285258647,0.022488710364641083,0.07398052518922238,0.001981604257148198,0.036179857090866095,0.062028710959537416,2011-10-03 14:57:27.146615260,0.110166297
48.94879172373847,8.46288074580496,251.1306344477789,-0.16087831529089355,0.03763096063044632,-0.6943455695518923,0.93505056223482,1.2312428941434816,-21.3256559739413,-0.08620611552835632,0.8554270951184361,4.315338064534846,8.898101760267359,9.990276718502457,-1.2549820672736118,5.238356901287856,9.346043444697834,-0.026636377796982785,-0.0010113499863706877,-0.10298210903090764,0.00048691123347885433,-0.002244250272160325,-0.026550067266023186,2011-10-03 14:57:27.246339073,0.209890110
48.94815742989742,8.489892724952304,268.2515958016612,0.03209426951507511,-0.4101741559518707,-0.8200529009786293,1.326178587116603,11.976856223565164,-5.1857139241546655,-0.13476540863524952,-1.8973872083434902,0.8827362674055185,-2.0019673146454355,11.400962459989355,19.96094285321001,13.614568366888129,9.67477428285349,-0.01871605797472918,0.017286556436202322,0.24639779197658798,0.04127565025955677,0.022919806032481407,-0.21766589314908924,2011-10-03 14:57:27.346351297,0.309902334
48.94947316278412,8.478392798238575,201.0098158490006,-0.008988238364644508,0.038058344602839855,-1.2595371124108123,-3.1319019535784767,0.02921997921795194,13.62691129174188,0.021981447373517593,0.22419246731046263,-2.607825253888749,-1.8327148908988367,9.606372841473247,0.8201771748630629,3.1973369762578203,9.670196412551693,-0.016726819792535867,0.019174353658357096,0.005238267620075312,0.015421524052320525,-0.013203952455853585,-0.05949923541242009,2011-10-03 14:57:27.456352889,0.419903926
48.947608029533924,8.48556672818951,264.6698882533894,-0.06431922839753024,-0.004066048891281516,-0.8910385697603572,-3.762629246515624,-41.666858405309696,-14.174614474996487,-0.020371641448390668,-0.07226022319515624,0.8415074876136248,-2.6543940803239736,9.624034069799997,3.591317639045385,-2.182957977874728,10.442071396352434,-0.018646740311044893,0.027665704038261844,-0.10003871456437781,0.024077527278166186,0.18102708547730847,-0.1056277710845096,2011-10-03 14:57:27.556322557,0.519873594
48.93200388230531,8.518380487675026,263.81832048645526,-0.027732258946178305,-0.008679964507864554,-5.194758064528072,-4.204887599773308,10.340216505498713,-32.80205366306838,0.06821248340453849,-0.07424190662867808,3.0119260302978206,1.5463886849530362,10.087151265142824,-2.2967610022692635,-0.5729123334685388,10.016173106634218,0.03288720871364023,-0.006236534337211003,-0.19355538451299834,0.0006643067682390333,0.007270337307759695,-0.2253319818072563,2011-10-03 14:57:27.656496898,0.620047935
48.954195572655934,8.487622271737601,268.627049521816,-0.028068606556750128,0.027345404773647546,-0.4096315623259562,-10.772561385890263,-8.476481430274594,2.144114814765329,-0.03684391106769429,0.6086351819572564,-23.00228331809997,-5.3927997889149015,9.89134352768643,-0.21541446383219615,0.6900079723121352,9.5389443908109,-0.012131494531331386,0.008327906317167427,0.16757309354473832,-0.02310529206741545,0.01896440321523704,-0.001831066641993802,2011-10-03 14:57:27.766341685,0.729892722
48.95378834872195,8.488625152356635,271.7914912640565,-0.10510895931101491,0.03306375772313429,-2.168852435997098,-8.39175000283229,49.88962926128533,-3.0063081766529436,0.08486797332754256,0.3481027972121366,-3.605925425242301,0.20755423734939746,13.814562452803735,-11.22574821126359,-1.3324790670070779,9.166497682174722,0.05567587436591342,0.009193754143184683,0.8834267495186888,-0.03624972622932016,0.004255142363721458,-0.0731611238448653,2011-10-03 14:57:27.866299934,0.829850971
48.94923095537863,8.492309445681105,226.91525906729203,0.12892011988824462,0.007276069228918578,-0.914909040848957,10.14696370289854,-69.52499250909005,-8.771506098412106,-0.1635445383735378,0.07196076126444281,-0.9450884128433346,0.03215130281449663,10.197622700594035,2.881826305464739,2.434523305925159,10.232758117560754,-0.040497781456344126,0.016364312959603354,-0.17513654070128468,0.013014688618022609,0.011791839139211129,-0.1786861339949251,2011-10-03 14:57:27.976303969,0.939855006
48.9562643756377,8.492015642814764,268.61499871062625,-0.056644727452688656,-0.025008353991024804,-1.465651287835439,18.255138272332765,5.940243273608028,16.61320400205587,-0.0906619050999188,0.07886560759708515,-0.7542014146186339,-0.5695240965718139,9.931835180658055,-3.389505039522819,12.99233916832335,9.917526012196404,0.03770464667724735,-0.1599800983484925,0.11604212267563652,-0.026289944314350007,-0.01925919202930597,0.01993046799731173,2011-10-03 14:57:28.076362038,1.039913075
48.96800032085115,8.492121359638624,270.1160680341744,-0.057230259753283365,-0.029729266503388627,-1.5729357471521084,-12.255740853716663,-2.8290601488146354,19.081967252129736,0.2488438093589336,0.2247171825239362,-17.016510010797337,-1.7273695065392718,9.856208681840256,-0.24874527636847577,0.3758971015806979,8.024889380129016,-0.027645804574718,0.009515309617019064,-0.12057367275115653,-0.02463150923907594,0.0019718876181830593,0.09072882173304,2011-10-03 14:57:28.176384750,1.139935787
48.95395512389466,8.486728968199788,278.3811336908499,-0.11188679731151953,0.0019211761893899258,-1.5313485548498522,10.709757567491252,-15.82854484352874,13.6388282575599,-0.12355970153415094,0.921090709522166,-1.0671710543278954,0.5825985077964347,9.878267360023411,0.18414561403710145,5.638194503576751,5.879508883400046,-0.0004917328613793367,0.00932280083454148,-0.1840630630691304,-0.1133012205151861,-0.00784433017783487,-0.04897896356749336,2011-10-03 14:57:28.286350934,1.249901971
48.9469151039101,8.476509836444595,265.93191266897196,-0.44072225832204254,0.028531587178546834,-1.190646603016504,-3.4884563750714532,-4.982131913778743,-0.19068628151272682,-0.1130619946845428,0.664749317361323,1.2504530924695643,2.1510916140183314,9.849387606483038,2.107416114275487,-0.33532685890773767,9.746474309951875,0.1251138910881057,0.12617107120065385,-0.6026197167818272,-0.023831003509821855,0.013789163434017416,-0.24997978425662987,2011-10-03 14:57:28.386232939,1.349783976
48.951509682903215,8.528000373396646,266.8589430657044,-0.4257647705951216,-0.04372490797634103,-0.8466107184001834,18.45851968347736,1.7442598752952825,19.43775807377403,-0.23344884277699438,-0.24091797428814454,2.123226724553544,13.726189817429589,9.425659113910404,-0.23378147236325766,2.2433112208588324,9.890694153124688,-0.007454751690383088,-0.019727870234717268,0.06276861404979808,0.03629325994790692,-0.020372719129930137,-0.6148996376887085,2011-10-03 14:57:28.486246830,1.449797867
48.957506985970134,8.552728698085714,270.9898103990232,0.14897085343464408,-0.10308424558861654,-0.003302688175694346,5.453108533569598,0.6412932447406372,13.862144889667059,-0.3620085140008728,0.24062724828641346,-7.744495962266843,-1.5901658483890604,10.354675722158932,-0.5805244988548623,5.430356654724381,9.923485419132884,0.012756067348817228,-0.014089670312107968,0.03546969924013134,0.041652336764182,0.031258384298721825,-0.7113754025214839,2011-10-03 14:57:28.596347200,1.559898237
48.96118763666506,8.488700080400085,273.77305663909044,0.07977965538016646,-0.16669726733900891,-1.0343108885674082,-6.576801095822503,0.49644648318200324,-60.03706553400703,0.007425972010430946,0.046861335339066376,0.39353615127963504,1.6379103221586446,8.323701663773425,3.94941543415661,3.4120411503379757,10.12137289134158,-0.03982917849523091,0.042163617058478445,0.07817912686199892,0.03457524478788439,0.023958468230088573,-0.08741351024723118,2011-10-03 14:57:28.696237865,1.659788902
48.94274148294851,8.48437627474119,270.6243274545009,-0.1192258211719121,0.0868411104072754,-5.523477702804762,6.30193192779398,-3.298204461425354,9.776705515860652,0.040015647093016235,0.4275956188148935,-4.318529589340995,-2.0576923394804614,9.776237356599772,-1.1782220530845955,2.2979067939539894,9.766683005894405,0.15628620904809462,0.11090021195846773,-0.13496816872334874,0.005689384243542293,0.011098764746438903,-0.2683549699890865,2011-10-03 14:57:28.796259175,1.759810212
48.94311640662458,8.480953229132053,271.0595537168208,0.13665074473479288,0.058069144362304995,-1.2962241811921746,-1.5122050325821872,-5.829466293889025,15.043108670322452,0.07741142456188055,-0.8411152018904069,0.15278564799213631,1.4488345964692442,9.668128124165861,13.055632191401404,-0.2770398262245191,10.097156937290405,-0.0049644589477619,0.0015321563085326203,0.11853476479727638,-0.049504825029173145,0.007396563969826699,0.3667666567464271,2011-10-03 14:57:28.906177965,1.869729002
48.94622479967643,8.482550844501198,272.6575048331681,-0.01916887015046747,-0.11342206307054756,1.0690523545284791,-1.7055739656825808,-1.9745974246203484,11.29923883060056,-0.23111170120384747,-0.1403507701230476,2.6646340978241354,-0.26882214775707314,9.602739512600422,23.55262056020851,-1.0001220152354642,9.82503831204239,-0.13673862615628476,0.023755879327449592,-0.017192294163784063,0.02537752929890036,-0.000584296254022424,0.15018063831683898,2011-10-03 14:57:29.006221139,1.969772176
48.980021045530236,8.496268709556825,272.7397942973463,-0.021982461858993548,0.15013795855130904,-1.1250620843492563,13.044223638342219,12.229491654505479,-11.28171618168415,0.23151833905089475,0.5082659895436444,-2.202469847406239,1.8859015990832937,10.110217799891835,0.22699939560329485,-2.6313990780722096,9.98356933804254,0.0013011253079327745,-0.001954189171340862,0.07622674972998592,-0.016575436592631485,-0.02140848057472953,0.11770976391810015,2011-10-03 14:57:29.116348648,2.079899685
48.95046031318767,8.490355490811536,273.9946904821664,-0.003933193230257728,0.014818808460031493,-0.3970331637404758,-6.400941206112675,-42.050841295806556,-12.90109411000583,-0.0019999220313238033,0.1425250249741305,-1.8038961617000149,0.5520187610194416,10.182133654327572,1.3427128619489213,1.5122247501857708,9.528955912542674,-0.10822568575283256,0.014913887578393322,-0.6504631558244577,0.0008510538637540555,-0.00965920043879909,-0.20279291748010525,2011-10-03 14:57:29.216128213,2.179679250
48.94510966261078,8.483947492748825,272.085800604057,-0.07004922400738021,0.0819483232908475,-0.3299990385663151,33.50057113346768,11.371149523451328,87.11044281994762,-0.1297975545625456,0.3004200402171898,-1.1968709451233692,11.298842334141025,9.47389141524347,-2.8464722402167157,-4.355472245747207,8.444811707015235,0.02531866375277271,-0.007743444767493973,0.17346864270215018,-0.01248935913476944,-0.06697634680304602,-0.028709671856335356,2011-10-03 14:57:29.316122863,2.279673900
48.94917347568955,8.489897579124138,267.3439594000698,-0.011788494999628592,0.024792736504176984,-1.6564376872607203,-5.246622164455962,1.829372731568529,27.71805795884951,-0.037543251178094525,-0.3595885285735991,-2.2776980910296984,1.850599792413387,9.904380422679367,1.6354070294110559,-2.376229291591033,9.943739313807107,0.0014447703512730193,-0.008500344722743313,-0.11258848703314317,-0.3422008196216856,-0.013312316696529816,0.15773353611853588,2011-10-03 14:57:29.426094863,2.389645900
48.95168075393521,8.481628003009149,277.85833314466515,0.4562343614851764,-0.021618666231901357,-1.193043490428045,3.712709419945495,16.80170691417741,132.59856026344852,0.56433558696047,-3.198440400375846,-0.4903921343566011,-1.7030247088532353,9.982415332423194,0.33804513647324597,0.6695317054668672,10.781622910981557,-0.01800386298413613,0.013937458555163774,-0.0028778313707536734,-0.01646524160218921,0.06601058687531255,0.06996175435276435,2011-10-03 14:57:29.526120683,2.489671720
48.94225434605683,8.481110600001669,269.45337027103494,-0.04986933504110975,0.01232787629839235,1.5862490914406557,-4.398540964841862,-2.2914756402090655,-2.400081515949272,0.6570365626879846,0.2861233026447344,-1.2723752331783509,0.9394974848297692,9.776023531707436,-1.500210506624692,-1.7943821984251234,9.835657468249206,-0.037328685757157566,-0.021246379929328763,0.04121061786974861,0.020338310097421618,-0.005031647777916548,-0.5761841917263874,2011-10-03 14:57:29.626224698,2.589775735
48.94139931940981,8.486812938085581,276.59153894124546,-0.14468986506996892,-0.02094116240274337,-0.08403752514763962,2.2832493632900746,3.803207423579579,-5.189884068767633,0.030396631098349905,0.18879293887343068,-2.6165113623928113,0.5786183327641605,9.504846366957706,1.254795080566157,6.335993404458475,9.307887254676666,0.029386759881115443,0.15703347406937762,0.03757364163628751,-0.020869665654902066,0.05680858483885376,1.2546258233107015,2011-10-03 14:57:29.736078532,2.699629569
48.961483391480805,8.494808227796332,273.94094927973566,-0.3813223913621236,0.026036580362467664,-0.877841368594775,-17.114261799654887,-2.701059403085568,-22.22840700530865,0.08987679970696504,-0.4081410496854857,3.190551697983293,-6.647111724211881,10.527886366494592,3.1953364425652073,0.8443337661164529,9.414815514846877,-0.061943797850881825,-0.00205682328833466,-0.07254080194415138,-0.10692090706810188,-0.03993457434238751,-0.8648307446349415,2011-10-03 14:57:29.836074942,2.799625979
48.94241481841334,8.485184244736782,256.5699690677602,-0.14697781986841388,-0.07802071710450394,-0.38435571506092026,-10.095524854992197,-9.367189513543606,7.722230175784805,-0.13203544355347321,-0.00016723355747025326,2.949210470379158,-1.6875409315945404,9.636848724005095,1.7080172852206186,4.692398635907122,9.927503241948795,0.00034030527049902374,0.0031289854641306496,0.05058598618597327,-0.006190298044642922,-0.015044270008816158,-1.1086384229299038,2011-10-03 14:57:29.936048518,2.899599555
48.9356349400921,8.494408904092369,260.3245522736403,-0.04220261993772145,-0.03617092408926202,-1.9432303777552544,3.08160405246533,14.01469057975056,10.038735700803205,-0.08820465222522385,0.3270898369177218,-5.075060796051318,-0.6723059105419513,9.789988013515377,-0.8395503224294951,-0.76260415175078,10.81248915066467,0.0023876458018824414,0.027677890203811152,-1.4292331574602148,0.041050483261418,0.02911317859554328,0.023167795095756075,2011-10-03 14:57:30.046019479,3.009570516
48.963328125184375,8.498460652797698,266.8716789165521,-0.04784557577574773,-0.012874253989162775,-1.6306764853589937,12.734982760314072,11.405369474797766,-6.328280212691535,0.017608097471224826,-0.5359070794835478,-3.857909550193025,-11.214561154020112,9.481430922580625,20.401003827556647,-1.1165766281011804,9.949917986401045,-0.03273254654030283,-0.007947562584442049,0.048471040762444684,-0.0041853379749738975,-0.021919937564874023,-0.4890719255790691,2011-10-03 14:57:30.146155624,3.109706661
48.95322469187163,8.48647175138678,274.3722054349633,-0.03411235268751205,-0.018201627244331012,-0.8652437664411559,9.359374949865618,8.74826806413109,15.30804601051157,-0.005545878751614846,0.3948476823995477,-3.016062465890279,0.07981470645507,10.72383462662739,8.502704820462029,1.501792667742622,9.337613900462712,-0.006927814473237098,0.0013944554452705918,-0.0844390452649462,0.007083905863330381,-0.02961755207998883,-0.014558783033505156,2011-10-03 14:57:30.256039427,3.219590464
48.96331180697617,8.485523355491049,270.03205800491736,-0.023783687096330875,-0.025140656637918955,-1.5628764452918085,-18.859206279808898,2.8867427869768907,8.66887812860173,0.09508588903071243,0.27595240530760756,-3.3077170245795022,-0.27557662473952155,10.302635314590338,1.7463597189392481,-1.1403492001355298,9.640617138149503,0.018395161855650433,0.02441533440490467,0.007494093905478851,0.01279054832059914,-0.0660998040654963,-0.11917463898585917,2011-10-03 14:57:30.356044323,3.319595360
49.0003511489204,8.49575848861466,272.37303105028553,0.002125620982426489,0.05249317687205163,-1.527694325750205,-2.7932534106598554,9.748266541155086,-2.3028672843345155,-0.11304276863643829,-1.3127125154667163,-2.2214491836340464,-1.7309485108815832,10.213359628636152,0.3532654692387905,0.19931760473851867,10.189322686727118,-0.02424749585550341,0.03041562925046526,-0.2823904528597127,-0.005942698324658083,-0.008553440491618547,-0.17771978783717163,2011-10-03 14:57:30.455994934,3.419545971
48.94891949530546,8.52753521964995,264.02181780257655,0.06838129713642277,0.07332451432603812,0.19278997420021105,-14.209499525072019,13.792716057792667,-2.4585590712432333,0.07637971916281557,-0.21054942991638648,0.12219120449439128,0.28548711292815554,9.794019518646277,-1.9582168714253192,-1.4957551975655903,9.960845585546645,-0.005619518975399808,-0.004515846817026999,0.12017249442431616,0.03857418673246455,-0.002102727994477957,-0.17855746526831437,2011-10-03 14:57:30.565986444,3.529537481
48.95019039997434,8.488152875318422,278.09465326849806,-0.12715022053997682,-0.060582746712026195,-1.4752709085144358,5.975918512141494,-15.118320661099851,1.0746707507723954,0.04183092866003513,0.23919560388709732,-1.1771827012942382,-0.5599942836809999,10.123021603302726,-2.213317761306447,1.0063887806055998,9.234493406825964,-0.0005488177870053286,-0.0093802161154371,0.5995957921294793,-0.024232790671054348,-0.017511625409544252,-0.31989873410311104,2011-10-03 14:57:30.666190178,3.629741215
48.9463591059586,8.489263382470028,257.25215239265134,0.3705204690560044,-0.020249947481124953,-1.1907622388692025,-8.69814773603662,0.686911363486836,9.493436568685956,-0.04763101112873815,-0.14934908301260502,-0.4635345937087255,-9.637739651749147,9.542933581231122,-2.918306777757141,-3.969822583291335,9.65559306052791,-0.026329936224167415,0.027636442128639093,-0.08482756309963475,0.043224597350363846,0.03194540338091581,-0.11384746147101499,2011-10-03 14:57:30.765959514,3.729510551
48.94242061944007,8.490090366853877,264.88382962940284,0.023983093890351363,-0.016772972837328422,-1.0584694450834746,0.1461005812301419,2.5404611096327194,10.725767100163292,-0.10007281682072686,0.04881905128807133,0.06029972198327549,13.30991856786529,12.209658665362877,-1.738897153103502,0.2418081439993799,9.947030082001573,0.01163175433083932,0.029106219887932223,0.3426395131925781,0.010326786593160766,-0.1073022921073684,-1.1217275059189318,2011-10-03 14:57:30.875941960,3.839492997
48.951305923068176,8.4982571442971,262.7647746729889,-0.03275972974593728,-0.026287688203431556,-0.9448194736051758,13.111849019632345,22.99892241888915,-1.4875705739362313,0.09763950313881634,-0.04899847097199747,-2.8192453811696527,-6.234877632702968,9.794332577082393,2.0596999253561457,12.456832833302945,9.924110369912139,-0.02260615115251338,-0.03539418149893997,-0.018501998630722258,-0.035179600214225906,-0.04149311987977451,0.19567690393005094,2011-10-03 14:57:30.975934649,3.939485686
48.957873135709946,8.503815102443966,305.3055816871046,0.042597208114760456,0.0028249122471520876,0.018170085923477464,28.45988723185582,-4.851149831564783,-3.515170156944956,0.12472420075412582,0.4592421450903198,-4.4787434256002845,-0.3551221442333102,9.654360829906071,-1.852090299742326,-1.3536913155455907,9.48391373867138,0.016043398049391717,0.001561237677590829,-0.14174373298390275,-0.03228392302111362,-0.014571182189346544,-0.13397771371352998,2011-10-03 14:57:31.075949820,4.039500857
48.97892813258172,8.481724810957306,271.3789129765555,0.2990093405699029,0.08764541342830028,-0.7911121021459616,90.66782178305539,17.30067365102934,12.245601918551671,-0.17049220620921082,0.19288005164272803,1.8047023110245801,-7.185773445063908,9.45506827597078,-1.4985280629198128,-2.380911437922342,10.036292565698279,-0.03271520556738752,-0.14525428381712915,0.032795837543854,0.03164787811384688,-0.0005786922351319898,0.08168378488117696,2011-10-03 14:57:31.185920654,4.149471691
48.90156227856474,8.491497012156515,277.3554033252597,-0.019595267994298685,-0.07839923151362388,-1.296192763873827,-0.09982054156451037,-22.657758252625552,-14.739208249381404,-0.054519993376135334,-0.09939411404556295,2.082875142024945,-4.071884294204649,9.386218043511251,-3.027711869602366,1.4172404778472991,9.873755641224957,-0.00672429274665005,0.01634796701403353,0.09504213000302976,-0.02687489726595817,0.032951684968964515,0.012950192338317068,2011-10-03 14:57:31.285886356,4.249437393
48.9527417293767,8.491129550131776,274.90010628455065,0.058643491007195334,0.0062756790662224955,-0.13592700239784428,1.9172870546548726,-12.959454258452846,11.498949035647033,-0.03579469584819363,0.2674977629492841,-2.659916888952316,-2.2937663736418488,9.462377357580374,2.6425165048941377,0.11302747496773713,10.072175478038695,-0.017862530002831407,-0.04819525873441388,-0.044442350146652466,0.015621252784010501,0.010455807802735778,0.06383711719507196,2011-10-03 14:57:31.395884684,4.359435721
48.94336202278527,8.491382463454073,285.138857501479,-0.021413941354554617,0.02404221880355814,-0.2510028211622094,-53.62901319664383,-8.520942186593954,-76.11644050579552,-0.011542587434671693,-0.2610889317388362,1.4319051724882577,-15.408709653387797,9.691451854768172,2.0556799677079898,-2.445436752007743,9.919306350329917,-0.005915204990560503,0.019182435393745947,-0.0792367478295342,0.003682375530356369,-0.0020274736693001306,1.4867773030571978,2011-10-03 14:57:31.495863128,4.459414165
48.94718255950083,8.491231714224323,278.2410509807899,-0.007469477426828172,-0.0008020202815936482,-0.3032191834028358,2.0926019442673245,6.462880493872866,-31.42539293034154,0.04060591160513233,0.6604411892556062,-1.9950542679960765,-2.5757934397891997,9.49061945753426,-1.8423116176162506,0.3912863410944719,9.82184150894836,0.012476438254466834,-0.014063264938995037,-0.1580520852241639,-0.02165975826436453,0.007756433316024574,0.08696602264631123,2011-10-03 14:57:31.596042703,4.559593740
48.95739788720996,8.487213893419831,270.6766314891703,-0.010256494955189478,0.017537997266422786,-1.3566149060212205,-14.616586394348042,-4.161122236367074,-4.486138134412585,0.058141491865894346,0.4770424430259471,-0.8353438866411824,-5.150450407958873,9.646631339594725,-1.4032400532613365,0.8819673907162584,9.77242542356074,-0.03230232273874983,-0.03380610165876733,0.12799998375484847,-0.025073777233849865,0.015166282806766945,0.004344145306415876,2011-10-03 14:57:31.705877283,4.669428320
48.95859765439665,8.488192989989937,271.0228638120748,-0.3793829585253183,-0.0037935879200965477,-0.2961375354576805,-21.076649547114563,-0.6320335176720229,68.402107933345,0.056344547820783235,0.042523111973807794,-0.3104262720177602,-4.700160233994614,12.254414662164766,0.23333886267597648,-6.243251080008325,10.084847219441404,0.057257199809530715,0.03568977377835468,-0.14810895329722376,-0.006270198482066775,-0.08111634274284117,0.026685558814188767,2011-10-03 14:57:31.805826904,4.769377941
48.95309648514453,8.489638547524688,263.23025745442976,-0.008925506383766688,-0.005899629164764006,-1.468119779011279,-15.557137653961703,-47.84936218980388,-44.81285572674177,0.14317233737689503,0.40202937131362354,-0.9044498177612399,-2.6468091980237247,10.145171877922248,-2.7468912392383054,-0.20058748669266555,9.544294979945505,0.008207916380609706,0.004475876946393466,0.14167935440388713,-0.11860665727800092,-0.004439804089601203,-0.04536967476434489,2011-10-03 14:57:31.905824029,4.869375066
48.94433040031252,8.489888938403475,289.99012348375584,0.031116654149793862,0.11374382916493539,-1.4380715581525494,2.0260849966007326,4.988718852014152,-3.7884242315694423,0.39663882141113055,0.511076639303542,-2.248340500574117,0.599148214472015,9.765133192227179,-6.894166395062736,-2.2905039332100583,8.088484871944894,-0.022643932015543603,-0.015029983054501353,-0.2123170445317064,-0.0038352111052440178,0.053568823935535824,0.001391688818146876,2011-10-03 14:57:32.015803034,4.979354071
48.952135723638214,8.493943938720685,283.77780354042267,0.0026683072210788375,-0.1704569843993992,-0.3903054996997938,4.2877307573153995,6.42183824243215,-14.976505124653462,0.13482754960260324,-0.35438262723561104,-1.3097951252734734,2.7425434833631788,9.917006254231879,2.416921703418378,-2.599188941178543,9.725386061793674,0.1334478267856051,-0.035807781821783784,-0.018178171860055114,0.007832466254770564,0.008477131966115919,0.11989597390563066,2011-10-03 14:57:32.115867411,5.079418448
48.951588300347495,8.48921949824847,270.3178927630503,-0.11777793942038708,0.046942413890568406,-1.1245131549506886,15.050668928023393,-2.4615792176458577,6.0814702029905785,0.9790482230677148,0.5802025229582974,-15.391101151257805,-1.9532144906270543,10.556486316966827,1.3494608142702256,-0.6429890695780527,9.766436783093532,0.0247540385420877,0.008399782377784902,-0.04210646724796851,-0.14253516009617076,0.05329879186159532,-0.03904093979136143,2011-10-03 14:57:32.215828880,5.179379917
48.92601267338632,8.488417986283793,230.62314160163825,0.04865530759458428,0.044141207997161605,-0.5620064034974012,-10.476737882341867,-10.623130288921743,-1.781168835398769,-0.006222189382244597,0.46579074035157425,1.63838347115569,-0.4169386016749351,9.512208144153702,0.950739794777018,-6.754877633436158,9.390417964146287,-0.01397474404804194,0.0013324795802500701,-0.16184170183385385,0.02332658398652365,0.0104173070650758,0.14873671586156628,2011-10-03 14:57:32.325772887,5.289323924
48.953280398578734,8.461138766454066,254.35369872706409,-0.04046793659806345,-0.010249862448622702,-1.3733747914793737,13.0864319251349,2.5724379922823006,2.543450023252901,0.023191189981601572,0.051912205706851705,2.9914134028825288,-0.7880947461910035,9.783761810747638,3.941377742763228,0.6177455745888079,10.07972797196977,-0.01650758946088861,-0.03135115560503293,-0.11453872750998112,-0.04098200473900007,0.009851325365582603,0.12102548225333218,2011-10-03 14:57:32.425766039,5.389317076
48.954242371951594,8.48585706561652,285.331216822803,0.016914368243128943,-0.11928733074864434,-0.600645582142093,-10.579861504874998,-25.609183845137395,7.91168008081951,-0.16920674760698912,-0.3394302750545942,-1.0028961804350849,1.1202342744546476,9.900708403962156,-1.1377499913244076,1.1326319122389925,9.73444793452108,0.025074945219901872,0.019728595376037585,-0.09618882859478715,0.001136995321428799,-0.017234934035129712,-0.07393692789197523,2011-10-03 14:57:32.535748461,5.499299498
48.94594143996361,8.509026565981621,276.65666075832183,-0.02968204451085143,-0.026744132525411864,-0.8749706950693883,-1.9280601881445771,16.088572730768377,-122.42006045515235,0.0011343169695543472,0.3742917566187214,0.9673191696957636,-2.2348637359766346,9.935420844529826,0.3131935532041388,-2.236430281817654,9.896622867912871,-0.02487658015258157,-0.036460868099174926,-0.014161092720690367,0.048261217489798454,-0.013070566127549907,0.4908936289435559,2011-10-03 14:57:32.635947438,5.599498475
48.91180224929109,8.486012838912064,270.9353708234916,-0.0014740885502783456,-0.055985080196295216,-1.8550657285596195,-2.4009561760884264,-0.5351590811539362,9.688545388458571,-0.028018526060236162,0.23580120459345577,1.4355181280650946,-3.4215905662528394,9.725846421592951,-1.9610726592730394,-2.1487502204791378,9.899546523974774,-0.011323088452698008,0.14719515277963868,-0.19387583417768095,-0.007827226095786111,0.025677657142125977,-0.22792185896828066,2011-10-03 14:57:32.735712829,5.699263866
48.95679270291119,8.486552202652657,275.3030689870817,-0.03113098196756998,-0.02023228578734733,-1.1898966070917896,3.7968793230884477,9.841422697472003,17.796922319122633,-0.14399205702586568,0.22779695039222442,2.7683385002722347,0.6598818299567035,8.18021949230929,-6.480441312088612,3.4408118061668227,10.133731728950274,-0.04909850594786508,0.006483656316368993,-0.08831367094802864,-0.010069511292267234,-0.02453538590041882,-0.12677649285665785,2011-10-03 14:57:32.845703183,5.809254220
48.91864846298372,8.48027508426702,275.4245921576778,-0.20745148756117957,-0.047775541632333024,-0.8316358562225741,-14.011387279567806,8.827429819300963,15.056009186989115,0.3462283547418936,0.06546401025058679,2.5776292575223554,-0.7028938886983159,11.262063783011287,0.07011836329897991,2.222312698395659,9.422561906088537,-0.043448441707041256,0.022380926222819654,-0.0638397266017983,0.014401724781783948,-0.058301391878511334,-0.15338460622751512,2011-10-03 14:57:32.945747860,5.909298897
48.95570346206646,8.48705543506791,262.8832507418007,0.4054511547849945,-0.020596674140603292,-0.33628594507663556,-4.420424274442364,2.0520405681188434,151.07646591402747,0.16949728386467086,1.0005372686548208,-3.1288387103239166,-6.351304980105985,9.107246769103925,-5.032821973761674,0.39821087167111446,12.2369206317312,-0.01670857385128193,0.007757716601748657,-0.09549260186503333,0.008769307489613534,0.01779764181780962,-0.1363615408146688,2011-10-03 14:57:33.045683917,6.009234954
48.95255253685617,8.48288128841241,266.1509644280775,0.014442512699824574,-0.192776932569613,-4.816163853091906,35.72343116984878,-5.451951262773735,20.286761305246742,-0.02782020874289213,0.1647294582425709,2.7699962410855585,2.4632719340193088,9.579398381414078,-21.859146305042692,-1.7929551663443553,10.149541574951476,0.04774693613410982,-0.010816112026469333,-0.041761548088679525,0.01687757997699395,0.02471076307588078,0.03881901945766737,2011-10-03 14:57:33.155719624,6.119270661
48.94762004218552,8.513157162717462,260.13994478177625,-0.033191964612366565,-0.005344965743216233,-1.7729282669564075,13.477120623415667,12.606580611139169,15.079790031908527,0.09049199489966893,-0.2584811008184788,3.9881212820046446,0.6001707313809417,9.764307969266921,2.834536020161587,-1.1893717859326225,9.758352009382444,-0.01971719947472599,0.00426687156305989,0.046611122331769214,-0.02774854544106159,0.06103085223396673,-0.33288224888348444,2011-10-03 14:57:33.255693282,6.219244319
48.95748242331384,8.483251563965577,263.67240162908854,0.014696783476029453,0.013882715521993097,-1.8871481830559347,-4.207017155455606,-5.455222114049002,-9.024263520260362,-0.7470779335404273,-0.006872677328026197,3.685133643766388,2.916886160467144,9.351940243310422,0.7155419488844201,1.831440507982306,9.699121043584586,0.05231249172279776,-0.039170367680011135,-0.00107386573249701,-0.027333658183857815,-0.027003556031925037,-0.12314228880238542,2011-10-03 14:57:33.355686136,6.319237173
48.956348486307114,8.489269315913267,274.4763772834876,0.07828898913424816,0.04634317833324789,-1.2798057499284343,-11.000503749704757,4.877076434236258,3.2068270067481643,0.058155490878716194,-0.11373739882355988,0.872408151424602,5.935011732767541,9.996429456194678,-5.187725948934181,5.482350301125546,10.147851518642774,-0.019494408955655244,0.07721486510641346,0.20510106757929103,0.020769668047254258,0.015379651356480098,-0.06867992361540018,2011-10-03 14:57:33.465641126,6.429192163
48.95256142780879,8.482845749502523,268.3231018599076,-0.05608702614956548,-0.287443400034641,-0.8936800570980019,65.07722473653996,6.604221579950131,14.87288758121693,-0.36933673806084505,0.22779303557299058,1.7332379848214063,-0.30213155953740084,10.17425855751952,-0.03003129165708618,4.533515413688489,11.70518564010362,0.0014048770243313864,0.11206702779795383,-1.070486013762642,0.021357083628891348,-0.025541047876051413,-0.2601917013230676,2011-10-03 14:57:33.565646001,6.529197038
48.949534892181916,8.496198480953932,265.6415555049283,0.7244336330775842,-0.06980546612849314,-0.8290273408222311,42.72034212101395,14.664847547120747,-11.20975846610063,0.8945818460059229,0.09992893468124832,-5.634110257052934,-1.560717409922995,9.723855782151787,0.2046580366238663,-0.7662959225363056,10.001193480600229,0.06613989616768494,0.0024971613887579715,0.14757148186566524,0.0006512393428515827,0.04964941574209884,-0.006927945859516363,2011-10-03 14:57:33.675833977,6.639385014
48.9477115845545,8.479218973849445,303.3026530518227,0.13950992179243274,-0.027710335317303977,-0.10611514029313829,-17.384627173366134,54.64179182619905,9.979363269839153,-0.03932957857660493,0.2532927454892638,3.4702952570761516,0.43082606419003866,9.81732473339143,3.2911903929674122,2.2282510404207523,9.535500413073342,0.014451863044199103,0.033997140556582185,0.15248991847305926,-0.03406959053143586,0.0333918389072872,-0.13544274463038877,2011-10-03 14:57:33.775633369,6.739184406
48.95028619603854,8.475481082909157,269.7138357351523,-0.0024956180618905116,-0.02458354585302355,-1.030814029253307,-13.716921381520134,-2.0754553433452365,-6.617757819032542,0.006415571455342199,-0.103290166652182,2.629040522772756,10.303137904199806,8.783423512876796,18.38507276736878,1.0199739776884627,9.63413870578486,0.007642116363987187,0.07594169482411714,0.08590395281250741,0.006402253048916706,0.026188854082500365,0.15054317700601486,2011-10-03 14:57:33.875621342,6.839172379
48.95069429374167,8.450540754983226,266.64240238019494,-0.0750362705053824,0.014612720928176386,-0.5508447153789072,-2.277255292671391,-1.4173679169872146,11.588690910204761,-0.09709163329857762,1.2856804299542253,-0.7781624392823696,1.1596953178083296,9.774381711022547,2.3519948515046116,1.9268679604052232,9.460680485526282,-0.0036652144354208764,-0.046088388688288524,0.09725486700807341,-7.75120676187104e-05,-0.0113986153442512,0.1321125248468697,2011-10-03 14:57:33.985590967,6.949142004
48.95583228908438,8.486713758440246,255.86790073258683,-0.25393858530038704,-0.039444310361505364,-0.11454161770819238,13.749651169031512,9.070055271798331,-7.527898407942007,0.06015632365037804,-1.4773686862766702,22.470689144655992,-0.40596645943880594,10.476669415033381,2.9490977474998132,1.0001462384230326,10.027223899621939,-0.008320056184605119,-0.03271985837676301,-0.1236670151013241,-0.005930135606169656,0.019082610409241575,0.21842150159528623,2011-10-03 14:57:34.085739267,7.049290304
48.95290979412433,8.479899309814211,270.72205995823185,0.02607222231523418,-0.09884785078800269,0.25139316126923017,-1.637748730482771,-33.25376223312316,12.928921995683613,-1.3289177846750289,0.30346108679613615,-0.02150725610272694,-2.578186129562728,9.758458781905045,5.464470346642309,2.6912884105391206,10.429912323668244,0.01888173966476283,0.004075061388300216,-0.10998783983732952,-0.00937173614980305,-0.013667919751327279,-0.06379117131099483,2011-10-03 14:57:34.185666875,7.149217912
48.9526164348555,8.489747222745464,302.9818868209961,-0.04767478546933124,-0.025568060886382134,-1.51073681856406,-15.647263680355383,3.9012071258495915,44.74905179158914,-0.10290560463285489,-0.17114091051944594,2.359433397068286,-0.07048297986546914,9.695287927305618,-0.14766834851097946,1.4907348115817476,10.051174548131685,-0.0011518725144468555,-0.006101165907184529,-0.10882348647120199,-0.027317875094824872,0.09353094790005222,-0.15506699731075468,2011-10-03 14:57:34.295565650,7.259116687
48.95475546705122,8.511260973436332,277.64497911028883,0.08519197431057915,0.016042902839382426,-3.617555457005726,13.110008790925008,6.2168839943495335,-14.010577203211668,0.10338225119089169,0.3377089905865135,-0.5905664369837916,-0.36196559492511865,10.022418798798766,6.510920153843524,0.5153600521656659,9.676149800870206,-0.008933606023563072,0.02343590015945339,0.12810580819116882,0.014268392514985554,-0.027503597286201605,0.7289038985723718,2011-10-03 14:57:34.395554772,7.359105809
48.946559626485296,8.481295097518668,266.73710147967483,0.00954171047946916,-0.21756140935494878,-0.14278166585088425,5.916711280061195,-2.16464004346487,-10.21714149991273,-0.06927397913723388,0.34477299981883364,1.457295050630021,14.172930821645016,10.842392316010486,2.681044241050997,-4.970422453449813,9.859846233191902,0.0503489679201313,0.008072292101991604,-0.023776995081032114,0.026352070504440706,0.0069689679853621326,0.13107828855760384,2011-10-03 14:57:34.495517110,7.459068147
48.95270065477679,8.492034522816956,273.30736098675254,0.0485673247041211,0.007378885250905316,-0.17603441575194034,-11.011648236638544,-3.833547900860959,70.9351815791307,-0.06459737612586106,0.3436867034832811,-4.684418369641892,1.1565735822408403,10.314902267558002,5.033857865360763,-0.30600162411851606,9.808356036327966,0.0016779980839932316,-0.009950554067410569,0.08134611294734553,0.016452998265585345,0.012248900296816273,0.3618250383955709,2011-10-03 14:57:34.605615669,7.569166706
48.954616349856934,8.489431924698732,269.2404570799505,-0.030269071822145784,0.02978645993675171,-0.8341164596705869,34.3717925021356,12.712986853750474,-2.027635368424562,0.355005394404063,-0.20736013022494418,-4.116887130746233,1.9049694082021582,9.622693033462633,-0.36727220321495596,3.7246462093579327,9.999426036017933,-0.15037571527516438,0.0016345849853162567,1.219031934992841,2.701927976511649e-05,0.017738543489849587,0.08726384322201663,2011-10-03 14:57:34.705534279,7.669085316
48.95470959614566,8.500776592503067,272.2960627673152,-0.003401022994426288,-0.023698148025634694,-0.8076698924257679,-14.05103968906197,4.544807933787914,10.720152908471483,0.04106102262069049,0.36894400780348335,-0.2232245662907968,2.034623871072824,10.12459221416198,-2.239803492582064,-1.8177826148277123,7.5152951446758145,-0.017871527568814893,0.027318903715965438,-0.914176078640655,-0.08852580500958909,0.005070208528583269,-0.2743169409247939,2011-10-03 14:57:34.815488506,7.779039543
48.954215417810396,8.48756976689932,274.82192650439487,0.06996153497913615,-0.0073931991812914225,-1.0672387697918246,-3.254893331051656,1.6995650395830195,-3.159922629018011,0.09675946020772798,0.3075666271741673,-4.99070881842913,-1.8806776525713012,8.791676722886628,-3.393187207377306,1.678074679505857,9.739950363506352,0.0068476424421914745,0.005554509867119522,0.09636002642036819,-0.0135309000817277,-0.13288458109261503,-0.17364131739396516,2011-10-03 14:57:34.915518229,7.879069266
48.95268380188433,8.483221428227957,267.79070907710974,0.11817033834015635,-0.0328006475053432,-0.24117726723547894,-13.79385482854453,10.74740444055875,26.30181928753406,-0.1304847026910156,-0.40796605092353727,-1.9151652760748503,-0.43143475942277554,9.540551389335267,-5.918115161666072,3.3622102264261766,9.717984263247434,-0.04393371139652026,0.015216371644997563,-0.15576077694776486,0.02188722872298475,-0.07522127036456168,0.20099016547700166,2011-10-03 14:57:35.015470401,7.979021438
48.94937893745878,8.503043193962823,281.8385331889145,-0.3809469650786964,0.08524758076209439,-1.121732473187716,-81.1996284032929,-4.395192507750912,-31.17717004527274,-0.01199102619221044,-0.18060575911945626,-1.8939529472475731,-6.560942613064986,9.941891876859854,-0.6063902981448381,1.6126211485294328,10.426936289266852,0.0064561658626540175,-0.012362728339414607,0.021874579222989774,-0.0035510214997786877,-0.02568114125292908,-0.154461902750479,2011-10-03 14:57:35.125589469,8.089140506
48.952142168853186,8.486573833212203,268.19339506206796,-0.013075903627905195,0.026751417034366787,-1.1889918948089528,-85.06382778869579,4.3274166977162345,69.56142831955458,0.13942049467963588,-0.16313892166725966,1.906486951097674,-0.8400217947011772,9.935886614174889,0.8415874667116741,0.5148704892658031,9.833149582909215,0.013393622491294391,-0.00954014743670262,-0.15332327589032677,0.07099700678837643,-0.020346337675965373,-0.13951663565101594,2011-10-03 14:57:35.225449958,8.189000995
48.94730627258557,8.479295353204439,270.86773394114243,-0.023422868620397656,-0.049666651311109374,-0.4351281281378241,-5.0816591511177585,-12.414672714870704,9.276882930137143,-0.018989817904112215,0.07194511797307533,-2.084590435208575,0.21426124630513502,9.618805235210818,2.584962452373158,1.0521801270826538,11.566007992795537,-0.0011553971967613714,0.00978780467361455,0.08847704932209172,0.005792524889724465,0.020899744268898034,-0.41340295295423424,2011-10-03 14:57:35.325448409,8.288999446
48.9490859965553,8.493707948153396,266.421542446926,-0.06562671254384601,0.007941987241966885,-0.8574788832405432,5.503847947990447,-43.2148698781679,16.64913030222123,0.10206275667103284,0.2631679870921617,-2.775684766306739,-5.328193840633746,9.349207541396233,0.03285346936969974,0.19465612401855914,9.739975405452869,-0.021607300854361626,0.016067049247237678,0.2205106638440244,0.06641975901430222,-0.010752578490803046,-0.27635170821376337,2011-10-03 14:57:35.435465692,8.399016729
48.94948808268169,8.492806112494007,264.61761719069585,-0.07053853408439792,-0.04563599457199105,-4.117116741390654,-4.9810600023976725,-0.936900001656249,4.607116231722085,-0.1528190726649,-0.47167754196917633,4.2043164890378675,3.121580760150481,10.163472554956968,-0.3713724815529976,-1.2250149837245987,9.709643529790647,0.0068850053000574386,-0.024989913636455217,-0.8199943695514819,0.0153982487906924,-0.049698398668653665,0.001150332714270534,2011-10-03 14:57:35.535414786,8.498965823
48.95426861025429,8.485323842824172,229.1973725445173,-0.053299506604852595,-0.0027393969822404676,-0.5116398062255435,-22.82920191159869,10.931388658392912,-16.373100255057025,-0.18020664318042898,-0.12719892744765848,8.382827549486239,2.784104945269254,9.71204925662573,0.9311962815387111,-0.9399802928745402,9.889905256891932,-0.023425139026905704,0.009435981922219427,0.03394804497312144,-0.018223069277475905,-0.0007627031717047073,0.21098547282934546,2011-10-03 14:57:35.645607535,8.609158572
48.954318422306805,8.49031395006778,281.1652354655739,0.13282132360330723,-0.049271075397248565,3.7208165564650377,-10.032710201030515,-2.1562786507581175,2.2818367227957097,-0.07002051703655796,-0.48364526206752806,2.642115012674914,-0.6505740140393358,9.589211469395682,-2.6500818449431254,-1.4956843566108462,9.969309801131198,-0.007639227114363614,0.0008902366510319722,0.10767755048354723,0.029903249513297186,-0.04561070435397818,-0.3402495280304069,2011-10-03 14:57:35.745384371,8.708935408
48.956429503408394,8.44527396286096,266.68041386565676,0.06705021944808656,-0.004281451697192819,-3.0836038614931955,11.58396799615616,15.455947142439097,-89.5862158838787,-0.023214213060262126,-2.642208566610054,2.544796697149982,1.676314805278498,9.643406850643265,0.23733876500376383,0.49441805681567874,10.134050603956336,0.047265879279031406,-0.006121043902798839,-0.19146582437894674,-0.050005801867680826,-0.04916135611476949,-0.0339396062096352,2011-10-03 14:57:35.845392726,8.808943763
48.94452038249157,8.492150300550044,265.85413357455593,-0.0007764369364091604,-0.0229182627853355,-0.35840945851596395,-11.512161760343059,-22.614619000806552,8.007809712215339,-0.0832216818152515,0.4544516691417386,1.4037925003926588,10.85155635398591,9.964024162707666,4.995903645551561,0.6014045030692895,9.225114129538436,0.10533656159691483,-0.024028613155666404,-0.12125946539557698,0.014062701612094566,0.007024970850273153,0.671523526150874,2011-10-03 14:57:35.955409797,8.918960834
48.9384220203749,8.490328475177916,266.21757424969496,-0.33497391346620725,0.054364063143682,-1.222819048041921,-4.203638333159351,-0.10744809936010391,10.151678656548198,-0.023871169818795484,1.0837684100440328,-3.391408993986059,-4.506783036248948,9.317108645548487,19.858460064699578,1.718379422203479,10.13989919628933,-0.17080056401449453,-0.00886436049007551,-0.10591365130601799,0.0010428412124732942,-0.0056379877890376144,0.03449993835446684,2011-10-03 14:57:36.055338126,9.018889163
48.9673463687704,8.487899202204,276.04856134878145,-0.1511680796642803,-0.23018338509825312,-1.0228708824449804,2.7143867725141977,-82.77955591884322,21.397213465093643,-0.09464646914099535,0.1198046669491841,-10.001679753350114,1.1911192345860473,7.627538287374868,-1.1971796087114366,0.06609562137784879,10.120788457299465,0.004059008381318089,-0.016513087086629543,0.24681781003973155,0.019407030409269586,0.10047665700425015,0.2520296007847426,2011-10-03 14:57:36.155377733,9.118928770
48.95571363928105,8.490064381529509,273.3776916027052,0.3399333589113572,-0.059889983332554596,-5.862194553289356,-0.5324885326438933,10.914915900804466,5.824332765879735,-0.004512399435740057,-0.017305229052693397,0.8707153483296928,2.6314376365954657,9.42702659900142,-0.6704895722388929,1.0786671415885696,9.758243515240734,-0.023426953086173836,-0.013069642504696766,-0.07686772591134676,-0.04663548597598009,-0.024536679143759732,-0.069105394198652,2011-10-03 14:57:36.265330791,9.228881828
48.95855225285717,8.49176534234551,266.9682199106176,-0.05780571532934022,0.04685700542434608,-0.48758332773964524,-27.72289838208051,15.51574464515554,17.673601325794458,0.0025195672828641218,0.6336594726805103,-3.3961248004976747,-1.1492398425852537,9.681690481592733,-0.38203983583684575,-0.042629302010113085,10.191766098747726,-0.049802407588672964,0.003222900119550786,0.6930499958938309,-0.012193915442657015,-0.007728618000730592,-0.1282791518084678,2011-10-03 14:57:36.365332137,9.328883174
48.95213825517371,8.496727367552667,269.5469411449208,-0.0269924591719637,-0.05769123247793624,-0.6690121033032221,-11.39437275639947,-1.1956576200902642,9.604541454312688,-0.005920972914153606,0.2877776273861272,-4.140187843761372,1.0591091168044253,9.771471693696972,4.152185805311661,-0.8034691986829764,9.692628346497777,-0.018896478039596574,0.12485534779120552,-0.013730116607092667,0.024204709796235856,-0.14281660126453713,-0.17525293299701653,2011-10-03 14:57:36.465298574,9.428849611
48.94934467679512,8.477829755970811,265.7835834500181,0.005467414362933947,0.020513173464160164,-0.3845382417418849,-19.50045100524175,11.09127224692635,21.840197825714114,0.13015674263489985,0.17928164252390555,2.713604402940155,-1.6013395418100758,10.033344636175277,3.613029663684787,2.578012216502228,9.677080988688019,-0.01873664714586637,-0.024465020600650738,-0.14025767430651254,-0.00877050783860393,0.008169670569720925,-0.11879804831412001,2011-10-03 14:57:36.575297342,9.538848379
48.93473930060223,8.499889094489795,267.26508829505246,-0.028072409567969504,-0.02251390582504118,-0.9029383090512763,-7.8928685637304365,7.63261431311088,-4.715726290016174,-0.2926177977666251,-0.019350363981968988,-3.8220077402060033,0.2892359763883296,9.421239084341465,1.591022781230314,0.1954041010585614,10.197897501097193,-0.04390847216532396,-0.003908160125429569,0.28800547767033563,-0.005959873258967923,-0.021992822992364228,0.2841780073734461,2011-10-03 14:57:36.675477957,9.639028994
48.951872470575495,8.486731235255403,264.31787749996136,-0.031378392576332285,0.06415917183186444,-1.6746661265851333,-4.329796116330716,-43.152172692938684,28.10533894684282,-0.6542927003338556,0.13161741554654557,-1.533595507968249,-7.663401909078355,9.736242508793193,-0.4644240047053538,-2.4842102370614585,9.806515607989938,-0.019559134337864534,-0.016961663407824,-0.2346540428039713,-0.010732692580534978,0.037493698697124204,-0.13048993709790974,2011-10-03 14:57:36.785296570,9.748847607
48.95961890156283,8.480808270952664,264.30232149991093,-0.009994641260189528,-0.0796973228885569,-0.8070263492143901,-8.628677647749281,112.86678523119612,17.759586991055038,0.5973399422264428,-0.28291340634608686,-2.9234189116297498,-1.878890552864328,10.089966967937364,-0.815271809197138,-3.948511106171667,10.577058586228603,-0.0008445230974286882,-0.01247149064021542,-0.26339764246962866,-0.01853705684287251,0.014033920968651298,0.48057576156432297,2011-10-03 14:57:36.885379787,9.848930824
48.94498848912977,8.478399459170634,274.94055202109627,0.3266705993279208,-0.14259120562990893,-0.9409922293652964,-0.141951144241788,-5.002301320112268,3.0234342343361855,-0.10324823065664238,0.42964340135955537,-1.852739558702647,-0.484788317069596,11.452806961295048,-10.741096014016815,2.2519121693573596,9.632283695412138,0.03360649680214564,-0.005085388703861952,-0.07592879378190026,0.045973821524005885,0.026751927731904757,0.023217447148608704,2011-10-03 14:57:36.985282880,9.948833917
48.941634784816976,8.490361483810537,281.5980111318191,-0.12986341647250044,0.023384305120472123,-0.7853221082110768,6.060616121948857,5.073104388750369,1.642997120270263,0.04746145665475703,0.36132825269019114,0.21830953312579138,-1.3864439573764056,9.487620135173502,-2.7043730606076983,1.0176049276112258,9.651489397662502,0.05444752201687693,0.022830235945400935,-0.2592615585598118,-0.02147054356183025,-0.013562889610267114,0.03170832450617668,2011-10-03 14:57:37.095385255,10.058936292
48.950154596473936,8.495332820655735,271.9981807761894,-0.002056216595959462,-0.013995016239649018,-0.5733691727452501,4.761989678139029,30.528077962677184,2.015513785446095,0.1528520076993338,1.3719049816551117,-9.121885940697636,-0.7279354292724801,9.554116769493303,-0.1603657650457742,0.39037722768631616,11.373310408789166,-0.0329694007403539,0.003450679354312289,0.1085883904204903,-0.016394975826561842,-0.01817971789630607,-0.06011338367968185,2011-10-03 14:57:37.195301763,10.158852800
48.94954291879794,8.482395308056418,281.173053546282,0.0038174090304852262,-0.07852284579722837,-1.122490158168542,4.848625153414202,-71.84118457157933,4.574048248766991,-0.007387553818671952,-0.7349826106069584,-2.5478645092702967,0.2812272217590486,10.693658302880129,-0.5533903372360471,-13.00938945641481,9.257118132258263,0.026240652410290714,-0.012936058789180235,0.08974044791784047,-0.08682821954629276,0.018479591812702464,-1.5463045426053705,2011-10-03 14:57:37.295236048,10.258787085
48.95075889725372,8.481828909597683,270.56957823366696,-0.24966923363029575,-0.01448933722654785,-0.8454380007966732,-12.15189842878786,69.07518998099573,-1.8183021152988443,-0.06142230599003139,-0.1692072578061785,2.9643315864270563,0.326261555594437,10.003672211444032,2.5323505750857453,2.8796185186083116,9.517288590755268,0.03397586933084142,-0.05830798489490394,-0.37145150399158355,0.03418939242245706,0.009051386532748236,-0.08419914398458246,2011-10-03 14:57:37.405183290,10.368734327
48.9521338560604,8.494900381125495,273.76221829027025,-0.5169769694574702,-0.029241765803142722,-1.6738778214935182,4.331974211674263,45.287684575481094,25.40871963542139,-0.00953947939001545,-0.8028663484496192,-3.3844722710737316,-1.3321365514615044,9.730148397801846,-5.557309081106416,-4.708080865728194,9.634956133993187,0.008217764120663731,-0.028740014061753586,-0.13082975764647342,-0.005914577934690055,-0.05828444130306755,-0.12302067748152046,2011-10-03 14:57:37.505188965,10.468740002
48.946331831754236,8.48598717583309,275.97324504725566,-0.6371353417183591,0.3520088080112245,-1.4073785821115017,-9.75691973827152,-6.832189168499936,-46.01309710303837,-0.0021887497573028587,0.387885591135701,-5.263339808896613,1.4287722517251262,5.594845173669333,-0.8454284716915383,-0.20473166827746841,8.814994105709738,0.004167534482530345,-0.005105799197357743,-0.1486005240712109,-0.12216919893578139,-0.0029187876430395625,-0.5347202395419789,2011-10-03 14:57:37.615295989,10.578847026
48.945474883147654,8.480357274101264,268.72043707799156,0.08577659999614878,-0.28302729622579276,-0.8091836337618087,-8.009915623709464,18.79961501809848,4.909333341567574,-0.03753660703532482,-0.34595878741581654,-5.781106523154867,2.0354709307964267,9.368240356177347,2.754409024855369,-0.6501425577940192,9.534791229203735,0.0181555500877564,0.0007509776623501304,0.07913694196835241,0.005812416997724658,0.032520336603817965,0.13989727532564625,2011-10-03 14:57:37.715195944,10.678746981
48.95686726551391,8.480586702728283,273.0139457292381,0.09590076241212578,0.005030366429363466,-2.744758787091701,45.47145757653057,12.49035246362398,-31.638329704755314,-0.05098125086797605,0.24845083241631236,2.227684453083388,-1.7062076360176626,9.729060550186416,1.5878100878090762,2.2031446049328025,9.966888452128005,0.05222238843993489,-0.032852871435321354,-0.07524153870448175,0.19682740539154733,-0.006906509454528654,0.0022795839811469926,2011-10-03 14:57:37.815159104,10.778710141
48.97430268228509,8.482618084251218,265.02466307258703,0.027619328812854827,0.09985996077649706,-0.5917978997032263,9.7471710901534,-8.731309991157799,-17.08654833463294,-0.009785937013555571,0.06395882943615205,-3.165120405541542,1.3391158843791007,9.568294238068052,-12.020379799513929,-6.144574169659605,9.90640030496733,-0.0020726444305036373,-0.01639521821774262,0.03938948386965253,0.015408340256180115,-0.06322073456112401,-0.07738403949950037,2011-10-03 14:57:37.925145295,10.888696332
48.949723352636006,8.483239064835404,307.1126726625732,-0.13420285659218645,0.01625474906764435,-0.7130193847557491,-7.856505584970568,-5.372113383022205,-17.312100987478026,0.0781833181968532,0.4590821215671179,0.07711383948413897,-0.21545805707885685,10.518134824074666,0.9313922399785235,-2.2505043119886836,9.615999459628375,0.02660553227267273,-0.008451892334395134,0.1254591961668824,0.019837358155066747,-0.0794055133658906,-0.1352224110766751,2011-10-03 14:57:38.025132475,10.988683512
48.95768830208409,8.493988335002449,269.7976415307915,-0.16303414577472708,0.012098499489247759,-1.1068049687449075,1.5891841754589509,-15.957549451413687,5.357373760346183,-0.1395942740834419,0.2881782125065903,4.489780770117588,-3.296946361094511,9.376891816377075,0.9047323556523162,-2.1796186524001184,10.019828350113182,0.004654969178170685,0.03648804592293878,0.4404685803001312,-0.009358940237088944,0.003385073370541769,0.5339890885847668,2011-10-03 14:57:38.125327391,11.088878428
48.956658120381704,8.491958618351381,259.5147300561579,0.11107224664233745,0.038320492098133284,-0.6251603568460985,-3.863146861566786,8.619313243813798,20.603154929792176,0.0517307758369124,0.7619067695985745,0.8125848394790454,-2.287072066003934,9.675092932454445,-6.912874282033337,-2.9778904409244453,11.604770249921227,-0.0012569677033310608,0.0019917981024139995,0.7926356758076203,-0.024364260901079328,0.034709751037072564,0.3308234607424224,2011-10-03 14:57:38.235129161,11.198680198
48.94439618158103,8.488510954820633,289.53437189268755,-0.04456660189657592,-0.021162213338796993,-1.6661171936543062,-2.2284417997351733,13.728136697561682,8.644361277895097,0.02807771192314956,1.5645320793912307,-7.583505844003285,1.757578803689265,9.982432191450563,-2.271795989031253,-2.88237322212926,9.341482784190399,0.036125679255749284,0.010952592118310763,-0.15168152273832153,0.013112389104368884,-0.01390191883658011,-0.018789981666677537,2011-10-03 14:57:38.335088433,11.298639470
48.946008310969184,8.494343843659191,276.2541176489969,-0.060032648276459794,-0.017883966977828254,-0.7313069390005835,3.690652995933689,5.452823411985187,11.186366323948082,-0.19621155582223937,-0.040416337138311775,-2.9303284969200574,-0.25118798098841955,9.56568214461901,-4.278619409694829,1.0183215435164212,9.984708632541182,-0.10593295503224659,0.019472049366343964,0.07593433841135683,-0.011064695137254419,0.008548437361969512,0.2953828338449095,2011-10-03 14:57:38.435084743,11.398635780
48.95552492199455,8.511001361215001,269.2728498910125,-0.057959099123321305,0.0007987170719939995,-1.3488282671743397,-1.3716062438209335,-63.15162615148188,24.109734677252913,0.06974080227134782,-0.249937316225932,-1.1603543643236316,-4.488368506779921,9.685652905802803,3.7438656450659367,1.0577715442154991,9.513485352569404,-0.008085237578609038,-0.024715124635762826,-0.38367497559789043,-0.016629840051019452,-0.007232540640703353,-0.05822504529003361,2011-10-03 14:57:38.545073069,11.508624106
48.9496570996382,8.481962221835763,264.4991205096559,-0.3572607750103992,0.021797290510320044,-1.5015911923052077,-21.800244723507237,7.6567422020852405,15.813087112454491,-0.015737800929977664,0.0655933218959087,-4.356448312894123,2.383554329971612,9.392519374392462,-2.793648218248358,1.0654348170161363,9.579977253026984,-0.047502291424962935,-0.18681530217999884,-0.01614584583201278,-0.016273416037636622,-0.005992778168784382,-0.2779453401846677,2011-10-03 14:57:38.645339929,11.608890966
48.94341050827556,8.516360121286624,275.11023755070994,-0.012024266115260557,-0.2473812086159818,4.169946481288707,-4.446386936159311,3.729725879334511,18.48817260570833,0.5186312506196218,-2.9263381961558728,2.844702862734533,-3.8914652522050757,9.821448588971199,-5.718115666404017,-0.48163059655461016,9.660203828832364,0.3312913768963722,-0.0051718202247648185,0.9298434932452272,0.04510550815785375,0.00970121216377504,0.1626000215489983,2011-10-03 14:57:38.755068348,11.718619385
48.943852819712326,8.482706106628278,270.1669388765767,-0.07979930180600117,0.008947317553009787,-1.0557634344592355,-8.424479374006776,8.81287823726624,4.005573466710866,-0.023658175558604992,-1.0147123725940002,-1.9925766784909769,-1.982934002776701,10.097154025479643,-1.225768081261064,1.8119548485764216,9.849987973203014,-0.03318218056257061,-0.038787267255673614,-0.048169251472002315,-0.005580834826694782,-0.008518336081423192,0.10708427336553539,2011-10-03 14:57:38.855077162,11.818628199
48.92715140223386,8.478309545135371,266.2950031510015,-0.14094894363199176,0.12763242705453792,-0.8825213789177877,-13.785649350717154,21.640368786472717,-107.9278441121141,-0.04489962321935042,0.31043583753129844,-1.4706486057233834,-5.3255684530746175,9.606227265611151,-0.6285247428915683,1.922334353190647,7.430304435568636,-0.04610801902068542,-0.008051864588473217,-1.406184063357034,-0.016335180443375355,0.007517105737857652,0.008320948589512885,2011-10-03 14:57:38.955053938,11.918604975
48.960207909792786,8.483885994234612,260.0975292384598,-0.03752266026874696,0.041438646479450544,-1.9431707488956134,-9.361158075942152,-4.391052483986133,78.02637634062157,0.15061408479125016,-0.27423086790295387,0.3065123107389538,2.8297260336756103,10.09060207409637,-18.251163382756804,1.5138064331804022,9.76761415765259,-0.029168635222795763,-0.02238315702197813,0.012789914222629102,0.016254810437025622,0.045230944302055605,-0.15894848397785016,2011-10-03 14:57:39.065009010,12.028560047
48.95775436884625,8.485036944895816,267.7794131683936,-0.07405457432944089,0.09231239205880283,-0.8025794497820121,0.2748942898436235,-14.861685090096376,-14.45655936597899,0.14195499537384187,0.7454735352235669,0.6672054882637615,-1.5089148873081786,9.96780642493557,0.6104888370334502,-3.282225863603781,9.35196251315671,-0.027004772879927294,-0.0008328715142631031,-0.013845153339715807,-0.02067734972581044,-0.004014258846226845,0.3525787515427369,2011-10-03 14:57:39.165037967,12.128589004
48.94553960659595,8.490617360916849,267.37911823209635,-0.02257398314307193,-0.039911352762535074,-0.9345868284996252,-18.77519111617074,15.407272433692274,162.79235729456536,0.12787138601214448,-0.0012162066728921006,0.15248980340655321,0.4123077788331715,9.887036599353722,0.3514560576656598,-2.24736293071863,9.75291882438122,0.008042422776252063,0.13437643677343838,-0.07905528183899829,-0.012644095299163232,-0.0021345531214939113,-0.544024708708675,2011-10-03 14:57:39.265014596,12.228565633
48.96147217105968,8.493573004968013,271.8306751168233,0.048488220258158986,0.03467549381834682,4.299780118992209,53.60872866305007,-97.01468600191107,0.8140504529323573,-0.004482822497330204,-1.0677518093691505,3.587142918773105,1.281621677593171,9.975206575913278,-4.633247680828476,-2.1975428851170205,9.496697534809066,-0.1296840826183908,0.0454897942060315,-0.15077593898262703,0.034745620097907555,0.011370782055527424,0.13366385730301641,2011-10-03 14:57:39.375003540,12.338554577
48.94717952775255,8.487953821502234,270.45304982862626,-0.013336872295351689,0.06079067801394486,-1.0794880846026713,-11.39940582627215,2.880344927388885,10.02289106063186,0.22129763176777253,0.01387912935786921,-0.3983407622346007,1.2105916467824807,10.640618267025355,-3.826951774450271,-3.0544633015230733,9.644409609303809,0.010408944859807446,-0.016020692719854766,1.1131716958422557,0.012023597693971266,-0.021190082648016594,-0.1332713028291517,2011-10-03 14:57:39.474996043,12.438547080
