lat,lon,alt,roll,pitch,yaw,vn,ve,vf,vl,vu,ax,ay,az,af,al,au,wx,wy,wz,wf,wl,wu,timestamp,rel_time
49.014046069623056,8.434846140225746,116.79538678101152,-0.15383427887469184,0.01356495985188284,2.6540232681032756,11.454403103340525,-32.89597283116776,-4.269384331016237,0.3004889412133044,0.15016253817243752,-4.071078624578332,0.10160464656117774,9.964556512409056,-3.1660817379458286,-0.5379579162363932,9.676176814062849,0.32809476757732414,0.06318357820661938,-0.11205544393821645,0.03084196021085621,-0.07435021135339803,-0.08422701594547094,2011-09-26 13:11:15.406628381,0.000000000
49.01403388776567,8.438595176861151,115.21757551597456,0.017318956487547492,0.022393025984231128,-2.406775811320863,13.329251618879459,-7.986904354608381,-0.7339981333916281,-0.24663779054053503,0.16277437283509322,-4.6174512633828115,-2.352792623065201,11.44648147252529,-2.0848528291366755,-0.7008960333660037,15.863787509369542,0.04463769108761576,0.07595315351465319,0.19140101481246227,-0.09082536295176286,0.13696100444962345,-0.3503852700927181,2011-09-26 13:11:15.506624025,0.099995644
49.014435944015375,8.432399804727527,116.60618694360559,0.02520024223573462,0.030137859326365632,3.070946789419966,13.748508947996248,-2.0924567484765753,2.3961308702314383,-0.1755495384036424,0.2820914918881933,2.027779258760792,-0.45178053812107166,10.268201205159624,-2.58121584599814,-16.06062684841619,8.958256531209955,-0.01876489207536484,0.08605810057116865,0.6324858818350167,-0.4271297315071571,-0.0826971880099725,-0.348672581923691,2011-09-26 13:11:15.616597602,0.209969221
49.02127755503174,8.458707137721769,117.20640760154653,0.00881349736440994,0.04049896536533751,3.0123014284894385,-18.353519577928672,46.46574703907039,14.240627424993335,-0.1278139735483247,-0.011242683638257412,-0.744994060476567,3.0409288225705975,10.99749774554526,-2.599886967278998,-6.214355653466761,0.4293774525602103,0.023794279055609043,0.16831064454991926,0.3426917851294627,-0.21691035707730763,-0.060719522815112066,1.632367206057004,2011-09-26 13:11:15.716822294,0.310193913
49.01920203157518,8.43214278417747,116.25269344282968,0.021708824151061793,0.02607204922167563,2.0757930994163365,4.927157639816617,-6.700577744899862,-70.45777440193032,-0.3575398220054202,0.061389308327193845,-0.8718216323903973,-0.5950692812552449,8.7996994527361,-10.025088584134025,6.5513689338301875,10.256877923377006,-0.042919704787546226,0.3967868797274815,0.21813136733987898,-0.11154803972715513,0.13826431247995996,-0.1488004014720863,2011-09-26 13:11:15.816616174,0.409987793
49.00005555899333,8.43815397374622,116.90610282435415,0.024483456957813225,0.055658510234030664,2.1361579047925185,7.55613903775016,-7.921033419059753,11.39289061036569,-0.21967739319149276,-0.025095045563185446,-2.2103850176875346,2.6516125277256797,10.299033989976854,-0.36175208202624076,2.3488161766818094,10.879647032480012,-0.023867456822760043,-0.0758307738148573,-0.21930416052499843,0.014557987425961219,0.01737580656441879,-0.5625098172875147,2011-09-26 13:11:15.926630554,0.520002173
49.012477011612404,8.439858928832594,114.94492310442715,0.07643696881386,0.0028335466670017274,0.1596764461591602,11.420481182506128,5.677531066912996,15.100062463215586,-0.05697889831979296,0.061810027671547564,-0.9304058291576474,0.2891384130011079,3.7444209679158007,-1.6095606834484264,-4.723785312080776,14.270891786354575,-0.10765484076785493,0.06923816381041929,-0.465261744595063,-0.07797542587292869,0.004154313546294264,0.593394308829612,2011-09-26 13:11:16.026623060,0.619994679
49.01400859249163,8.384480301814044,115.70000749684145,-0.1564079554855549,0.014708653209050699,1.0999078420638602,7.429030612403617,-1.568062878309017,10.305952843735689,-0.10821976569125186,0.07080758165854775,-9.821437029930946,2.665583354764456,9.805186938066097,-3.9555928554757136,-1.2604087636656036,9.224811319663974,-0.0522967600619279,-0.06666734106473327,0.21870681801113565,-0.05562736997824283,-0.015417713640180786,-0.6096014857596833,2011-09-26 13:11:16.126668323,0.720039942
49.00574651514517,8.391177611871584,115.40316836916018,0.042329283323844696,0.04559774341797704,2.805544616545248,-0.4029481751757995,-9.892507437081976,7.19224154209502,-0.11827087644804911,-0.12973752174117717,-3.3184168412981307,-8.320467650085192,9.056687259719432,-1.2536062961242918,0.43979176467776426,9.949117682137606,0.2521903418920453,0.053369366289105186,0.5975900355719771,0.053783351315127154,0.04465206944352037,1.7536213329415788,2011-09-26 13:11:16.236722946,0.830094565
49.014586553968776,8.434339779749521,115.73432943020397,0.06334657822961431,0.014580626109786148,1.6212032315094569,13.246682384970692,12.553466232274188,9.905725961631916,-0.258049457610776,0.24878501714950688,1.2170563341877065,-1.0851418330060834,8.923631835608015,-1.5085886337067191,-3.3102919861201285,10.188255231760625,-0.06797395798314301,-0.00488946376456237,-0.14925419662738276,0.05589936550252683,0.03900712856816893,-0.4397660984412093,2011-09-26 13:11:16.336628571,0.930000190
49.013190797093635,8.440660362073027,116.83434726966708,-0.3881282054554857,0.03710749551950473,1.424947503748756,5.553201646925176,12.129041555608874,9.801547727699527,-0.1906522217442933,0.8526502807565611,0.8250390902248592,-1.8137835110676446,11.16317936230094,-0.23776449626483132,-0.15189056844168602,11.04705440083514,0.032978476021682815,-0.4951890231434685,-3.0339286350589387,-0.16526636561032926,-0.05755287246529482,-0.8278116529410484,2011-09-26 13:11:16.436667179,1.030038798
49.01533204244464,8.433373740637943,111.7174467397599,-0.002021602876131451,0.012981618745657066,1.3510905559117907,10.372069564670422,-1.2021038687571388,1.04616777119581,-0.07648259095265934,-0.397579053069486,-0.03805414315535871,-0.7941307426598094,10.071745678944168,-0.24438419363590647,-0.2976227719638881,8.369855893177679,-0.19083075021909707,-0.06595163829079434,-1.3008155298440396,-0.19325115805177215,0.06670554170714108,-1.2110651965921408,2011-09-26 13:11:16.546650957,1.140022576
49.01526179225203,8.437702538430097,116.0557131045871,0.300551487400692,0.023811603862878873,1.1577324712423915,1.5143707404622493,-15.978750071319523,10.105840088918793,-0.10676672733757411,0.022131989963531523,0.5162211113403501,6.480000752235288,8.072784711731062,-1.5402921483483774,-2.3235133540088064,9.454936373078318,-0.012109679840269864,0.002629741937219536,-0.29036190462941164,-0.06682206380978482,-0.25202247943440464,-0.060169300682969856,2011-09-26 13:11:16.646687706,1.240059325
49.018921150834615,8.434251137921125,115.48819959692383,0.04657835892406781,-0.02019886030654474,1.8766831801724049,14.061937166236383,-39.31040142530865,14.882472415209035,-0.8645506288530482,-0.023041448340552273,-1.1780638240328452,-4.375177905919058,9.58037537141128,1.2802687982835392,-1.8756646240345882,9.905932929597867,0.39771081121396684,-0.027009767470062798,0.12941708067374758,-0.2531579264467363,0.03140342598487735,-0.48517331628462457,2011-09-26 13:11:16.756693122,1.350064741
49.0155976076165,8.41532862278029,117.62050648583325,-0.012937909717510451,-0.008388782668265708,1.462474439291672,-7.021263632199685,16.44467028421475,1.3243208410847185,0.6143814085705094,0.035022455790989795,1.8541962664286644,-6.618894998817817,10.167571045260045,-3.304111230774077,-6.855503201753679,8.42489204916688,0.011533713299965623,-0.07500007152490083,0.018475768158905725,0.12646565907097285,-0.10093524870420753,-0.10333675242522064,2011-09-26 13:11:16.856679739,1.450051358
49.01834327852275,8.437971066887,115.37888673084535,0.35455982349385934,0.033351859479688384,-4.281804305726618,4.099633920330061,16.16322178028502,30.161033887929598,-0.2825194522330397,-0.02483822356681824,1.566894896725813,-2.787638010177711,9.957834683895127,1.3857158110204855,-3.189224909638994,12.129260171494945,-0.033315633529315936,0.04444506036058636,-6.296083910272594,0.022471397365119775,-0.053031346480721615,-0.03161891053567273,2011-09-26 13:11:16.956699894,1.550071513
49.012636737836914,8.479835004761188,115.00837320331239,0.024689303987714805,0.008800252042124408,0.7168974411630088,11.866072311499405,-56.263122656832635,-38.53329374906138,-0.23382494475290294,0.20263424362542556,4.242806685012695,-1.0186397315213378,10.166209189312683,-0.2462112003846874,-2.534749082058715,7.922541004207649,-0.0680170125345142,0.11058406795204781,-0.3567335043389778,0.0049438029231743345,0.05839671135863302,-0.7145128998492369,2011-09-26 13:11:17.066719394,1.660091013
49.01646144889107,8.43270898042727,115.67466009436156,0.27117883926596464,-0.03023489270267105,2.1231476319777234,16.172375735940115,44.03034990740386,24.805135775394273,-0.04543953947290884,0.1526004301057387,0.044065478202717084,1.3023294662514768,10.734604263667304,5.20867139028878,-0.9172711635390878,16.783937528376388,-0.4215345403863133,-0.08895567814701849,-0.8884802190385339,0.06786522693048458,-0.03488968362512253,-0.8830200577111094,2011-09-26 13:11:17.166680706,1.760052325
49.01162766772994,8.439041003657433,117.67609027915594,0.011092834497387944,-0.0004902520775551726,2.102781813854597,56.49721797652851,-66.46516902421921,10.355648878365495,-0.02413659579931475,-0.16328138904953104,-1.6326801062341258,-8.557610221748943,8.412542292145682,-1.416203142383149,11.729672337416925,9.917033171406295,-0.02184875304224134,-0.0026882776860574784,0.37759948577480734,-0.044279428139281395,-0.21493267662774124,-0.9207665419788796,2011-09-26 13:11:17.266701079,1.860072698
49.01744497564336,8.43314393357117,115.41248357760848,0.005545444654816772,0.010652289795373157,1.3750839128609207,3.7868868342091835,7.32706133732929,19.216334360968204,-0.20822408159282807,0.9663678330409238,-3.1225561404651554,-1.1649247622703773,11.055001468962635,-9.678376703414319,-1.5801667954598757,10.784169745414095,-0.02209883369582579,-0.10683555783514133,-0.6546919839582561,-0.011165401719511237,0.023076016110677045,-0.048015682120931935,2011-09-26 13:11:17.376674167,1.970045786
49.016249943871586,8.43998626613504,116.28413151476083,-0.05651730783171372,0.116204252593663,1.306775069202665,33.8172393663731,-7.181131605344153,13.659257727814321,-0.006984175563368417,0.3017778110723823,5.367626854478259,-4.85857443409369,11.490233653732261,-0.023681224727354344,0.3802883142731375,9.942610439707787,-0.4230030676308069,0.007806051657975852,0.31399864227065727,-0.04893227595519515,-0.04127146815169461,-0.5548739080611581,2011-09-26 13:11:17.476652265,2.070023884
49.01694845409434,8.443008527507207,111.76050443082252,0.044904463520775206,0.04490206042752341,2.260132529837241,9.934918076544381,41.101807386712686,2.7323041886818453,0.03856810300745579,0.027400966626032336,3.847115809068451,-4.054784512071594,10.549002580049244,-1.1690381575222404,-1.1481888527499522,8.12101625710589,0.08538234888895947,-0.015818979117748995,-0.025346427016888218,0.027680346732696023,-0.011216893188943089,-0.4195306084880636,2011-09-26 13:11:17.586709621,2.180081240
49.01587298749313,8.430852903225778,115.87344994728223,0.22808121740712503,0.0085510092555795,1.7521607868291773,0.3987089176243934,1.732635791953022,-3.5642691944400946,-0.008159899317282532,0.12291865787678555,-0.694632446049503,1.650293836106206,6.947172249941708,0.4933543209850299,-2.286946509314766,11.872220684989344,0.076198897703446,0.5655098455456269,1.0288803771666168,0.027633546932616947,-0.15651856058753405,-0.21525571036740562,2011-09-26 13:11:17.686822197,2.280193816
49.01822431512517,8.434332448011604,115.64033019678392,0.008369812384293407,-0.032329792820151304,1.4918394911488395,-6.623859080337551,27.68631868242835,0.47922165383010906,0.014284810471738962,-0.13738802476998224,3.930821024526096,-1.8199813534223588,3.1195829661952477,-0.025336122452807086,-1.8772030778177267,10.206552065395021,0.0020733025324164295,-0.06247550248363026,-0.23077147960049854,-0.11383744809389082,-0.028726522562089338,-0.8626975884892403,2011-09-26 13:11:17.796722103,2.390093722
49.015513457194885,8.437516889836225,115.73915191587706,-0.012370609765868188,-0.014873589641916596,1.1424923073410118,-7.402948473509438,-2.608197434294204,11.252957674581957,-0.02702078106017053,0.2886815831594715,-0.17014477983511866,-2.7327346191164015,11.399175975401585,-0.29831806492830737,-3.703123752349709,17.539440234075187,-0.06683169510640873,-0.024245651052831704,-0.6421180892503797,-0.12328219712270877,0.0963548322577865,-0.28168871817017793,2011-09-26 13:11:17.896691258,2.490062877
49.01519168510855,8.442008128324424,115.6488947824127,-0.04799158650519092,0.011687878407073722,0.694702629419432,10.428369429940595,-4.332938684059317,-8.768244230994114,-0.35693485072727704,0.2922292233839351,-2.3427007919198624,-3.0341392529102524,12.763091973493818,1.2212859412537003,-6.095129114123309,11.371369896543213,0.0032191908037866174,-0.03646386323754961,-0.6488347530902734,0.1116008131119343,0.03662558784321486,-0.5053921945259505,2011-09-26 13:11:17.996732175,2.590103794
49.016498362642324,8.440089943810168,116.4148398536318,0.024625727500782835,0.0020509453664205226,6.510492577533039,5.406065343744883,1.423014550799214,5.657179341178281,-0.41102229594851003,0.29469316033169435,2.1664813255130984,-3.0031154993842666,7.8317464946603526,-5.243302418882098,-21.25226741192076,10.287464096952883,0.05647423919888182,-0.2164923308045258,-1.6466929604906368,0.05357479040118815,-0.15051894052562556,-0.6587362681238073,2011-09-26 13:11:18.096735198,2.690106817
49.01863345498166,8.433131763656185,116.1211693209255,0.01318489585688424,0.00880392140572194,1.9193881443334428,1.351458165219248,-16.734176896259967,3.61896080056847,-0.3466819225610731,-0.021494981119201395,-1.6772247075927416,-13.864206879960765,9.570782926659492,1.248923993419495,-2.0155020761197746,10.400862674360399,0.049030938106177716,0.09609814073258416,-1.2652879639860315,0.0367040093893879,-0.04466402813721206,-0.09649185327795029,2011-09-26 13:11:18.206914919,2.800286538
49.016440371913184,8.447410507695725,109.00477529205389,-0.02536201814968264,-0.01193998863594493,1.281070772984187,7.539235346973724,4.3382162500640575,-7.4442498986248475,-0.10958716798067952,0.040568137053388936,4.99320979153251,-4.848186980591903,10.271019982179242,-1.4240420981967947,-2.593387623198766,10.233662468912406,-0.09065816675777415,-0.05662206755625844,3.0359961732225353,-0.023194456926371634,0.5307224893749789,0.08206443435089006,2011-09-26 13:11:18.306756521,2.900128140
49.01555013137958,8.435003577489194,116.3921863281443,0.010369988939459998,-0.12239314809510876,1.4901200181949625,-22.195428039033782,-16.873059147698324,19.197266029867304,-0.20132668008832783,-0.22638885239842751,2.8761056836394148,-3.960613164332437,10.86830703951785,0.5024776297272744,-4.069703632236215,9.864358655843242,-0.022203572297326585,-0.1331695233656089,0.5930763593400081,-0.01265583927740166,-0.062017782330113985,-0.7550405068254102,2011-09-26 13:11:18.416720613,3.010092232
49.011254640429584,8.434794790141384,114.16242243648375,0.030665945007752906,-0.02067728128188232,0.3352422672090133,11.502233726980172,28.776652696633075,1.854103268146253,0.4463965561260614,-0.05319347052234723,-1.1070566927870882,-0.5480872609497593,8.466652102278594,-0.03154139444954973,-15.571381977724194,12.826652993390436,0.0373169352406401,-0.008753341158601036,-0.09456455290684734,-0.024369153693418525,-0.08379552527289295,-0.4539697038224534,2011-09-26 13:11:18.516713679,3.110085298
49.01491097634203,8.438209761085687,115.52007380086609,0.03810083961395939,-0.0011037340438831982,1.0516750303514324,2.565630183208062,95.4492457367393,-82.96700724401396,-0.03758344769703345,-0.6638828266630898,9.271183356026606,-9.786021624871472,10.350903474592734,-2.533863522012188,-8.227823513993915,9.630563043910628,-0.038974024254353735,0.045868519425692644,-0.8714899365646611,0.01701503040107658,-0.053413918367413306,-0.8734375844369227,2011-09-26 13:11:18.616715676,3.210087295
49.01509696426966,8.453360361728919,115.35033038989948,-0.005199164116419172,0.03528943536819617,0.48480288398980903,11.249132251210355,13.912125940554471,6.236146484211507,-0.17672219123244703,0.25960631237609244,1.3557435157059499,-5.329572319552704,9.396015374204184,2.1109961282679874,-4.067721241153936,9.539142809970253,0.5023545982502204,0.014876711493083217,-0.5073609151549231,0.16482880966188912,0.08901421592236572,-0.3924595175969519,2011-09-26 13:11:18.716856373,3.310227992
49.00705001841846,8.455858895363543,114.16213673099809,0.009035671336471526,0.009558152069643992,1.966283672542875,-8.72567195814804,-6.898855733615291,19.08951188942196,-0.07684366899976178,0.030051552942759956,1.0076427227694031,-7.820520788123927,9.560448723198162,2.974144691059993,-4.635123716301792,11.764014394647473,-0.03896191014566969,0.05369272079680777,-0.7866633324374225,0.17030082918928574,0.04514694792562686,-0.7271564681410385,2011-09-26 13:11:18.826721793,3.420093412
49.01711861528992,8.43410698327871,116.12344695141117,0.021625111423376614,0.00034012799532999504,5.854845014077328,-2.568032687300245,-90.46889085761146,7.814818052734668,-0.02725697133413868,-1.8324293795241031,2.0276638887803076,-2.5269985680052085,9.286415009481816,2.1154298724676637,-4.659806656313954,9.407795372146625,0.05066271523795829,-0.12043355930044876,-0.4924637401080494,-0.02525400073974944,-0.09796325742221862,-0.14527129170829772,2011-09-26 13:11:18.926749305,3.520120924
49.01734835348095,8.432686676558403,116.13091711703453,-0.020765904254718127,0.01142742758319563,1.5518034783255792,12.392883439247537,2.684843474094752,-5.181533632849388,-0.08795268200669572,-0.3929104534033103,0.14767986623280627,-0.24071641421013013,11.57814964003756,-0.649130709856382,-4.978025383950476,5.386907535002641,0.44932159611876626,0.017186342764022235,1.672612501359013,0.030302816678440016,-0.03176845705116181,-0.7995715107124143,2011-09-26 13:11:19.036734727,3.630106346
49.01941828329168,8.439312680943873,113.63315586963819,-0.0034842485322471887,-0.022536478967463688,1.5578489830524649,0.27656445137746033,-3.3393265944357102,5.6983966528450125,-0.04393338181386318,0.24558104783970303,1.3102377227237987,-0.6918413741558087,15.27818034312821,2.206532643033624,-0.9456470456452797,8.946457344547198,-0.027644666604961763,0.22529789349979143,0.3586266937338722,0.08498057112885862,0.5150433668184626,-1.0403918064838873,2011-09-26 13:11:19.136771527,3.730143146
49.01499463725168,8.439144583583923,116.89093918516417,0.008759846147904276,0.14530463048306008,0.4492412811737503,8.266763947061406,14.68678667068087,11.363542981109521,-0.09013537493197014,0.31556499240093877,-0.6625533238176773,5.850669045349413,11.824349552610268,1.5762410602306025,0.1494778859960726,10.242710881004445,0.02707821520720223,-0.015384303723406175,-0.838773448912108,0.002281759385270088,0.0719058463731968,-0.5151185515423198,2011-09-26 13:11:19.236901143,3.830272762
49.01579032344751,8.444050133761664,115.87111858122219,0.01972063297574289,-0.004527476401366151,0.14352206060691186,4.791723026161504,13.746143454029605,26.502393167747353,-0.29267827716564615,0.36845308695138396,1.581482453407412,-1.39509308701283,9.700096302102994,6.169645891960791,-5.158518227411248,10.783511933903473,-0.018433489552414417,0.021162957380571897,-1.1099512485241851,0.07447892574054818,0.30210830053138155,-0.44762401017541087,2011-09-26 13:11:19.346778579,3.940150198
49.01483508778388,8.400827166640081,114.63186015265784,0.027446542926483367,-0.02676045747850874,-0.2205692745436636,7.5290503817529615,66.14487532599564,14.063065472923483,0.04214664033136449,-0.22787349348178937,3.3052880863272516,-1.8746782519654326,9.013622103361774,20.372121769250306,-2.526815678182798,10.189911276330202,-0.04212762703401829,-0.09209062335902231,-1.6146763577036891,0.009584268757850596,0.00013095795495134035,-0.20140094009482057,2011-09-26 13:11:19.446799303,4.040170922
49.01527122782129,8.43485991821143,113.2363954802836,0.028775502329227362,0.01875412932347418,-0.23621148389543467,-2.554196823518189,7.2214341796723485,-4.089053087405142,-0.15130696201460297,0.19233775962419647,2.7832205708709314,-3.1802717807696883,7.2145494649885284,0.5916034061473647,-0.4955554400678386,8.124233219365175,-0.2559173400839059,0.31914025256093637,-0.22769948232292167,0.041098741860971844,-0.10489382793986517,0.1610258315080782,2011-09-26 13:11:19.546777509,4.140149128
49.022149960724775,8.431253588863319,115.79601172547369,0.012779313151711436,-0.031137693624236337,-0.18661232348374202,35.09818244876871,4.580831153007299,12.866443487412308,-0.3307007607280947,0.2297296948917646,2.987720480106667,0.2588760620624313,10.1516310210992,0.7065764887473498,-0.031729390807771374,17.863588478825168,-0.15709475265657352,-0.10720738408019669,-2.5056743201910714,-0.6984596176857162,0.41298495630843696,0.08710133624583558,2011-09-26 13:11:19.656780167,4.250151786
49.01131135353117,8.435057334354713,115.86061563603056,0.23808873475222292,-0.003480575600462996,1.0670803298169713,-3.212670317005447,-12.670987866595457,-0.7550200529033928,0.17094559926145222,-0.007259212886445378,-0.24655482141233254,12.042154151161991,8.917016655329652,1.9962621375295142,-4.5509094015052405,8.81504303746015,0.03877817595523754,0.044681983214825007,-0.01058544917785223,0.07580587847548348,-0.037131013612330906,-0.20762128148404682,2011-09-26 13:11:19.756813482,4.350185101
49.01488981068316,8.431225994188347,119.76004211536961,0.06754609581436655,-0.1004459573045148,0.5692198624841316,8.254667781541837,94.31490581965991,-22.29781141598737,0.052758202813062385,-0.10367114098311514,4.0821705582599925,-5.938815971956091,9.608185469468513,3.2350058373659936,-3.8637427371961945,7.737841348671784,-0.03523476006645692,0.058785817776966356,-0.2545100805357302,-0.008416737458085306,0.02469615844766275,-0.3809392636635321,2011-09-26 13:11:19.856788448,4.450160067
49.01411921403475,8.435293433579993,115.54800481234305,-0.006388795453732755,-0.01716405687242025,0.26975675657635484,-20.814956656789427,-51.3592150145811,-5.955200787248469,-0.22435687813135918,0.20236527904326757,3.1478737856205696,-3.4514523650409887,13.861197140896067,0.26583357723981194,3.1232847671935176,3.04924161270827,0.02638866283872967,0.043739347592798246,-0.3329398174333135,0.017463936194503572,-0.2512977961498503,0.03690933794936993,2011-09-26 13:11:19.976774831,4.570146450
49.031489096522975,8.440571322307841,115.45918410301918,0.042046604048453694,-0.01011077731072288,1.5501428412143161,-3.824865017247748,-0.023768912034205947,9.711551396153657,-0.053511709791567906,0.1546094930660662,1.4983183280607943,-0.53533696364735,8.485928266971943,0.9217550893796663,13.79876071184354,11.225663396816769,-0.09038489352083755,0.005683938876465414,1.7015854324417399,-0.04339014625071537,-0.06080396953414627,-0.42282943752977786,2011-09-26 13:11:20.066809304,4.660180923
49.0103440020164,8.433902900771596,116.66088203184712,0.007670247345339266,-0.031240802923872223,-0.054834606040241374,6.234292625412794,18.61044454817442,14.165332686060895,0.13714301804521528,0.33658098550464427,-0.21335070706341686,-23.334571747306484,8.067858311695934,2.5149622375627714,-1.6346827535097503,2.489556934667804,-0.004546546548953222,0.11809004949491006,-0.10056342570337984,0.06529647921510048,0.11393573323207729,-3.718714067277761,2011-09-26 13:11:20.166817915,4.760189534
49.011936477792524,8.435077490927169,116.0871383142919,0.05603974657249865,-0.011560446173000321,0.5982680708717987,5.0444634827842325,-2.3820127574465904,1.927613726953413,0.06893395346959895,-0.3382427513863357,0.05524650736688419,-32.864905561984614,9.302706118953894,4.172965598411286,-1.3622048032950094,10.837746103045612,-0.020151989171933053,0.09604293961513037,0.29784446044530516,-0.07146295650707452,0.4885453430534101,0.7111378089952344,2011-09-26 13:11:20.266851974,4.860223593
49.01431052381953,8.437337678802546,114.57817866665275,0.037622912063367,0.010644925225732692,1.4876527985349468,-9.746687343426787,28.301900082720394,-17.81812510503972,-1.2079636605618425,0.3036135012348696,0.9077173751679627,-0.3488874990663915,7.875551584769282,2.260281152864874,1.8395702549561979,10.37204338329992,0.006954082732249582,-0.12824234023544392,-0.16837778286817545,0.08276292288043371,-0.01414860976212282,0.4467086301461919,2011-09-26 13:11:20.376877673,4.970249292
49.016754522331134,8.440431462220175,115.14812980637373,0.020287261389153797,0.107576815665613,0.9189293307915389,11.189759618198401,-7.1793776673065075,0.7592590505723074,-0.248513963604029,-0.0005606398464105978,-9.810037342812903,-1.4791671670300905,9.654873315257301,2.1007123926498767,5.880239180974968,6.59051438856347,-0.03689457969067443,-0.11578988719442093,0.9586815047008411,-0.10371938034862402,-0.012349394182363159,-0.2846815756145839,2011-09-26 13:11:20.476832011,5.070203630
49.00810053200402,8.464024349330396,115.03925331800771,0.01889080344003193,-0.01735499227884114,-0.046321815688130874,4.069618737472632,6.965860511914617,4.528013545736069,-0.08463760663186652,0.6120798155822497,2.8335681726222046,0.8746082734281345,8.831072011891811,-0.35565434597974455,-1.995390980482056,10.995367254218358,0.05020725338369614,-0.1432360777649229,0.2490335711152397,0.08531701260570826,-0.08462279388087397,0.16983154106087847,2011-09-26 13:11:20.576903505,5.170275124
49.01786138432672,8.445262393127198,115.69627775973326,0.07857924871063196,0.003180876846500157,0.9966615875178828,9.533874842293386,18.880199421701626,27.474872560573257,0.06596981375310462,-0.050416890039941764,0.8655446741523339,1.452054961452953,9.782408420666492,2.1442114900507465,2.7988781994964396,9.454700483266604,-0.024933021890372588,-0.14871029013836717,-0.201892735924044,-0.015974157888763087,-0.014354701993976045,0.05268437918834097,2011-09-26 13:11:20.686936057,5.280307676
49.00823809039712,8.41553605123331,115.03694891345756,0.056143208067710226,-0.031998307354791575,2.0671400182548396,-0.5892754076457063,10.903195193073486,16.295921741867392,-0.1303635813292758,1.7369507374682007,-1.268067147030531,-9.014782110943118,9.295448853919039,1.3264504208405836,-5.145206201371626,10.084956208849185,0.07377663220329954,0.01901787409562418,1.6768581085565946,-0.07924877730158258,0.0942611536981692,-0.4520667213453232,2011-09-26 13:11:20.786911163,5.380282782
49.014210175129435,8.438904759949724,116.67422417161102,0.07514115417439471,-0.011673936236693924,0.9162483243834931,6.6677455434649895,37.44559296137458,25.261594791407795,-0.09581403895300515,0.04436425018891137,0.15881050457988466,3.1414371176357627,8.672276059026396,-0.4530742757161248,0.9439887052119953,9.962047011654823,-0.02673813200927473,0.09367443251814381,0.4125997003030981,0.058197388134675225,0.05862160035555679,-0.4637371316355034,2011-09-26 13:11:20.886885946,5.480257565
49.01657591125815,8.4154926716342,115.94889086152463,0.12832332774898483,-0.024837919912731692,2.247918524500207,-1.9345741751766878,6.658771913850016,-4.2940478901202646,0.04538001449835724,0.42748985402879097,0.8801556149809941,4.122233871046243,13.584142812533953,0.6887963325775653,-32.49574536628206,13.823141853379632,0.07653144837359516,0.5817883818879229,-0.6575803574383297,-0.009794580290957698,0.05249896998324948,-0.1379211631184016,2011-09-26 13:11:20.996873954,5.590245573
49.0145253098007,8.422398307830083,116.28836983547339,0.020178693351899202,-0.0025444796907148786,1.7198657576461929,11.433466242150237,11.252698161808377,8.739413053207517,0.17713493183329143,-0.6267501770899965,0.09895509878975739,-7.3805347863818,10.34512437824987,2.842664741454089,1.7931336648555585,8.244604820185764,0.058741998391796175,-0.0943252031638181,0.20525165651174945,-0.08862311260688913,0.07370872945996379,-2.041324740256187,2011-09-26 13:11:21.096923900,5.690295519
49.01554659317341,8.437545310215441,115.49046084299455,0.4242469295889876,-0.001689139876183848,3.5433957714160327,99.38380876496335,10.526171256426332,22.10668696728214,-0.011360510605713952,-0.06166222978931955,1.9040636606379868,-5.5283058492166,6.077776673216307,2.1448235260555037,2.5727115229271247,8.936658829583495,0.031502403247133395,-0.047657060740335266,0.9740904268717079,0.08887159067371665,0.004332162664612657,3.3986948893273254,2011-09-26 13:11:21.197096641,5.790468260
49.016230641860226,8.430142604037469,117.82266107725161,0.007089765185661633,0.09000108550526958,-0.2866854509054598,1.406030357454219,9.615151396033818,9.595389885255457,2.3064014716710934,0.13574410522485814,0.7145521167562701,-3.3490892689317033,10.97479476768339,4.229584855600996,-0.3194114413789966,8.518625278114014,-0.01488246562847281,0.7574697913274336,0.39962997279410645,-0.020186281492108223,-0.02776230924005737,-0.08907190885220997,2011-09-26 13:11:21.306873501,5.900245120
49.016801834841374,8.425644224793576,115.62522577819409,-0.04523646141034035,0.021419739315131445,-0.7918428005422212,15.509180883354324,1.628314804484118,6.144623677969469,-0.09923854990937887,0.10310681899948332,-0.9152554293353514,0.7187549342565975,10.876325789232379,-0.8171188288942481,0.5138600589395288,10.822447865119878,0.02817403542302623,-0.05072969002538309,-0.6435027166546142,0.06717406664269245,0.0970849970469103,-0.4397768455776335,2011-09-26 13:11:21.406934840,6.000306459
49.01705216808501,8.43794228219086,114.99241245572627,0.009774923577859234,0.005775700826092188,0.5527586646812628,29.44350965674887,15.37152425079252,5.634068710870564,-0.02032114696357844,0.11245368716176346,0.3958000649410066,-1.48538036477535,9.562290788579727,0.6765705722865025,-1.4702664342663283,11.19368041492484,-0.08662256536617173,-0.007844323695925746,5.632495670776311,0.16325112129063407,-0.7829958852605617,-0.4790716599379643,2011-09-26 13:11:21.516878213,6.110249832
49.01582514955303,8.436726249134795,116.74259961508321,0.030982948298903273,-0.017850423613886498,0.8345418766603047,12.49532593067857,59.719761999736406,19.02275635421405,-0.11669018632479417,1.2065260050821274,14.934880895840173,1.0379484772060796,10.032710474024459,3.2801076101004742,2.7903116546008575,7.683419316352959,0.03753841865704355,0.10809375524289333,-0.7541044126751215,0.05108626921483572,0.023868061040119987,0.7783039482397718,2011-09-26 13:11:21.616881381,6.210253000
49.01357930302377,8.435526450905336,115.19876047175315,0.0015880419947123109,0.006334560227755851,0.4459442904126212,2.650095629233976,8.638628103530813,-38.32403105750389,0.03617842913756292,0.09602385044209594,1.4014929883125355,-0.6166331078361498,10.164241642573485,12.23113678736588,1.739462044086337,8.597398669940066,0.1647382142755936,0.07164641448430027,-0.3498426423329241,0.060550870616383486,-0.12950104354440165,0.1777580366789748,2011-09-26 13:11:21.717174213,6.310545832
49.014659653593704,8.41158010008616,114.9479835305083,-0.031534379326821946,0.000780457715298782,-0.47476866754550795,-1.9324307194208776,27.66493594118532,20.555161555797046,0.012750691188782554,-0.6041844018271771,0.01325985238310945,1.2722545614707597,8.9633249132547,2.6314125487116744,-2.589030296293649,6.683308686612167,0.030642490450027746,-0.030577120642209032,0.4232990227123357,-0.01398959613902764,-0.001656580580009108,-0.3808638797098607,2011-09-26 13:11:21.826931673,6.420303292
49.0155028239246,8.432887709126714,115.7458403058382,0.0195207251671533,-0.014566861987108055,1.5090773982944088,-3.680663593830955,14.005840090162009,0.16297220719392058,-0.10217556848635152,0.12497178395688162,0.8582405185223294,-3.748696974694311,5.78817086511766,-0.22332387504278906,0.6342182241764164,8.87113158368157,-0.005608184713241381,0.0106476272537881,-0.10966864996932216,0.07398401418470274,-0.5475562143019049,-0.738704314704807,2011-09-26 13:11:21.926931846,6.520303465
49.01106294034566,8.430842330596555,116.22424444257443,0.01578927246375398,0.0011984824134487117,2.1033149132161744,8.939682480588536,23.394988056158347,20.842652895295544,-0.4461234900318259,0.6094478249918652,1.4148555601359756,2.2905821572673846,3.4569018335473194,2.3388116036528612,3.4480393530940283,6.772962932381627,-0.3034206849814682,0.30188140426652577,2.8325405823766854,-0.014189394306330556,0.10799879043396456,-0.6772912576555192,2011-09-26 13:11:22.026939148,6.620310767
49.03069607553018,8.442231155976115,115.68769825672267,0.051384004538171615,-0.02715757766820235,-0.26034064186209027,12.015737157359975,15.620679524337078,0.023850919541592575,0.1550821856102859,0.21257114471135044,1.7248667845973085,-0.19096498580790078,11.44081861871244,2.4197239655892075,1.4475499998024253,10.084509979430246,-0.03604589306748937,-0.06360028687947225,-1.5621813168391698,-0.0027499450696067823,0.015145144864524871,0.6387937538076838,2011-09-26 13:11:22.136944955,6.730316574
49.01417327210297,8.433035077176026,112.21797303302773,0.022592090272998175,0.005650249411878899,2.419123880907024,14.499157312410864,0.7936876363043623,33.7593387271533,-1.0325574754146074,-0.1540561666554603,-0.7916113889726075,0.7188444595411886,9.307576010690727,-2.5926864185847958,4.790968288264316,7.7264486612273515,0.00805673516431924,-0.03663346810499616,-0.40420761352724766,-0.0013648944888589483,-0.033068745580839415,0.1822517267433736,2011-09-26 13:11:22.237165051,6.830536670
49.015730991372585,8.439697857048278,115.56258356097473,0.03848034958710906,-0.010343346526748471,0.9311163637215831,-2.6133108067126978,26.450748865286698,86.70844725688306,0.28190836636651345,-0.35350374526162365,1.7046318862589762,4.0029094152655675,17.493681800586756,2.5901377743253176,0.24030754465389004,10.342610299449442,-0.3528272320166993,-0.012430081702835254,-0.9374003781555779,0.01643535977659674,0.0073515339233660194,0.05654592070204801,2011-09-26 13:11:22.336929431,6.930301050
49.018288148579046,8.435260729464693,115.7810316279085,0.029608128698344255,-0.003880458029467104,0.2201792675724955,0.03532444256055811,-0.8384919057641707,6.196342920824644,-0.3133640347553715,0.06069615283360167,-0.45699462041426686,1.055485319226619,8.680798084330958,0.9856531653808768,0.7228057188388607,9.339278516879912,0.018812900914898692,-0.022339398872617967,-0.28309444824373237,0.05780991920970703,0.2014855068335136,-0.5553331330765287,2011-09-26 13:11:22.446958562,7.040330181
49.00030259004841,8.428637493133728,115.7903865319745,0.03455003858390286,0.013089977590976302,0.1841256021704773,2.1134949147404605,-3.5352142151021333,4.6710040966269695,0.14069778904292346,-0.021549812752793555,2.359975092825406,1.2361549898274486,10.444430571504315,0.9831251748945905,-0.7454561783345881,11.232391906718375,0.27773007320581605,-0.0761723816988758,0.2287892665881447,-0.03979366282272031,0.08715193552651714,1.574887547587053,2011-09-26 13:11:22.546946739,7.140318358
49.015686716216806,8.429768989937015,115.63939481808514,-0.03065057869012782,-0.14082779644377078,-1.1944723556424988,0.2267186281949085,18.355495479821876,-12.057444187287771,0.02157301627689935,-0.17665017574473774,-1.4906819472396604,-2.52934858781827,6.631901284953704,1.6086047983246736,-3.320788638884701,9.229239347856932,-0.022574009622279623,0.07578134430481967,0.2553649886150061,0.07949798396946477,0.3441771372058032,-0.27146610837837887,2011-09-26 13:11:22.646968816,7.240340435
49.010870756253645,8.434769171126831,115.05642222146327,0.008992145300013164,0.03679362040841335,-0.7392831950258378,2.9061332576549304,28.31059997671324,4.069211929261607,0.09081755388717451,0.4019535612073433,2.1905191418840464,2.009174775882112,10.071621002828621,-4.6662765332553455,-2.661586344254192,12.745817243411198,-0.03149310716479636,-0.16369442719385777,-2.2960419007176656,0.06534524892446797,-0.08863127950892527,-0.31668010292749504,2011-09-26 13:11:22.757019692,7.350391311
49.01163112847138,8.439495522594001,116.05873384538839,0.009250587743063681,0.01596869933048481,1.8955424902211933,2.98114802406953,59.64139026924893,6.565236242355842,0.03964040539564583,1.466313357696482,0.5815526582378419,1.3781221547948128,9.536308063192498,1.1012744689868255,1.5452701244748797,9.171337651780242,0.07247891153397942,-0.11212683427400878,-0.12961698528699062,0.05440414032782917,-0.0653518578060775,-3.2525927567187627,2011-09-26 13:11:22.856964993,7.450336612
49.0151466054874,8.431971763307759,113.6871180841065,0.027561766522054894,0.12547343869075775,-0.17869810759468352,6.058484433811188,19.265192342158926,5.60625832212651,-0.049542475945471995,0.09441647045201826,-4.678555913822514,15.50695784198121,2.363464519074167,3.0319695190120277,3.8404081573216633,11.229746732071359,-0.030929648635266094,0.015154084569291246,-0.5785466214144519,-0.04712620991011178,0.052186218993194505,-1.3521997154104979,2011-09-26 13:11:22.966984474,7.560356093
49.014610688289,8.419290004560702,115.48966160933678,0.029717308334532427,-0.004296656879839313,-0.6892421412326931,-8.797373941215383,8.226343378721484,28.35516103177369,-1.2615658705111061,0.0990767216725028,-0.5326555525938288,3.757019021362971,10.882006744560247,-2.7781832697905564,1.7107262297197747,10.828958145754124,0.006895118572587553,0.07937114942751008,0.2966225412625574,-0.023928060057432886,0.028747239519602105,-0.1779074552886773,2011-09-26 13:11:23.066992304,7.660363923
49.01556215905836,8.415360967730932,108.66915209922254,0.1866272578116628,-0.008951931282711444,0.29061345322524734,-3.5128762636635464,-15.601146930039574,9.319442483866316,0.8225725456808874,0.16868904485765612,-0.9414773120588327,-4.700721608162414,8.65265800514172,0.024334804238339613,4.161479429699394,11.361201229523294,-0.05682315994376659,0.09090733287998605,-0.07393282699465864,-0.03702301891480147,0.06131907052670704,-0.22123182561737678,2011-09-26 13:11:23.166972757,7.760344376
49.01717563205804,8.4353859827543,112.44808332203047,0.01673397640103646,0.014285320617691104,-0.2325643766151827,10.02086399968034,12.927049373752626,-6.358648144818526,0.3873315928771961,0.06823430700350892,-1.5899577207444626,-0.8710026793058275,0.39473420820586824,-1.1236715237411223,0.15392767074402422,11.076807836467909,-0.007047468835209009,-0.22541727924711513,0.4251066128223512,0.11894415422785685,-0.017908039670577986,0.17342885515315096,2011-09-26 13:11:23.277003780,7.870375399
49.016172253231254,8.441080701916887,115.33450775005687,-0.023429999922381463,0.040986468850131436,0.25546652068015535,5.138409361296473,16.8274817345251,13.544007138653967,-0.07785611637251035,-0.73755668750204,-1.30311984404626,1.3479559906599627,10.267133640266223,0.00962320094050928,-1.6967356319100162,9.66469292719508,-0.06744371946651934,-0.04605687032880038,-0.7674909197638273,-0.021087058099731517,0.018730568221331467,0.4610008328802649,2011-09-26 13:11:23.376959182,7.970330801
49.01840968840446,8.44034489536322,115.98998994461974,0.0013163165695915767,-0.0019209270437755494,4.170114357753297,4.013073184466538,22.116997573519427,15.03116093791676,0.08829434119397253,1.1738363584565155,3.0088077398425734,0.15880904813000002,10.90502335101074,-2.793179967352375,15.691017958098104,11.419807588619324,-0.010622313057659118,0.09609184331651685,2.9838130346476457,0.021282487932713805,-0.03195999982419673,-2.9615755304916096,2011-09-26 13:11:23.476966537,8.070338156
49.02619698289189,8.432313937509681,116.95708638685501,0.0336303043645367,0.027003629011833764,-1.001743897616635,20.283358904514422,8.230313575791463,11.358594998532114,-0.6221460308652176,0.07746357842927727,-0.07976697201380933,1.8401543467933696,9.80407821815575,2.4431215410383516,-4.927378100994371,8.665146082735928,-0.023502361457412854,-0.009062458741716605,-0.1817870489266313,0.010134554247423381,-0.021754035697143834,0.22288210181398876,2011-09-26 13:11:23.586994923,8.180366542
49.01353547886157,8.432997014148455,115.83754023018957,0.06697164934279998,0.02437597415847645,-5.138757306252157,1.3353147052617143,14.280371768307258,13.273488184862048,0.019762455339555063,0.08038343617299808,-0.24198076407418656,5.081228728132465,15.076224906155485,-1.0390047596980267,4.023227860570962,10.083982505815822,-0.08230771336188474,0.042440857651491824,0.24683277222483213,-0.08809262294936429,0.08749372866513919,-0.04028290325106452,2011-09-26 13:11:23.687130641,8.280502260
49.01653425909236,8.437809929058226,116.22168258706051,0.0793287515473757,0.018823041156967365,2.1035576032268977,7.08185583583401,19.05161576669104,13.969388387084862,-0.03994930208628947,2.2772636177464265,2.8614547339279883,0.22427183658188424,7.864050870123903,1.3307844728274851,-1.6019872080896755,9.641636831696209,-0.06413702324474377,0.06474131352408313,0.832638175403578,0.00762719625679243,-0.040978926234603356,-0.20126055598324627,2011-09-26 13:11:23.787050409,8.380422028
49.01609833639127,8.436437652242684,115.81535638386752,0.014140420177642995,-0.02045720407910338,0.3355013916699139,14.651233488619676,8.067631809165372,11.862788485307112,-0.012319320193174724,-0.058620263927484775,-0.1265567767785648,0.6750501145415111,8.217275928405167,-1.1749697929918355,-5.391395351469398,8.740679278185238,0.037651406822715054,0.012110821274783648,0.07986523423704214,-0.4735173309121029,0.08809093746542215,0.050200674663656804,2011-09-26 13:11:23.897014646,8.490386265
49.014116893960804,8.437550926551635,115.10308565972845,0.11964302066465914,0.05722074254322113,3.0483443094049023,8.702388787311179,12.98977544200075,46.838454751568676,-0.12321905438274208,-0.14345233753922687,0.8801784854653889,-0.5390564183306461,9.051089637755949,0.4384050811198227,2.3552717104746406,7.90343821084225,0.016858606213696847,0.393800305007283,-0.009500551513537408,0.08956309460009709,-0.02372336266124414,-0.026746697650447,2011-09-26 13:11:23.997014377,8.590385996
49.01584828129241,8.435314643972816,114.94257672696772,0.01324103496267725,0.19718988036638385,-0.2617700711735127,7.049366536326501,32.03567728818746,12.909553635110264,0.19294357640141607,-0.22915434217577751,9.931960261670692,-0.11629113721995255,10.414001703084018,-3.4940181777582886,-1.6430978076411638,7.933945026279099,0.06564603834162694,-0.020900424080207643,-0.6378507466142961,0.27094905081116644,0.00231313021890925,0.35329148538229366,2011-09-26 13:11:24.096978951,8.690350570
49.016772723667344,8.437332259447485,114.35604293198848,0.0781927857489545,0.041293683615047934,2.0669321486141907,13.80549882489682,21.035040564528604,11.855521116779355,0.2055340271055725,-0.5065378162286579,-0.5956711615843069,4.735957575881183,9.721383123709654,2.6148760762884207,-1.4240998085192205,9.89090796385133,0.080992165141351,-0.1319386985831914,0.23619373690677445,0.10906844070729042,-0.038738756196440495,0.25892544993639294,2011-09-26 13:11:24.207105671,8.800477290
49.016440048526086,8.431064857727408,116.0090874126154,-0.20212892274118946,0.030611450049179416,-0.5711300514747301,4.7251504270211395,17.006975834412387,-53.754622203168324,0.09719590743961087,-0.3321618836758552,0.8655654543946237,-2.145417609172362,7.909466315856722,0.8363109051644534,0.6760599268429525,9.637402471035456,0.09540772574320357,-0.032142202584933534,4.864303527013254,-0.026905138276101435,0.005815773510122746,0.2731917694013232,2011-09-26 13:11:24.307028494,8.900400113
49.00955524376654,8.434722653556305,114.70545304296188,0.08650106981527247,0.03663636534039496,-0.017738505588369202,7.472261307371179,-2.2125631715610936,12.028864487535817,0.1727239592726196,-0.32463235482838715,-0.7820479116050636,-0.10799320088638009,1.918541347330038,-0.04311038311979354,2.2483715227032612,10.497047548965297,0.03664291335389005,0.004937002397077998,0.816990321036592,-0.05179195686290419,0.012608122512781442,0.7658577711484865,2011-09-26 13:11:24.417025357,9.010396976
49.013935070722404,8.448235303863067,115.8425574314389,0.11194828668376242,-0.016577850002076646,-0.0007215589438435144,12.85074980473787,4.9978913480374025,1.1116293002921083,-0.48016551791619655,-0.10037087422417137,-0.6692577659792036,0.06102635157009384,10.455657261739093,4.047657155230701,-5.228288457459603,9.004760445608818,0.026886297935962873,-0.1037819730370398,-0.007957431027903819,-0.028490429657933684,-0.0011998567659263631,0.5540597308422527,2011-09-26 13:11:24.516986198,9.110357817
49.018207416575244,8.41288719554178,115.37124165740813,0.09962205134862631,0.03943156405503464,0.14796509183696804,3.15181940324159,6.561204231172924,38.89122405169705,-0.04806996798033719,-0.1618802683460147,2.3385752685700254,-0.4677603670687237,11.236057174217292,0.7288931320285678,-9.235081588184112,11.318149979194576,-0.049176408030451466,-0.08857251623178033,-0.029959746335472562,-0.07048123370740858,0.10512015398867659,0.0680141511654392,2011-09-26 13:11:24.617007603,9.210379222
49.01572603494226,8.468075681388019,115.25900240186515,-0.002816922225403695,-0.005551421966948569,0.6209639922902491,12.929155347226967,9.67628456060392,18.997254954392265,0.05039221177981365,0.0008757624396098255,2.2310781069234817,-0.41574166939164425,10.294414808220633,-0.16412741215349147,0.7068968898853809,12.590918185668812,-0.30162733408531506,0.025847571807657795,0.03927407310789728,0.012102365224060458,-0.02050539186042026,3.130440846435612,2011-09-26 13:11:24.727297675,9.320669294
49.015369087899074,8.440344439592907,111.92758410604816,0.10109398821210697,-0.00669767931573823,-0.3957622218959317,21.383716672443608,13.470650932514253,10.292098752792183,0.0431375269898258,0.033390199076384214,0.6729449473389897,-1.6647772582394742,12.023322295241485,-1.2852408091415868,-1.119645636015663,10.108411501637542,0.06717552464764925,-0.012873431922003995,-0.17807090638892417,-0.06032290399889542,0.07208059800930726,-3.279999015457609,2011-09-26 13:11:24.827037575,9.420409194
49.02349462776603,8.430935886397709,113.86857036246475,-0.0680981187399419,0.020655555631967543,-0.04368321786575513,2.9156733608614385,87.66168753074989,-0.003956842538940464,0.03843999783987713,-0.01647660665251137,0.12613363689320023,-2.4352589507184232,11.328451565101416,0.40754810595977625,5.089021220205619,-6.503835606184097,0.016755495190410575,0.0889139538091376,-0.8606178307965836,-0.015775397577627335,0.05358168708367324,0.21305788829037942,2011-09-26 13:11:24.927068183,9.520439802
49.01723857279299,8.442098702041768,116.08614725788294,0.16253475812430015,0.03361447887791001,-0.04709380001402952,10.828835593751549,23.912789995097874,12.809235540226641,0.23891926736826194,-0.09562252675719997,2.3180734245398322,-0.7635086286728987,9.527490775762894,0.03161143687243595,-3.6125637493788947,8.617073394728743,-0.08028874731490612,-0.043302553063197004,0.2216472533526811,-0.05870669188860531,-0.12095389002489056,0.08738709117603659,2011-09-26 13:11:25.037007004,9.630378623
49.01522028378394,8.434348592960559,114.30485947051602,0.009738134812938781,-0.008325886975060462,1.6476909733312324,12.491452224592052,3.9326424443315986,29.19321295183923,0.500845225777505,-0.43592779730089254,-0.3642275983759944,1.4042190047390726,8.52112324929532,0.6287253103801835,-1.27319519561634,9.882950933856334,0.0177096230070634,-0.045333471126439547,-0.17087685175711895,0.5220621884273433,0.015252126052381885,-0.1727824781678215,2011-09-26 13:11:25.137090507,9.730462126
49.01591772562917,8.435621533994357,114.2577666469449,0.0690384593105462,-0.010332807655338856,0.1290919466446412,11.069682991637151,8.779145966793315,27.212577598532498,-0.020485963504855632,-0.0041337587796165046,3.3363681450105043,1.201038092392263,8.066668761442495,-0.5490748878613126,-1.244881086527944,10.948409401478678,0.128643411754435,-0.06858016850434226,0.18496554499385937,-0.00010217979547739835,0.0681795190399374,0.5067434873404809,2011-09-26 13:11:25.237218425,9.830590044
49.01321407965675,8.441394588731978,118.67730000573194,-0.023668001001224,-0.0020570320816945503,-0.034461500358868746,1.4816598099213145,4.04217203713075,11.706720509081986,-0.005105501078760566,-0.0047157593625006405,4.0285722369856884,5.8323452462992025,12.046892499557138,-0.7618042278127751,-1.4817138543506263,10.726811920596925,0.28266483336276726,0.04314414266159163,-2.47602733603536,0.07302262801763967,-0.02919091097160842,0.03776403224300161,2011-09-26 13:11:25.347096196,9.940467815
49.01375911251659,8.43702815616778,114.16170211325851,0.042422476942401505,0.006536185265876012,1.2363598907906774,1.816688699838764,4.393892636712802,8.405931354359428,-1.0352206877796608,0.14399490126563114,1.8722076422170097,0.827532905276809,11.331742860932469,18.300703114007806,-1.2312919110391969,8.637458777985824,0.05303680518958165,0.13483159500904163,-0.032507223930202486,-0.09682064075065647,0.07784206486171935,-0.4572378206766644,2011-09-26 13:11:25.447095360,10.040466979
49.01602745379408,8.439766114744518,115.74820213753489,0.05289095043839885,0.09732124353465119,0.1169372670888072,4.131909715392091,14.382469853421998,7.013711870515818,-0.2320757707063869,0.010962591690881571,2.540972508905285,1.682251975292317,8.465772426606557,-1.753946934948525,2.0031379194066834,11.710631458771045,0.06027017112368562,-0.19704845376362712,-0.12822064496046548,0.013428316104144869,-0.439645448346938,0.1151975756300927,2011-09-26 13:11:25.547118146,10.140489765
49.01724795803852,8.437289496313822,118.1287409124138,-0.02090271065269117,-0.02673141041173352,0.6391526140939855,-47.73424577316375,26.15660448065563,22.914997719412526,-0.197679747835705,0.1993226267932137,-14.362107542449895,-0.05318480048329105,7.317736716521152,0.595864073647929,-0.4813621047944343,10.33389280509088,0.07548970274278943,-0.08225808964359746,-0.738795916329293,-0.004080434453175469,0.05353587522049056,-0.033719256550664586,2011-09-26 13:11:25.657062669,10.250434288
49.0162051010554,8.44887853847866,114.05613907127939,0.06886706139666551,0.00805652601276047,2.687745114462792,14.6491742331194,21.129857182818924,36.48589874995332,0.03776990534501853,-0.049254336440158586,3.1872799926446866,-4.2761424818310045,0.2963584703080091,-1.2059395074184072,0.9728180123817087,10.55168197115119,0.059826598829010036,0.05746621183865572,0.4599760296700742,0.03034318747288004,-0.08121188067787613,0.34335960267377547,2011-09-26 13:11:25.757108184,10.350479803
49.01193058853401,8.427362889928396,115.40078692886865,0.0556021011295023,-0.005080702176244921,1.7221516876029876,-53.35204168845085,-12.484355281110115,64.40897214594432,0.15668571155860245,-0.08398094415686752,-10.673512199412697,4.244401138130842,7.54381584582371,-0.7461269946571966,-2.0376176437832365,8.923577684217362,-0.4070569062096777,-0.5147336701556029,0.021155876205219384,0.08637256968242024,0.12470615099701177,-0.43291195253644166,2011-09-26 13:11:25.857092311,10.450463930
49.01593148132776,8.43504694667166,115.5506554910357,0.0729989662610212,0.02875212909220981,1.5138480725984276,12.348950761101092,-1.098117184570901,9.653775229036643,0.15655574980539827,-0.013723630803278526,-0.22117643914756352,-3.7501712435019496,30.676981154023295,-1.19942449216577,-2.1155420021936213,9.49534280968503,0.07361725643617616,0.001714131136980752,0.08211203742490912,-0.006206268049577043,0.09263953198400712,0.500989428142039,2011-09-26 13:11:25.967138011,10.560509630
49.01673864261959,8.435516483675329,113.60283494315289,-0.025457917698144525,0.0056102066020648385,2.1652068128193065,3.0300145297233714,18.54444778533524,18.435370248350477,0.011830623858339563,-0.15084039731862253,13.904328534888345,0.49609279343978363,8.921298693268342,-0.5074688851806027,-0.7358099461802692,9.79019344621619,-0.03502151961541694,-0.0883568072766445,-0.24492109460884043,0.06724608341649713,-0.007202567072987565,0.1430131617264781,2011-09-26 13:11:26.067131821,10.660503440
49.021570579080105,8.434986462131079,114.69652011645043,0.034728110535572995,0.01864034414793442,0.6459976811173521,19.51523255576347,5.56982426834077,10.539832133233634,-0.26994893718562846,-0.0972514881734865,12.30621671965845,1.850586494672621,8.746870476222242,-0.6811149485987462,-10.950790124660372,11.768551150691556,0.014544402017385006,-0.08110344930660399,-0.5166598153639395,0.009126065467749443,0.0887318079916241,0.15233142909658637,2011-09-26 13:11:26.177286056,10.770657675
49.01731205362335,8.434619398651424,115.55886458765632,0.03373073385341786,0.12587072513204858,-7.6965534059787,8.438245835155762,7.287711757485813,11.748322985629414,0.13981651425311364,-0.6215225643546909,-0.784348144924558,5.190331669547575,11.328295467525356,-0.5990922851456082,0.7269266594901468,11.243054734546888,-0.0001572800292354605,0.019695128948594917,-0.21302711201649716,0.16533304013006814,0.05440600098608438,-0.435318701814159,2011-09-26 13:11:26.277139690,10.870511309
49.015545800005825,8.437913990120167,116.14023260981237,-0.0215564992009177,-0.016676940366294742,-0.0539899226466527,15.816692545859105,30.95706029024668,5.580364860338994,0.25847285365598277,0.1402945491823377,-0.7063718530580072,-4.7632596687653415,8.667981169866337,2.5210906688727963,0.7885863036828545,9.692403096344156,-0.09131894601685055,-0.06652727788873439,-0.6770605543799607,-0.011792739483505763,-0.014531614575875632,-0.26948718102629876,2011-09-26 13:11:26.377090803,10.970462422
49.01507919076395,8.441782764107442,116.13212566153962,0.061245417611067,0.009019241231091806,1.1107091740071449,15.616080795445004,7.403470699211555,24.951640078425733,0.030328558772218187,0.06696619258922507,-2.6046139529027412,12.328707214370906,8.806600805733694,-1.3384832573357324,1.2979163191070213,16.666341715120495,-0.7226377467146903,0.08399967074295037,0.0850258905181987,0.018804522911396518,-0.03500994620215281,-0.29684670884574565,2011-09-26 13:11:26.487355275,11.080726894
49.015403289891374,8.437939992014272,111.84590219699137,0.05650120649954481,0.02345894562936681,1.717433199733406,9.50910534906029,-13.829684038106553,27.591162258681237,0.05768913139961686,-0.6003349527771211,-1.960171812776516,3.2696225551181346,8.236728709517624,1.3455788864788671,-0.6381198803063142,8.807491603601937,-0.0019830757464254977,0.04901566870692448,-0.1027271193017443,0.054667890638748905,0.05896167695847339,0.38736653487458755,2011-09-26 13:11:26.587135616,11.180507235
49.026498461751245,8.441495552203367,114.04388865902858,0.052860178912152805,0.0272472203159502,1.406789083363505,10.621909090292018,-14.93105913656471,13.696524477472922,-0.13217780218080044,0.08847440195841522,5.115079300734574,-1.2542695349592392,9.274170896543918,0.5240304486145535,3.538943987215969,9.68600731260819,-0.04475691445329887,0.026073636095245593,-0.19975712173739618,0.07756393804041653,-0.08676137111565217,-0.013659358062571668,2011-09-26 13:11:26.687369188,11.280740807
49.01398105281923,8.441435285462799,113.3738334203745,-0.01833869887524038,-0.0023043635308412497,0.08958731048966584,12.015076561912899,38.408834250194616,61.59887019383521,0.631710521599666,-0.03780091156081187,-0.7132424432829022,29.38720904526891,13.460821042571196,0.6102316803364864,-2.5094078869535017,5.507710297501674,-0.39551157509646784,-0.04918083097240263,-0.21059333113133952,-0.1813498801795915,0.010862551293290921,0.09497428352154952,2011-09-26 13:11:26.797142748,11.390514367
49.007361915394355,8.435901779864487,114.9003734922082,0.0773690283734305,0.0022576263582977096,-0.455717538999742,15.143583799955675,13.3981482628018,14.323759711186863,0.011800672613681241,0.13060468644645012,-11.842149444027124,2.616390744638723,9.26803626416417,1.64953701845314,1.46544534450222,9.91673376083561,0.057269052962292816,-0.05283636314146269,-0.07202524091412876,-0.04723725340994503,-0.06305361296641276,-0.9346902515257551,2011-09-26 13:11:26.897137128,11.490508747
49.01564032311075,8.435195809052212,115.51373503168388,0.08753627397565014,-0.004560483258326899,2.9641400471399257,6.150260192033488,6.870696021039949,29.91584055282948,-0.05855901959806701,0.019808475749395968,-0.3545379426691834,-28.694422230009323,9.47770948141969,-0.08370113919381689,1.8945900335599135,7.88848965871394,-0.007242166815547694,-0.8014080495269146,-2.927051391659196,0.6119882144237462,-0.015819506283680725,0.6270192758212509,2011-09-26 13:11:26.997132054,11.590503673
49.02149003116653,8.428779771172803,115.0531574907928,0.019540565052727697,0.025462864282653014,1.1442210771289432,10.997959098655842,13.916410362935734,11.562041281126476,-0.2614596002616648,0.048121027586479674,13.59653260121607,-1.9060144031496293,9.863078787895827,-0.4279630030983049,3.8862833353916058,9.002562495026414,0.03164006091309782,0.0008413174079246397,-1.411961523387833,-0.01692628257628678,-0.059639725056851355,0.24924367172376743,2011-09-26 13:11:27.107124759,11.700496378
49.017186287703055,8.439919876888089,114.64998723692308,0.06031382164929895,0.009480639937578278,0.09833519578872485,-38.31486946803796,-7.123245376617929,26.648645176738786,-0.03121040661135909,-0.07850285127965184,-2.8677101013359145,-3.273967654869164,9.29959340986601,1.318950846899147,-0.33337048726720264,10.490227713104366,0.027898437355528164,0.08966828455108103,4.365982972868938,-0.1070838294712165,-0.10812990365573337,0.6581367035721695,2011-09-26 13:11:27.207302926,11.800674545
49.02524466911357,8.437995306059868,115.42205664919967,0.06839443341922892,-0.00863778900385227,-0.06386420482549382,11.38110996895163,21.829886637449484,47.989890193101864,-0.11321984850774088,-0.002395004203665615,-0.7567894934992514,3.3742503472030485,10.98042632438217,0.7898548514914705,-1.1698167496503826,7.396777210689689,0.0095273811938222,-0.0038324985350665433,-0.24532392238840162,0.005852575339817596,-0.5639099432307,-1.0367845717430564,2011-09-26 13:11:27.307160168,11.900531787
49.01468233565369,8.43740081720077,116.25370630477032,-0.02143460975186061,-0.10278366765124661,-0.48573158212968637,6.006130734385533,25.68536017866507,-6.93776754153097,0.1715621676149577,0.10273917019210012,-1.6045378311380514,-1.8854641999388737,11.043160570123577,0.47769690567956175,3.69757426082943,12.56015592242014,-0.036168204151699114,0.07406156644178698,-0.5421591409940599,0.006363972962577317,-0.01596242835474149,-0.5004255380210295,2011-09-26 13:11:27.417143562,12.010515181
49.011784101546475,8.434163656778551,115.1142204976208,0.03377447228907715,-0.0019546527426654494,0.053079711386621486,9.729627264927442,6.701654547021281,10.812126247515506,0.21780974429765562,0.23343750750987766,1.548296721436519,5.081882784600057,12.085344394266754,-1.137241088508762,0.28448548835992976,16.749474376656966,0.0019242769830335078,0.06170561686695333,-1.6800777919444652,0.008609442482464081,0.007362022452226456,1.432152952698229,2011-09-26 13:11:27.517163169,12.110534788
49.01746491233581,8.428376120191018,116.41860729207399,0.024789863218709275,-0.009106464984238491,0.7784661260554278,2.312480623974862,24.596165881279656,-6.422091567001836,0.16081973814695572,0.21928143200466835,-1.0254899639356807,-4.606285009960281,11.119023352608206,0.6087673978600258,-0.7249627117116637,9.641216473079153,-0.015227682416741871,0.1664556263273754,1.144420514482199,0.009062142239708852,-0.0068582250549301775,1.198748797848505,2011-09-26 13:11:27.617209959,12.210581578
49.01439526777382,8.436883156062532,114.97553982611302,-0.0136370083369644,-0.00334979239875342,0.04941039352704302,-7.388377473324863,-2.413802209133541,16.803975179790196,0.00832133541851118,-0.014231236869024083,0.049956622118391414,-7.071125995851893,3.139528441826039,-11.459558561999092,-24.113087451029035,8.976436290157354,0.08448423284214746,0.48109354704852947,-0.20338263020475691,-0.00531701785921416,0.043944416431042486,-0.06530224161486356,2011-09-26 13:11:27.727289588,12.320661207
49.01828294925727,8.437866006513227,114.54208347983045,0.03213129439983784,0.0035148229853669286,1.7154066659429659,4.853184641779633,2.661644846637941,16.999113321688853,0.19853377614080997,0.3665655373242833,2.300156020856891,0.49750103122997713,11.075187429576316,-1.689700505885165,7.940532396948513,5.475930791547943,-0.05500890065525927,-0.05416397720176435,-0.06952718952810252,-0.06909650619188734,-0.04888990266504642,0.15648919947312653,2011-09-26 13:11:27.827166684,12.420538303
