lat,lon,alt,roll,pitch,yaw,vn,ve,vf,vl,vu,ax,ay,az,af,al,au,wx,wy,wz,wf,wl,wu,timestamp,rel_time
49.017293784436646,8.434297567914145,114.37035433095892,-0.04756054098186545,0.028396747240420434,1.8232023059825286,14.681380499559864,-9.603387325257598,10.420988725855398,-0.2985638207766205,-0.16020127788782063,-0.7773186104563026,2.325457036499826,9.09270138298284,-3.4772918907632673,-4.263523065577482,11.396105380919195,-0.0567119680365844,0.03631403414487691,-0.4896132471220921,-0.04289909581151517,-0.006629840022107534,0.6361374789112292,2011-09-26 13:11:15.406628381,0.000000000
49.01672026524229,8.440127106074645,116.00951835897976,-0.012472549022449337,0.019437965222270624,4.1677560568647705,8.373232437016869,-0.43971017008520485,23.752212135181967,0.23523912787613188,0.13682324430178278,-6.116391892939024,1.9673029873621657,11.217965282195689,-11.432963811719114,-2.0121267819958684,8.351925962153546,-0.0492444849794003,0.09020874268576955,0.25281724714584086,0.02036921379117421,-0.10928844661045953,0.24853397301452734,2011-09-26 13:11:15.506624025,0.099995644
49.01672365600423,8.466149049927326,114.97264451715894,0.056463198405053636,0.01739790734131961,0.2615018557135049,7.4576299434653475,-58.2180468297924,7.64180154557239,0.24181082136558676,-0.3423234377036594,-5.034557597536531,-3.8995887346934053,10.975612356629448,-0.6435753470210428,-21.140997095090807,11.236544606645957,0.03467720063969631,0.09104181264514018,-0.19144262206825613,-0.005999658202738336,0.8965653305812911,-0.14050312617207433,2011-09-26 13:11:15.616597602,0.209969221
49.01267963949005,8.438699790312693,120.47029419854422,0.007375452129043451,0.02124867130038222,2.4368738319488177,-2.8678844936556143,1.8938683091001152,-2.0017601969249332,0.10532186458271438,-0.13641195940489295,-1.7757696524336823,1.7465420081956078,8.749217211616212,-1.3260158899727563,-3.6976183120827053,9.415705706276086,0.027110422557842625,0.0809366483146065,-3.4528114569309687,0.0813535166658276,0.012199862004166383,-0.543160206794355,2011-09-26 13:11:15.716822294,0.310193913
49.018466746049384,8.440741252187607,116.6033375708824,0.04989606710548574,0.031445821312195615,2.1466570186160485,0.6134720151637874,-19.898763316354128,2.7730796892944856,-0.17588183079587577,-0.10431526037367503,-4.103039310062115,4.323401622573826,10.585835569561526,5.072424850685745,11.8484828170776,10.34429171325596,0.07048280200620186,0.06215985325363432,0.1942116739863597,-0.2892353633087508,-0.03972860146815528,-0.1132017863885456,2011-09-26 13:11:15.816616174,0.409987793
49.008409917452056,8.455884143407513,115.20313677276225,0.07789324777387231,-0.04961347969161721,1.7986542381347932,42.5799419445067,0.9137716873553039,9.018729019133202,-0.19258192854330142,0.12696039460969247,1.0964404192403099,-0.20446100702292974,8.76954296137612,-2.8981244038251344,-3.522859580584131,8.377719938357188,-0.09761383804790108,0.021034779740201768,-0.242278305741638,-0.2730232125083832,0.07212768240580204,-0.3105507326645219,2011-09-26 13:11:15.926630554,0.520002173
49.01621197982736,8.43725592699419,115.89977468243507,0.02635133725081469,0.022324533042540742,2.6813352128320886,-1.5668707163752291,52.42513716942622,16.9829491841163,-0.037767206127996486,0.0891572308198415,-1.4177797612888725,-1.4484571777518171,8.926366009782486,-1.6798377357659362,-3.1080302278688015,10.131991280649665,-0.02682080408956017,0.09723100939867337,-4.537513942092716,-0.009444782980536196,-0.009064916197181309,-0.00788270789977194,2011-09-26 13:11:16.026623060,0.619994679
48.996305561469896,8.435081250310983,115.37597189785569,0.06522621193055277,0.043804857337531714,2.198363155432062,4.1839677665772115,-5.62200271483396,11.903631581357605,-0.27175129839226225,0.050409809861563265,-5.527836130530488,-1.5857970985725096,10.949974896859729,-2.91625858445585,-1.2839192443705936,8.029826661507434,0.014264829091748806,0.044542952364696374,0.21347393718482952,0.007263432851532515,-0.06444099334240341,0.24167903317830866,2011-09-26 13:11:16.126668323,0.720039942
49.01849798171275,8.441499497162779,116.86580435833949,0.01640603256341117,0.01860782001212545,2.2793399403667123,7.335973273415734,3.0189410709743956,19.835389072436367,0.20301718056968127,0.10112610936713948,-3.1104294583761476,-2.2631108008077,12.461056123860203,-0.315368011965363,-3.3155546746490647,8.141050125434923,0.060186710743401275,-0.05071355786037057,-2.186578631559019,-0.1099005906974051,-0.060454376362265805,-1.8971874249927188,2011-09-26 13:11:16.236722946,0.830094565
49.01666215708411,8.43712920985745,116.23428925957354,0.007387779142867141,0.04042741632635967,3.2116100348753145,1.434977810458233,-11.02644171198097,-7.367245624999476,-0.058059809246326054,0.08931266272241145,7.363197187390072,-2.600799151313712,9.708673852150346,3.0126372169003606,-2.156197237030005,9.380756097741067,-0.006705477581958097,-0.07039386345406225,1.908377833517663,0.02149257296939383,-0.30209352785574045,-0.14198259711715372,2011-09-26 13:11:16.336628571,0.930000190
49.01383755577049,8.438079609456034,119.04511555270767,0.16535490885633192,0.03422290833402422,11.372084822046332,1.3532159451663883,-6.385074638147658,-2.7548685971556814,-0.3428028080783209,-0.022678961134491693,-1.6001205890045438,-7.102003220044996,9.915462143193253,-1.0234891399692492,7.902885197817556,10.874841035556265,0.04332477106216554,-0.0011572740116532962,-0.5685603479764899,-0.23299498368402063,-0.09548597228742248,-0.5245094071086265,2011-09-26 13:11:16.436667179,1.030038798
49.016110202308916,8.430652057061884,115.54543334406758,-0.0028101145577924813,0.011501444655100675,2.4944960163397125,0.30379485862963396,-12.415873469555752,0.16341634516911263,-0.16801908839055646,-0.18535151784631912,-1.9668896315046454,-1.4219005104997173,9.693817386767318,-0.8473875700479271,1.942443881480429,10.887425091144921,-0.08008410964823859,-0.011078030044278956,-4.65917449383781,-0.014164356307109579,0.00027172828863129654,-0.3310010861554006,2011-09-26 13:11:16.546650957,1.140022576
49.01311823663732,8.440617848683212,115.96747423886757,-0.05022810822031609,0.008779285871090595,1.6484174799629119,-3.9685671907589892,7.575519935534083,-3.612352754110378,-0.23804137431356898,-1.4221387780482235,-2.200481484818969,-1.0721719356478139,9.894290731262407,1.706511160687037,-2.5817232186585057,11.084803766699416,-0.06710702001473284,-0.1277719639232462,0.1305606326848242,-0.039411878156002535,-0.008293738838633186,-0.5903418894551518,2011-09-26 13:11:16.646687706,1.240059325
49.00262220188694,8.432458005590847,117.19544423785476,0.05251685879980126,-0.002283390554281107,1.5553239162181116,30.367024267508864,-13.152122828779193,10.156662565832136,-0.06505016003964871,-0.18183977663573292,-6.802366899288309,20.61728405664261,9.966672423045141,-6.974938022833199,-1.188928420991477,10.31400430649616,0.0515060169540674,0.045882837740829574,-0.29262930992658615,0.036409174077198195,-0.059146914817384974,-0.13261797026702393,2011-09-26 13:11:16.756693122,1.350064741
49.01546147238407,8.455840105080858,115.20424290480629,0.06404652579138355,-0.017760305592130772,1.1495015035710558,9.627989254253045,-5.377783437237315,6.469142701429467,-0.15411764554803903,-0.1313270773371822,2.240193671683082,2.2590992037807465,10.046892855573592,-4.064979442717883,0.1934108316594645,10.748982409857959,0.012510800791544367,-0.21491278478590148,-0.7740514486215557,0.046122559505620706,-0.13745486436543713,0.33691264084303796,2011-09-26 13:11:16.856679739,1.450051358
49.00195127948898,8.441666165666701,115.26300882034704,0.014715208011360323,-0.05475585117526781,1.6740611419746725,2.2982167316785382,5.1303975841442835,7.8859651537319895,-0.2512146773595605,-0.01943134260251816,-10.790900407425827,1.9385680124441875,21.171558960583255,0.8536752368956841,-1.9138896716152214,8.936585018544934,-0.026749449827357337,-0.10247426000898363,-0.16737618465202006,0.051689860914402946,0.08388597476624597,-1.238203948966393,2011-09-26 13:11:16.956699894,1.550071513
49.01158147854697,8.439508102418761,121.15594683594564,0.045763367748364175,0.0331688707013355,1.8170180224820989,-0.17753523855713116,7.951244599391547,-18.074833287189428,-0.02293659538736996,-0.13355174047353435,0.0010759964435009817,-14.180878829225513,9.566337874907868,-16.480929128295067,-1.0363020267441296,10.433726505501363,-0.08737002063990569,0.025933604848786193,-0.27045423392198953,0.006752797501834355,-0.04940951285735243,0.2395455057723423,2011-09-26 13:11:17.066719394,1.660091013
49.01565222056151,8.43203726337285,115.87688893499606,8.374277903364612e-06,-0.010174457958878131,1.3516120315767555,14.37363081232649,-13.311961629053167,6.935342381986353,-0.10340777197790951,0.30964817418636653,1.3328480085000327,-2.794566413452553,11.779894508177428,-0.8246855053958501,1.705035282832648,9.471889649147814,0.01988998156187361,-0.13681756700434292,-0.43883429152710496,0.009019459496376864,0.050484678531106816,-1.150103918349172,2011-09-26 13:11:17.166680706,1.760052325
49.01409831612421,8.436799009350988,115.16681228692038,0.01206663459085468,-0.11277835265875091,2.1906284611645566,14.617689426204095,-10.85029376564122,-38.17348598188127,-0.38946976833697583,0.18036600554946286,-0.08984743088200908,4.826200299673619,9.752168054863088,0.29356956681333574,0.7975330250997796,7.993661665885609,0.021448071896615843,-0.16183460487108275,-0.6545953997859209,0.010705516368947688,-0.08292194125988851,-0.41760563779062215,2011-09-26 13:11:17.266701079,1.860072698
49.01485294204879,8.433687936038288,114.78314398837347,0.01754414434130238,-0.022585936333665367,2.826993116653023,3.005064759466287,-7.085498147675223,9.326763471231779,-0.13155762376766528,-0.03250389899621139,-4.1634708716605955,-3.4811247168945276,10.892712582431233,0.8785470862736684,-0.5449837829892792,11.445927431720325,0.22643031379365772,-0.05780458563325161,-0.34564218278305914,0.08174242217732987,-0.3112128735263325,-0.6253918608630191,2011-09-26 13:11:17.376674167,1.970045786
49.01704476760389,8.44150187522478,115.46325346824689,-0.14415135187012437,0.13819454842892623,-0.2149288478725888,14.052511550231854,21.346437065062087,4.1905317779961475,0.05025501601831525,0.10193858821440603,0.35266414928645623,-2.1418131157393834,11.643292636727699,0.08574653032766694,2.2627153273467564,9.008952297987266,0.11124662714163756,0.013026538963946784,-0.639485812844052,0.02095974442624661,-0.06568174251918364,-0.258731679467192,2011-09-26 13:11:17.476652265,2.070023884
49.015122058431594,8.437884533875422,121.76739024254012,0.2604170958171963,0.004351134906584444,3.3501203163138547,10.534313001480484,-19.053360603890532,9.437940288314085,0.02581303459750664,0.31157532560728285,1.1391491127961997,1.621521729398495,10.447523520508572,0.9984470244829825,-3.8676607318220317,9.296220271988057,-0.10969458720173776,-0.00721504617237285,-0.25580916694508604,0.3300580191782776,-0.030076844214313506,-0.15242635152033363,2011-09-26 13:11:17.586709621,2.180081240
49.02354480379188,8.44358446308475,115.73444852954839,0.07173156240973824,0.021239080610446284,1.632676001941886,13.85117414353721,-24.99302595173382,1.2028797641353242,-0.15005792381872282,-0.01713516113257857,2.448569537079796,-0.4581433984276426,8.110268562080723,-0.7772248702144318,0.7367306962486733,19.894698650992833,0.09227060679242804,-0.021815542481164647,0.051752857204278246,-0.21842315171884272,0.08619931171907244,-0.7694552367356426,2011-09-26 13:11:17.686822197,2.280193816
49.02605863715966,8.435695237719269,116.64062797114461,-0.004257616015885646,-0.024495901106338352,2.4972593099152762,1.4977755501773506,13.483743389182886,-7.468661087886576,0.12385584387219678,0.16261238143473195,-0.5808366558802166,-2.342950147736884,9.64159575036034,-1.5022139439521554,-5.263444221294209,10.775965876585248,0.016034212746947545,0.00014525669519842993,-0.5278990046098613,-0.11970791590647531,0.16288809868009616,-1.1965747839543246,2011-09-26 13:11:17.796722103,2.390093722
49.01649185754276,8.438830496239907,112.22311779596839,-0.05250482979402628,-0.025734351402018324,0.37927234119131015,2.624778427270741,-130.69997803637426,15.72784188523978,-0.35830684792839473,-0.054418282431081134,-0.8609062004581901,-7.133895038439782,8.811655250080896,-3.3774040643333745,-6.901298652851889,9.435203221841554,-0.10049954803870052,0.11778180426861976,0.08426351485982941,0.14467602989529277,-0.027766212387782638,-0.8774130661273304,2011-09-26 13:11:17.896691258,2.490062877
49.01938297795354,8.436223298034175,114.93398347776149,-0.021480756682266802,0.012527461448624965,2.0647783633955528,12.91493955297361,8.086033786232777,22.304859696534315,-0.015371226425921786,0.1572036448643619,1.9125986260551318,-8.624946337343196,10.002112532824459,0.6618953880151849,0.8446954807594889,11.941132211986716,-0.10338744940754925,-0.0391043226295135,-0.7346380756287234,-0.1703254606527113,-0.03874785612763723,-1.1180555570454944,2011-09-26 13:11:17.996732175,2.590103794
49.0124460516956,8.437916917599406,115.94048959449441,-0.005999652083477512,-0.011368455692022722,2.444174516373245,-4.335575072215932,-24.85314916009252,-36.1256940401555,-0.24974795185435272,-0.032550283608020814,1.8854363282288342,-3.260611925672298,8.957451297128433,1.1903442160638562,-3.228741308332335,15.995471771023139,0.13816112077791667,0.14287051644768461,-0.5176248917739588,0.02905878143527667,0.0035733757476148487,-0.6552030858443851,2011-09-26 13:11:18.096735198,2.690106817
49.01791811452987,8.436020834509748,115.57537465325707,-0.010082481012980964,0.01010565047598814,0.7384571547017675,5.932913073286256,10.059228090507236,-2.2800201250907595,0.4336689212922954,0.29528020690461976,3.6507216215127687,1.9731868214780888,6.607911908493169,1.5886183856748077,-5.565458444564569,9.832789725854594,0.01661043616777968,0.016649816763435396,-2.3938560014174226,-0.014355617889892536,0.12295427790114076,-0.6968794554075882,2011-09-26 13:11:18.206914919,2.800286538
49.01819815514162,8.424046587365014,108.91087767482246,-0.02066049755979419,0.013305460712310133,1.548333642720244,10.238841977076202,2.432838923523907,-17.442436689873613,-1.6060664667383278,0.1658207055939112,2.4737740328514985,-8.21780544191095,9.280198508023553,1.851750818183343,-1.455318208475435,16.368356474078254,-0.05820443453540756,0.00038393824974782,-5.223474749880819,0.008646537660426638,-0.010746998460582594,-0.9495286212827727,2011-09-26 13:11:18.306756521,2.900128140
49.013751701156274,8.440715668083495,115.5396449006628,-0.16270161328868346,0.01137866952250149,1.612821109133748,23.034500890042324,-15.706425739918993,-9.050522870768585,-0.04717577380026014,-0.03551916481676052,1.5865642576000605,-3.073898505895235,15.730447745474859,-0.14085273356878858,-1.6714674624460153,9.130154833041102,-0.06553580834964735,0.04609943875098132,-0.4773193953513572,0.08182937185363287,-0.00858002717576582,-0.6444261162179182,2011-09-26 13:11:18.416720613,3.010092232
49.01601335087052,8.44637338462969,116.43456057963846,-0.01813128913743796,0.0032069838602330515,2.1749576371260706,-26.38542085171006,30.19779398962999,10.211251858759177,-0.1441513351056315,0.026518302339242114,0.5193017778076037,-5.713206868775611,9.069516862264974,1.5626532577292092,-3.4284238968572582,9.691125846576535,-0.01631671008080655,-0.3018094165628768,-0.33080996747887237,-0.03344246668687953,-0.04447869624846985,0.0032412463205445663,2011-09-26 13:11:18.516713679,3.110085298
49.01178938353742,8.436940314130599,115.66151182897556,-0.22728448892947808,0.023013774377948628,1.5025566355950335,2.611909954252139,-2.9190759447227683,15.702364631142695,-0.2077594234780214,-0.1075930154889323,-1.9251311091168863,-5.4954954810408605,9.835634806603654,-1.2515512878442063,2.14694664995771,8.706164326976815,-0.04055539778480627,0.13340245147691512,-0.36132864964544276,0.03476608613890926,0.0033244198781985576,-0.1868738049464786,2011-09-26 13:11:18.616715676,3.210087295
49.027309919577455,8.43676886598822,115.76971970422457,0.02462897415463875,-0.017045624917779056,0.127204203258664,10.881844723442164,7.161284955723931,1.8480086345594593,-0.11004679725675212,-0.04495921542569539,2.2493558228356156,-1.970199597442841,9.559264920184738,0.7341754123641513,-4.456620337969984,11.156794913992659,0.040844417583430874,0.003391702702658857,-0.29636393781496806,0.0680083732021475,-0.026757629155260323,-1.2150118946080846,2011-09-26 13:11:18.716856373,3.310227992
49.015861218720694,8.431334571985383,115.6236719472029,0.018227725346378957,-0.012091918864511452,-0.7560019470647327,38.240993808660434,1.9515252500099471,-5.002848981721183,0.039920727349485985,0.0037206297558442097,-0.7127181218520493,-2.6668960065867884,9.012068498404885,1.209201816437834,-5.012491853326885,9.257906540188438,0.10861064204523917,0.21136121376342654,-0.7805694798221103,0.018092452972534548,0.011891645395219858,-0.27682991778590477,2011-09-26 13:11:18.826721793,3.420093412
49.01618354309724,8.43550265174914,115.77969917242689,0.00531192141413326,-0.04132141123498409,-0.5363292323546351,12.386804662659284,-0.6516655884682798,-9.735221813147408,-0.38500835965283575,0.17875496628798485,-9.738055516948576,-1.3453422941967403,22.71968709253274,0.2396488560538489,-3.6642365459673254,9.529875184931493,0.00982072093238256,-0.0021290360406049855,-0.5200495677869031,0.11779748146021898,-0.03683262276156897,-3.6533328014046553,2011-09-26 13:11:18.926749305,3.520120924
49.017153690600836,8.43202657125172,115.67748513698254,0.0209748051938907,0.026175908044211965,-3.340256240884611,10.907706938391096,-9.960763175031694,5.604915463692358,-0.4450589209673423,0.3220522381149921,-8.502177430559275,-2.059009927796812,7.449836799526993,-0.6339016393629276,-5.9143496107619296,9.833669892567157,0.009026191810639057,-0.05359243740912039,-0.7770930410744903,0.26577336786226097,0.030878807837525692,-0.050996128920040074,2011-09-26 13:11:19.036734727,3.630106346
49.01339600469903,8.434277799898528,115.34412945499555,0.040632947363081214,0.009645995619751933,-0.34596138898574347,9.113901423240351,9.341310306254861,93.72702683480368,-0.8618654334813978,0.10740752791611116,19.22927118071896,-1.2880671870911977,10.41466409145383,1.719841415945376,-5.415100642968512,17.539221315688394,-0.10329763319769569,-0.0768849769314589,-0.3273660918768302,0.066070942498438,0.22461063252854932,-2.3956205695871886,2011-09-26 13:11:19.136771527,3.730143146
49.016592867880995,8.43963828629465,115.72189262114141,0.05486020830727159,-0.20020273522090812,1.6565345047775843,-1.526401077356443,-4.59705145257687,-2.7358277148127765,0.0817255975617202,0.3506875737911866,1.3983952710503647,-4.369759666435139,10.507976824034236,-10.703037082619321,-3.95983753799084,11.931833913145443,0.01866269078527526,0.03355103749107753,-0.45669061406794986,0.017859266324740795,0.025832878587785553,0.021856843156877415,2011-09-26 13:11:19.236901143,3.830272762
49.01544764803807,8.43496644836379,116.64911252636138,0.042578541396093544,0.0013783371675633734,1.5994402623668087,4.674742434291931,1.8870089431704011,3.414654945710658,-0.14292336097574274,-0.5846781068074409,2.9088801971294473,-2.2240241717127947,9.31706863179288,2.532964528655354,-3.417732301710222,8.766867505533003,0.03655193046417689,0.09137705266792344,-1.921587256965362,0.04108794791534108,0.003380210663726787,-0.14598460942917882,2011-09-26 13:11:19.346778579,3.940150198
49.01525757369126,8.44147434078498,116.06528860570904,0.08019810493516057,-0.008022892330983366,1.3052894441289895,5.555011521581852,8.20936388631253,9.994131977502462,0.006381483609886843,-0.11013400177213917,-0.0822481709822338,0.7710113052680327,10.271172847306648,0.3421559944101019,-2.802730705951076,11.247535835083374,0.02928064339998661,-0.04009362118699925,-0.3220742623430337,0.06187508241506855,-0.008714483918830195,-0.0428885931118021,2011-09-26 13:11:19.446799303,4.040170922
49.01522470579382,8.441114094854207,117.12954787930919,0.010236950179295528,-0.02654333516532879,3.4725162551983946,14.451720621960435,-1.8696045036615443,61.628013125547824,-0.5776200755449569,-0.20854252649474267,-0.3526520774690405,-0.9965786276504275,12.485893962966893,1.7387462725200382,0.46344959572587885,8.991552783280072,0.13643282117718558,0.08279377301958162,-0.954044220148372,-0.02079092800940793,-0.007078185723100007,-0.3184481839274523,2011-09-26 13:11:19.546777509,4.140149128
49.015156171705925,8.442987849982117,116.5153341093376,0.07395201167895318,0.02559731461053539,1.7661646581496773,7.157443401233117,-10.38858153482584,-10.80001111215341,-0.17266133137042375,0.07045549920107869,-1.2950673472567673,-20.514616800319857,10.320903815636138,0.31319594912402815,-1.1639267401309583,10.34383296569734,0.02373616736024652,0.0032706910043595475,-0.500444019885938,-0.03402025131989658,-0.08597881761510735,-0.18201918781751736,2011-09-26 13:11:19.656780167,4.250151786
49.01648049648954,8.432960944030423,115.87069515505326,0.017153861428872343,0.0072580613817574665,6.95818285112391,-0.17769054306110732,26.356815890784464,19.746923408146987,-0.2163922054414794,0.10465068804765441,2.6476193226302076,-4.308204832436097,10.556890228591035,14.605952509354589,1.403394267715606,10.742977316177422,0.014441648145781867,-0.008495783493269536,-0.10317287230555357,-0.07412888221517105,0.06289800381101852,0.5925384896464635,2011-09-26 13:11:19.756813482,4.350185101
49.015700261538875,8.433672718252069,115.20561194047878,0.05335348912876284,-0.000698887869976251,1.5690399992941133,1.122765550747682,12.443805106639164,5.0305537554753545,-0.06844665462530047,0.04923774847800775,0.9804353897622852,12.393761796920028,9.187308166830048,-4.808498267955779,-2.0229602202669166,10.70332447434291,0.07485996543297267,-0.02059624394822128,-0.1875618771037333,-0.03878048680641098,-0.06944061257946953,0.11281909285568842,2011-09-26 13:11:19.856788448,4.450160067
49.014411810399125,8.437798243010969,111.61753577191183,0.04240641153432542,0.10414087765618182,-1.0834063753531507,3.3220075133802442,4.653328463082714,-3.8132458994383995,0.16442759541066468,-0.3892382795241093,4.08227231920092,3.1208225464015706,10.84510987555704,2.96951612522274,-1.0220874902425274,9.355058640231608,0.06658734068674396,0.11602123499350295,-2.549158734333751,-0.013418516382384785,-0.03320054487866953,-0.1356399674049531,2011-09-26 13:11:19.976774831,4.570146450
49.01656971031892,8.434398432371324,117.43769303562532,-0.14600651294790934,0.01528067028616112,0.9941582487459846,-19.281924485186657,-4.532825285153094,0.6515806764477219,0.16389547354498363,-1.5165138302732495,-8.875401110729923,1.988009050747529,10.946878309605763,4.052606709581751,1.653224667632778,10.477631545120902,0.42915823044949175,0.3063285046717209,-0.4261346244354476,-0.006422219471885007,-0.008585061214294634,-0.026652639432497717,2011-09-26 13:11:20.066809304,4.660180923
49.006468911182836,8.44453053727266,116.63406325077686,0.0721669438849816,-0.016227971104821725,-0.9896427389068704,49.10554746293467,3.9941255147419077,-67.69116960111855,-0.06427140551985656,-1.638470462959062,0.2475720168313471,-4.502898001079488,8.041250361521648,-3.5334410561443104,0.9314913283217088,10.811322205237202,0.11123502407325439,0.13477830556929957,-0.18533992649949663,-0.03144702398866298,-0.04210078251605513,0.20008342269805982,2011-09-26 13:11:20.166817915,4.760189534
49.01729535329525,8.434376102603773,118.76953085103118,0.04712692296674881,-0.02726275003610874,0.3765230563358831,34.51619295666335,17.144197147975525,4.433158344585573,-0.1931232222102127,-0.3581607056659559,-1.0521524922733947,1.2496555314489353,8.583519283848473,-0.6687332337882892,-0.38815367666456585,9.287048692436645,-0.022084021901197126,0.028309093879812026,-0.23416742881561842,0.14747578063651445,-0.031437810222424006,0.9682841779343888,2011-09-26 13:11:20.266851974,4.860223593
49.01507742716831,8.438677704471818,116.79271690778444,0.08542381597575419,0.0018205533978836945,1.6059402080620804,11.052000755535829,9.910824524880505,-6.719098752420608,-0.061620736133472125,0.46769437759702204,2.4863512659783957,-3.020582251647051,8.985060821716376,5.52040588655848,0.8805917587333477,11.797714182828265,-0.014561737635184417,0.04554165657677258,0.36196236481716443,-0.04486924797683096,-0.09608775369205622,-0.473541508869174,2011-09-26 13:11:20.376877673,4.970249292
49.008830102939186,8.43820476515317,118.63029000312072,-0.006960296796446795,0.012020151103256035,0.6450832972304674,17.94195698236461,22.34691517939159,78.77936352244964,0.235955242681921,0.31630724747553995,6.285837118932606,1.8577589993364283,9.681662021223767,0.7109530283210225,2.882470680215541,10.608197756391032,-0.014756100027343195,0.04261119069352309,-0.023180117893405495,0.020795210720064915,0.02188542997111894,0.08596218270942166,2011-09-26 13:11:20.476832011,5.070203630
49.01805016330635,8.436581169036844,115.78349709085141,-0.001493361922804224,0.018904365497764326,-1.9388417017708093,2.322979725838758,-41.68723179425974,19.81845710067261,-0.0101352765782365,0.21446655860367506,3.5192569996880563,1.0639524537394007,8.380826282348803,11.12116936807439,1.7572368488475536,12.068256886913407,-0.2777889071314349,0.09637437937207327,0.389978930242727,-0.08414078418778216,0.20120598575052434,-0.250619170071052,2011-09-26 13:11:20.576903505,5.170275124
49.01514863857014,8.444179043810315,115.0247534166847,-0.012499434659130781,-0.034353511034239545,0.5159056800179005,7.446159507891098,-53.95860769166413,27.158843100216682,0.055699948528944845,0.0004886981820510991,2.447223044286239,-0.13111993772359426,10.888594655853641,2.6155563831464086,2.538990349109887,10.483417993739598,-0.012941533950919366,0.03211414590297433,0.6947013164752557,-0.2612702209965638,-0.18187145509523475,-0.18255409846643378,2011-09-26 13:11:20.686936057,5.280307676
49.01799415069773,8.433395994370375,115.86619737563518,0.08705665711993833,-0.022795183944124966,-0.31962723958559247,0.5981240640977799,-7.466484332336558,-2.489292943758164,0.8760146651876007,-0.5141303684274926,-5.069863584238358,0.9910208709331529,10.404414578380965,0.22832486745457659,-1.0449552267467437,9.499106410967565,0.056136193465202516,-0.051081162104511406,-2.8777404410360305,0.0417058122334709,0.0558316422849071,-0.08806869922237365,2011-09-26 13:11:20.786911163,5.380282782
49.01499767375596,8.4387349269566,116.34938117107806,0.04445232837696963,0.0007827432120430585,-0.4291000377496804,4.7039278616864015,3.93969201805947,11.112346616842046,1.352609633170238,0.18170813309809009,-3.0198229060964206,1.80231513500497,1.6271199172491109,1.2971796330388368,0.13164490263324607,13.618110425624959,0.0813880861560401,0.09859657441775806,-0.1311722831414,-0.010305109778598092,-0.045956525910530274,0.05086384866488228,2011-09-26 13:11:20.886885946,5.480257565
49.01391606704191,8.440840733653543,115.78600090744426,0.017177528567957828,0.003874487478311592,-0.4910062028567198,-27.90555487566195,23.249795065082488,32.66145205501627,0.06408919231724115,0.17575321436521754,1.3837826246548581,5.010035139523973,10.72079942457883,10.696015839606712,-4.09225551613395,10.227680328497497,0.051886225614163735,0.06873143850316557,-0.19519681854434556,0.02036926727222717,-0.06763453244990081,0.29014723672772946,2011-09-26 13:11:20.996873954,5.590245573
49.01450529175447,8.43240940736676,115.26380559277526,0.0475211013347481,-0.009777473239322734,-0.42177676181270063,7.636764582255662,-7.39466587076898,-6.60895259421552,0.048041072784555744,-0.29116199677092536,2.4263512115215042,-0.791941134172892,2.0985949003436115,-1.2809224158814825,5.8998114535452775,9.132350931126126,-0.07772185185404146,-0.06380867075564482,-0.48740849484575244,0.09566299742203639,-0.5806985649310954,0.3590752220057891,2011-09-26 13:11:21.096923900,5.690295519
49.018219269172555,8.442046389998346,115.39680731438004,0.09797161061273674,-0.017029825990324793,0.16201604494117788,5.712790704741156,16.971939454105666,4.27602197541472,-0.7763038926413305,0.005837180914237319,2.8948672009600687,0.9905902118363067,8.990516259256898,2.303801668383361,-4.063741724327312,9.035574347483989,0.029660140962485166,-0.05017260695773412,2.757800623656958,0.06348886240465819,0.007707240711492768,-0.12623784282794323,2011-09-26 13:11:21.197096641,5.790468260
49.01359439279182,8.434138529674053,115.13202382871684,0.24954623481757343,-0.016868233605006,0.40115762123290877,10.830991006112814,6.544285110168648,26.58246557247803,-0.20569353778724844,0.25960641427485437,0.7942017939651163,3.540488240790293,9.794574068622014,0.1783796411592331,-1.0541032409601256,9.643881733201596,-0.09665247510589892,0.043304224000219035,0.22874738788052731,0.02437952971331586,0.043619650113500254,-0.12963985586995655,2011-09-26 13:11:21.306873501,5.900245120
49.01812509303402,8.442485737899734,112.56870809511115,0.025437385673258994,0.010091893656698629,0.40886771184617876,6.922676059341706,20.13509781842474,16.414094802219964,0.09557333961299666,0.32693443164021474,3.624926766906332,18.99710393266451,9.393559652123555,4.8050820352535695,1.1250442718381364,8.678304802703984,-0.09916989595370751,0.6881088377736675,0.3879758508119621,-0.033774666343393045,-0.017273740793295987,0.20323309538793102,2011-09-26 13:11:21.406934840,6.000306459
49.01706508812817,8.438617548664189,112.63098508909039,0.0626854398615255,-0.015207140108221055,-0.9547880281293721,6.7267580811265635,9.624329825695794,25.545904773867058,-0.3117255936452294,0.12129820149690412,2.991182126619945,3.1258117139872765,10.232171074751308,3.9493209071736435,0.9269087961026312,11.188207831367542,-0.05919996813798545,-0.0696978596425235,-2.5010814036420697,-0.05336487219410818,0.08024115489518453,0.5551975131031215,2011-09-26 13:11:21.516878213,6.110249832
49.01404516665679,8.439503708196165,115.2940488880224,-0.010204945915356714,0.027069960081922168,0.8557640930388495,4.696416859399308,4.937685540265564,-15.04644475549401,-0.2402937287921344,0.11892717439263596,3.1352053711259966,13.041203121881882,14.385379536448593,2.139590501329743,1.3704874035446606,10.897247653161081,-0.008755490291759245,0.11186529903679576,-0.9256694104731416,-0.0506767420780249,0.504868929870768,3.873699229423192,2011-09-26 13:11:21.616881381,6.210253000
49.01524406165454,8.44310369884264,114.67621513327221,0.04797674178693327,0.011301359582323372,-0.3258691692912121,10.439456199289989,2.8547966676670615,8.095512116767964,-0.10744207009081885,-0.26883834918474836,0.48567820901644987,8.290558865683195,10.428653008167236,4.370295684413843,-2.7099238452678005,11.343209901403457,0.0003588595230771194,0.09943548927059775,-1.0696750823661112,-0.13424119214223912,0.0997741814127091,-0.19075214617324157,2011-09-26 13:11:21.717174213,6.310545832
49.01535896951598,8.436254202916974,115.90433130872115,0.06263681522426084,0.045334996057915064,-0.5013768996434406,2.291244097831164,5.641507393289972,8.788223018709465,0.01889049948185699,0.1864115829490049,2.782065153173162,3.123187559648147,9.63096639026816,-0.7836959437003201,-9.719896750381347,11.400888996736754,0.02539709572021013,0.07632455010498047,-0.8565932131342048,-0.016667427125036462,0.02907006862799264,-0.7746935298054558,2011-09-26 13:11:21.826931673,6.420303292
49.01390429717761,8.427188890545043,114.90033605711852,0.0891063334422359,-0.1876813430443305,1.0266065272967424,4.2295454706216695,4.692223227549185,54.588006144540515,-0.20349881023515826,0.242080007633912,-3.9691590001078625,19.459491172968495,8.740077295064454,-0.27303334500696486,-10.7107929089297,9.760098731314276,0.11890186496904943,0.09702561489906901,-0.8055582505298868,-0.03574151673178666,0.025215614008900905,-0.25241505647909646,2011-09-26 13:11:21.926931846,6.520303465
49.01578208179926,8.441591996108782,115.73623501317714,0.0357587821865271,-0.007835644135214273,-0.9812180022203084,16.555967310616094,100.37656319723577,14.179548289311114,0.045845663884638004,-0.01936837409404748,3.754332099041134,0.39322924960665406,10.075302911795147,-0.3735661104268473,-11.818013646922346,7.823510262941907,0.06420504392583529,0.0018144713968131572,-0.5593158999661878,-0.07951215606105133,-0.018235274230140312,0.1455477593720767,2011-09-26 13:11:22.026939148,6.620310767
49.008565676633744,8.42861024329868,115.2221957623176,0.03736153362748938,0.06553326148688453,0.04438570390490393,11.25996798432073,-1.0394211195395666,7.691537311633589,-0.11716509541564843,0.19894173594820203,0.9989511047275851,-0.9895247157933158,17.512147936465034,-1.5147629056533531,0.02375633831296614,12.014212674855674,-0.043346968400739885,-0.047991307598770835,-0.6301209357042316,0.022218597321025504,-0.048000720648052914,-0.4114171747225681,2011-09-26 13:11:22.136944955,6.730316574
49.01634540740577,8.437431238119665,115.73900601656538,0.004151749990239689,0.1752228007396488,1.2515612318529374,1.0784055771039691,15.321908934296758,7.566302390601734,-0.022143183180199935,-0.13551078116533452,-0.33634169799564445,0.9732142108011177,14.02363557884226,-0.16049845654244044,1.1167310641217607,11.653850183660865,0.029241012855959026,-0.08192077730278687,0.04088205333718994,0.05775842172415663,-0.036510579926136745,-0.20909891492720534,2011-09-26 13:11:22.237165051,6.830536670
49.017080916788785,8.435812447703109,115.85205090036047,0.047590365214403234,-0.014833112930433875,-0.6407236603891585,6.939465786182624,46.28072639357692,-46.195315062785056,0.09986763214371068,-0.5309822787335786,0.9409257098301413,0.058191205754014264,9.8170565817515,1.3522320637925778,2.7412584193244958,10.437617882769148,0.02525135327303053,-0.1142383147678526,-0.4054598190033159,-0.029554717597080827,-0.003159757096792514,-0.09536828148712852,2011-09-26 13:11:22.336929431,6.930301050
49.01466168838899,8.427967662019167,115.65216757298408,0.0189095456921241,-0.16735688089647371,0.16806220603289657,1.8340997637332563,41.86227383734967,3.094322313586593,-0.07980499921990945,0.24902844945104335,0.08209340111885588,-10.439789288704457,6.675113830997246,0.7134120571082996,-1.739020405130379,9.881292680488123,0.016143539818008062,0.02416047560495812,-0.3523590799126135,-0.014000806986270776,-0.3088347389515671,-3.903640456226328,2011-09-26 13:11:22.446958562,7.040330181
48.99709092137261,8.436515922860337,118.99602607046239,-0.04539771871549306,0.017738392911020966,1.8798447856313016,7.798229775300342,9.079448238779674,29.626230412697765,-0.0962696499730021,-0.1886554938421611,0.14778313911519603,0.545354575536925,4.384668637992294,3.5964524943577603,2.2553309162391355,9.06436624670953,0.03581167596167098,0.5439724543557878,-0.0807027179745495,0.0409554580702553,0.05877201723358416,-3.18930902847781,2011-09-26 13:11:22.546946739,7.140318358
49.01148885167507,8.43711412146185,114.99796315104918,-0.021563276398816278,-0.03192388343998716,1.938802516540369,16.87757768277305,15.643852073111685,96.864594030804,-0.18662998985430673,-0.0955362713172704,-1.2616498632206254,1.2346706412618398,7.588912478230417,1.7048695222502612,-0.12417964428620638,7.466469257364232,0.026602503156011138,0.06568256699495341,0.11353286160449279,-0.005278897286566145,0.04746457929025072,0.21154937920601252,2011-09-26 13:11:22.646968816,7.240340435
49.01602066047547,8.432981724746806,114.80606427868851,0.05671749577329659,0.20361604413805365,0.9110833946239605,5.4294190580647985,13.768082269349804,4.895947030118734,0.20404222234423877,-0.08567425797188549,4.368442324548424,2.580599585847084,12.46897781506586,-0.7823408436638444,1.8511057500977992,10.552367370475721,-0.09402208552560772,-0.07019028775790419,-0.7044116167056211,-0.3922474545166987,-0.06509428495404773,0.1856331106878332,2011-09-26 13:11:22.757019692,7.350391311
49.02117178351062,8.434722661128738,118.22024196551628,0.017600198212781,0.018337484948937364,1.935764903080052,6.269986017807149,101.33620363239112,2.2131021589342286,-0.4772646026095097,-0.04331570431453062,1.3189635915632127,-2.730240737790592,10.516961912335953,0.5473466952761475,-0.373326279103503,8.95285916182609,-0.06522791664944035,-0.02430827624006281,0.3795453517078878,0.016383697317102444,-0.1854149595007663,0.5177639245030987,2011-09-26 13:11:22.856964993,7.450336612
49.01526320236113,8.437844702710715,111.79072055134226,0.04235736178380155,-0.017097708454293942,0.21581153287739746,8.21493620559701,2.5343893250465683,24.57265852600262,0.1098762921376189,-0.17307955597441832,-2.2575393977919562,-8.100662982507954,10.593859709439812,-0.36469554052390496,-0.21041336045134862,12.238306111332053,0.051482415949314665,-0.025887361349304278,0.04486777035115941,-0.03932380969423631,-0.008866731708577564,1.261279928768027,2011-09-26 13:11:22.966984474,7.560356093
49.01071046773533,8.440238151054873,116.00093183106212,0.1038842364969681,0.01289860138314371,0.6730936341935966,5.4356813826136205,21.00307287380165,-3.054313362398757,0.11710269608227925,0.02660244635846759,2.8613165609203985,1.8158198435177337,9.358166561939747,-0.5577411993101546,14.614453424213055,15.937168256380417,-0.029331705392030255,-0.1384250707606069,-0.07354471549674217,0.0023682422663211375,0.03273011327446468,0.7144060397247264,2011-09-26 13:11:23.066992304,7.660363923
49.013369019222594,8.436702436624882,115.38676419608021,-0.001970624706411135,0.0014332641209782223,0.9336237217126206,2.0587422888759424,23.794777648514437,4.735214275336558,-0.1496040367683802,0.4967872863686008,-1.1895436245873745,-1.1580902855672108,8.024279320231223,2.285504322574168,3.808734806276738,9.995804107613228,0.054400856716269846,-0.0033758442588853813,0.5540942774765181,0.040942530263252584,0.09916446218056832,-0.09579761945077105,2011-09-26 13:11:23.166972757,7.760344376
49.02745097463544,8.439978603956892,115.96863125667751,0.032912840297593,0.00397496753751821,1.0595537238183075,5.70360744282757,1.0190049661399172,-4.91812798945848,-0.032971323083467285,-0.16154821306420195,3.1481304604024256,7.955259590599018,7.3854260243321,4.723508270465569,7.953348059577809,18.941742788065113,0.022329789608838663,0.04814921149275912,0.4220515768640945,0.053738204463598324,0.04397446965947238,0.045912174076434165,2011-09-26 13:11:23.277003780,7.870375399
49.01637535172684,8.435745717955944,113.88681692016904,-0.14282546614971697,-0.05740054537041862,1.1217924472171632,19.37647439720299,2.649230471938374,10.074019033868977,-0.15756124766536034,-0.034004824031610224,-2.996366189855096,2.4251611952777674,9.895925624731905,1.4210313977259292,1.5460651648529937,9.742851585896634,-0.029340096477476763,0.27396435814676673,3.5347295484433006,0.009315848171456611,0.022562657228517417,-2.5727319661050707,2011-09-26 13:11:23.376959182,7.970330801
49.01585497381845,8.446929812682429,114.53562399396284,-0.21607741838153388,0.0002786943648266935,-0.18573675052677752,12.283413269069628,-6.639472352740297,0.7352687514848437,-0.11293021958968745,0.23093241927113944,2.7807262765611216,-0.33567703875904314,12.40569438062634,1.9987434421247396,-1.3374672444357274,8.353127970156468,-0.009649153844783213,-0.17946471578088322,-0.7335495931620949,0.04701203783629228,-0.033592636310906115,-0.13807103953439429,2011-09-26 13:11:23.476966537,8.070338156
49.009207229585,8.437035326685312,110.452228973034,0.02042433008740837,-0.005992686003191746,0.5051868117893292,10.263405718150485,-0.726654502400633,2.8754958617812445,-0.06615873540343946,0.27322242165124627,1.3529889001410966,3.951138975468606,0.3637849384998013,-1.9968099863448088,1.4489580596205303,8.98848206552356,-0.022052715535815167,-0.12160158244033858,-0.32958089024694714,0.00879225885113036,0.14068049120461878,-0.40334039373197045,2011-09-26 13:11:23.586994923,8.180366542
49.019306694553684,8.440599348558077,115.03425744681178,0.05082383775470158,0.008722352770991098,0.06045279816584459,9.904674802151204,4.571128945449773,10.064186095585693,0.03670653475854484,0.03959240293137896,-1.4168485002033782,0.6673577033007055,10.565117361740906,3.91506128842917,-0.46341545802647555,0.1310420522185911,0.0023667249133598025,0.13341752265950266,-0.4058348765190893,-0.03861703143610619,0.15232055308386627,0.14476791894347069,2011-09-26 13:11:23.687130641,8.280502260
49.01697706242302,8.42910591535963,122.29135352726423,0.03254013558301244,0.01137903927409896,1.0695060710017175,5.951016566081764,9.653128312070704,9.218768645382413,-0.06392075750792507,0.6307695396021478,-1.346238368604423,-0.6442839740207278,9.233761712493875,3.458364188113249,-0.7327698472874733,9.113779288848187,-0.02026540361438973,0.06958555589590604,-0.2755760714152086,-0.03356419493340096,-0.3589092556825086,0.22976810648277587,2011-09-26 13:11:23.787050409,8.380422028
49.01013681184792,8.436675344387691,114.95871415595813,0.05219192224918723,0.053524098198570444,0.5342042869278335,1.2393682533496406,-37.23908936655088,24.0034290604521,0.4564134202365608,-0.23138552011059027,0.5967721087775968,0.08982159293034966,7.646457381307076,0.589604416617077,10.514417011219484,9.489683949835227,0.062331901622680985,0.1051263674136935,-0.1391915638875231,-0.17092129067087136,-0.41913653495892783,-0.4171309447051471,2011-09-26 13:11:23.897014646,8.490386265
49.015550260516676,8.429560805512638,114.95687245620351,0.06423320527792847,0.0836594257009394,0.048755982769709494,5.1159631680305395,-11.571974950086108,18.560370627891324,0.05075438271985226,0.09929863866266156,-0.9409576836774032,-1.6298482606638518,8.562946541540812,2.5750620008288543,3.4470355903390004,10.654987438054423,0.032503143372083355,0.08415959900910397,-0.7595533549568197,0.03935585212439657,-0.09491093437115744,0.5192057602048231,2011-09-26 13:11:23.997014377,8.590385996
49.012820526858384,8.4256855069655,116.00978660860828,0.08925378299280459,0.014304988062284363,-0.10660589656017427,-3.480036920030358,8.844885385620252,14.810371842969134,0.814515226680484,-0.016665765046519787,-0.8987373177609643,1.7660745613659237,14.555671055779047,-1.2133533061950346,1.6908053012990565,3.719656490204989,0.0553820352526654,0.08274666501204245,0.157677829223843,0.2729433615424204,0.007263704748884241,0.34048550809076816,2011-09-26 13:11:24.096978951,8.690350570
49.01783345428784,8.437516129989072,116.97329138468385,0.030187940237910355,0.040963218574611715,2.047028080680957,5.656468923775213,18.48075009860179,16.029137551596214,0.18911290279137913,-0.24336100280203166,-2.114290719949202,-2.5454451236320774,9.96001339181309,-0.7699351150542113,-1.5110640676455067,1.1782637754521144,-0.017764623400736857,0.11593778378387622,-0.20926531667892992,0.019995777331571492,-0.16794587252615653,-0.007364738686942405,2011-09-26 13:11:24.207105671,8.800477290
49.029079204969605,8.434279817808028,115.96842686978694,-0.013407347948088816,0.003468370458573901,1.53737589218427,-1.4493150628150584,26.74375499226624,18.354835082258774,0.11719119250841536,0.15133693565860054,1.322327982527014,-0.6514755737669572,11.714906112195184,2.257250142334381,-2.7954148934146215,9.525877586906402,0.10118949505637835,-0.20860286549217158,-0.4107961169686423,0.16030376353674355,0.07157116088175453,0.7152745410902724,2011-09-26 13:11:24.307028494,8.900400113
49.0141053537611,8.434820799560121,114.37496614697685,0.014115343220998382,0.021490136615628683,0.21309728265881617,-2.7615416104826025,4.749983690755848,3.750521856746314,0.1686785084633388,-0.05752934817794288,3.190026596205956,3.174338910468561,11.242472482255481,2.77374226359383,23.303686374227528,8.990112317283746,0.005381513507442783,0.10160032550971443,2.6342550585540723,-0.0573639339498702,-0.03692165579676399,-0.03350416193122988,2011-09-26 13:11:24.417025357,9.010396976
49.02655177444665,8.437980170013754,116.89738195377846,0.05654278368886353,0.12987811550423953,0.37477744759082643,6.565521853633088,25.188643403268088,50.23012596712316,-0.013212255584409215,-0.2689683365465851,2.5369964691431997,6.834284957929383,9.230011740079151,1.3956353297159194,-2.398562963387572,9.838972391422763,-0.519589941409158,0.0827610236427848,3.282583419351774,-0.06353716076855696,-0.01698337048624749,-2.9398963372904574,2011-09-26 13:11:24.516986198,9.110357817
49.016382308344525,8.433902336695875,115.81295500711772,0.10746490391661831,-0.07085048463287773,-2.8257816933910274,3.3254125897930065,1.3358280296382006,9.299588130764828,-0.005412030873605022,0.0841944751956424,-1.498592374643,-1.5211724163888491,10.38438531492269,2.3897510068881225,-3.379696356724978,8.312014923796424,-0.06297862388324055,0.05206918997951874,0.17878558552010063,-0.053014807125937626,-0.10468515142955555,-0.03320365330802398,2011-09-26 13:11:24.617007603,9.210379222
49.01720627249548,8.438267229575992,117.32597312598537,-0.1531812265372702,-0.012958255597806674,-1.0452914166946856,-4.164738576749455,12.408669871865534,-33.24845136075035,0.0698441673583155,-1.5022443122545057,-4.362214957681168,-4.757359746689742,8.793230258979113,26.62901986939338,-1.9873504341821886,13.97500587391404,0.04567962348334535,-0.2003731046724517,1.1801541374107851,0.06007007273017459,0.045618339025866504,0.7465884713137979,2011-09-26 13:11:24.727297675,9.320669294
49.013814903272475,8.4413372072178,116.04855014045945,-0.18754756011810125,-0.003634352220500862,1.4381167146371308,12.829160358106606,8.855790088550094,8.607224469314492,-0.12648640015118648,-0.03810243015693009,3.3072577328474937,27.068529579723766,10.59000496372845,-1.3969995296967108,1.5656488044369272,2.7006245618781985,-0.14757608004565614,0.12519591245439884,0.20226827625619798,-0.24713962756475122,0.0685827953003162,0.6342269825433126,2011-09-26 13:11:24.827037575,9.420409194
49.018300928045036,8.432907089201429,116.1662156171751,0.06234472239530897,0.07603719665570338,-0.8954815889828641,13.43091212752082,5.289148077327429,9.226358104714357,0.03850572207289066,-0.04001348476908026,-1.4706383067684932,-1.1747975556124572,11.346234675296262,1.3482143974146292,-0.8815379675832343,10.024453547760778,0.0013610156308837154,-0.01907827917478688,-0.00023082988562268293,-0.04447621308983407,-0.06296447639324144,-0.7249659837724267,2011-09-26 13:11:24.927068183,9.520439802
49.00919307130599,8.429951734063382,114.86250909857291,0.04974618144831397,0.004716862268149816,0.40590193878574343,7.790864837191418,23.712829221295788,7.612058334317875,0.08882896716855,0.020287064710752496,0.14525840050144678,5.514176659914254,8.686820097278597,-0.7109528318311688,-0.257687531681998,11.184729245718549,0.04794601289030513,-0.012842825843646488,0.06357371768034964,-0.00844071131176239,0.018920327552813445,-0.3260316989891017,2011-09-26 13:11:25.037007004,9.630378623
49.01642879042328,8.436651638643589,114.63505071408858,0.10357689366237866,0.03725663201265847,0.23606854420413642,-7.536548114305785,0.8434552644765905,25.06773877186594,-0.01774699126381744,0.9897787537055449,2.1056059048635074,0.8372747098581752,11.760310445877005,-0.3023833333387793,0.216929896031249,12.03926552494812,-0.03544590397077829,-0.06056883617100617,0.6339827754510314,-0.003126463974775685,-0.04736319428186701,-0.08123344615446493,2011-09-26 13:11:25.137090507,9.730462126
48.994851432091124,8.432730895865145,115.30948470186632,0.03941327812871361,0.013071541103500964,-0.3142762108356393,31.425115650655165,-28.319198575813815,18.373401224476677,0.11562524951977306,0.09525248318973789,0.1761338596747335,-5.981438428482068,9.165924000088685,3.2082355644813805,15.397926375823683,13.57930130987779,0.05828434937727035,0.3888988539283533,-1.7561842139974384,-0.04002286607614464,-0.047263606359365766,-0.1938500601206841,2011-09-26 13:11:25.237218425,9.830590044
49.017907043618436,8.43670705816174,115.99407073346597,0.006857876144414916,-0.052035532278145245,0.8632556341230593,34.46728327621091,15.975793219592852,20.129551841343257,-0.9761972400228682,0.031290294822879074,-1.1924192617284666,1.816308377722422,8.289233689956637,0.3535302766754529,-0.23464850921254798,10.54237862944893,0.03688990247419972,0.00919767068527533,-0.4291409211200584,-0.05947933917581652,-0.09698544455426884,-0.0038297940760336525,2011-09-26 13:11:25.347096196,9.940467815
49.017398869669094,8.439784149550027,116.75132616639684,0.09333959641855974,0.002330289426727677,0.36293117642576384,9.31275058563486,5.690162278451717,14.700148042829806,-0.029499687268149187,0.035027915724807165,3.043083542540034,-2.8314094434627894,9.846947290519083,-0.8223676992767043,-1.8546244958347498,13.054420184283245,-0.06432409722999324,0.022455098305128957,-0.3169658440431405,0.020618039567350043,0.025384098354502702,0.7281819954829415,2011-09-26 13:11:25.447095360,10.040466979
49.019214141880944,8.434251251093412,115.50494424475771,0.04779386224256325,0.02033839732110815,-1.8290497481922834,16.709533785964624,7.168708488202919,34.96679611323842,-0.2332518625865115,0.11459393716526799,2.0237278218251236,1.7168025780741247,10.891899682747969,-1.2551174401869483,6.042383358734997,10.228836333899082,-0.05595594448391693,-0.03160936748974173,-0.13237758361392477,-0.007960779055069296,0.08744429352760685,-0.7791094969251896,2011-09-26 13:11:25.547118146,10.140489765
49.02068818067647,8.439795964234333,119.88815514877594,0.005113822143316307,-0.02111271172096825,0.4484312817374012,17.698754069169507,1.692732990435978,9.835678309372923,-0.20883747593251276,0.382800520609949,-0.09596000517318748,-0.1720052172182594,11.094667021222216,-8.485914924327425,-2.5357969465482744,9.116230314657537,-0.031346155297179455,0.16022505246071875,0.600304649763848,-0.0183354767475234,0.1700703126093573,0.578353980093159,2011-09-26 13:11:25.657062669,10.250434288
49.0060388815007,8.440182974760411,114.90984675246114,0.03264033429352342,-0.013418100262255647,-7.338902997356065,3.590038299531014,35.074550172272716,27.84024985951194,0.16253487218708398,-0.19631585670623883,3.163052123784608,2.411143222644946,10.919327132560715,0.9588921712933127,-7.663192900161837,8.14795726377987,0.041509783142690874,0.012281349175828191,-0.414706801459376,0.034469711838116444,-0.037401205537477944,0.08593906511655378,2011-09-26 13:11:25.757108184,10.350479803
49.01408879807548,8.438445007661718,115.42740980367049,0.10081227617401278,0.026424220923145895,0.08034076493171605,7.397108506358338,23.216985660212597,-2.101423990464143,0.05913259638563796,0.046011771516987654,-1.384585437460288,3.5407045737798937,9.123656237377986,3.061884488360909,-0.6605563013374612,10.511647238864677,-0.06961242865575308,0.015436891602073203,-0.12132409536263263,-0.06965567539012889,0.003710912542562476,0.6362728199178321,2011-09-26 13:11:25.857092311,10.450463930
49.03005011211754,8.434840779591333,115.35828557930253,0.05296356802948014,-0.023630659464291687,0.05439458168679123,7.003563414390743,17.413624435100452,14.871572359662686,-0.8977178379904696,0.6515709939996996,-2.5913916890083932,1.2873405807471987,12.199986116090482,-0.7424372514639394,0.496738328576773,9.304561287832533,0.046906777959304105,0.07718543099267056,0.26531571823300826,-0.014090933040649118,0.08605614060019412,0.44656665705433013,2011-09-26 13:11:25.967138011,10.560509630
49.01695217969929,8.433017206901027,115.70831269100331,0.008015296974795697,0.003706072899541766,-1.0150168048663635,13.528631621405385,76.21891702501051,11.248992022524202,-0.25173308935982,-0.16336950275999043,-0.8632404908117366,26.476415312275144,10.382691575354679,-1.5440789788358549,-5.18274736797306,9.278595418170944,0.014669963740581082,-0.6021936908981701,-0.2265121915804836,-0.08403285818432597,-0.03534611511186889,-2.0728898262968767,2011-09-26 13:11:26.067131821,10.660503440
49.015428868266,8.435094939550577,116.75402601880893,0.06036396929420655,-0.018392933525409813,-0.15251633130591458,16.32431601395522,11.313287465437151,-3.574813573640741,0.21260398224741525,0.21734796652792843,-13.855773726621443,-0.7345233833640936,10.64842314003293,-1.243552149576451,1.9024552117818176,10.579478156784878,0.14461501990980036,-0.022863965040584844,0.2905216067475247,-0.4826292116801645,0.020297331504260094,0.28052818351987413,2011-09-26 13:11:26.177286056,10.770657675
49.016327908320115,8.439033114987934,111.0953696660311,0.001407449251488252,0.025438884093129707,0.250238153965766,12.642007558104043,10.228640817163113,43.27991483654918,0.2346064718829125,-0.018476699592746667,-1.0182332086541628,-3.106231304425387,9.178560708429636,1.0159874866515528,-6.307986118356415,9.29201445405005,0.0037277635695352196,-0.002776436045472912,-0.6439606398375695,-0.022546006402410813,0.09292959799634262,-0.13452312535564093,2011-09-26 13:11:26.277139690,10.870511309
49.018135227491236,8.441156930843134,115.53923942629571,0.03853000791067451,0.10377120940608293,-0.2793971230106632,5.1993256969879145,14.592897548479522,10.068719941318157,2.19875863730479,0.26591380580118934,-1.5792050934892885,1.0213657773240812,10.090118968107488,-8.904607253029805,-1.273876033367909,10.288147420500424,0.044310457570170304,0.022793983774549012,-0.7549492571495057,-0.07699801384798649,0.09412516694533907,0.21549831104626524,2011-09-26 13:11:26.377090803,10.970462422
49.01427985834789,8.44550738871809,115.33632202212809,-0.057492482349066946,0.05527094268114155,0.9382574575917895,12.033256612594494,7.681430608534573,48.95557273441292,0.1941171842120783,-0.020722915080996947,-0.016555012014842392,3.6409798763350554,9.110662949856863,1.455800029024539,0.6445840916246486,11.069046979693137,0.017384475329217473,-0.0740880875591256,0.03376828279369434,0.08703688248329967,0.04645577867542826,-0.21001306259770638,2011-09-26 13:11:26.487355275,11.080726894
49.016756794551,8.440520972548436,115.02867449766237,0.06442966531670094,0.008528219855432843,0.10868518895005153,-24.183423183100697,-46.53809002842529,22.475298404446242,0.14700840106972074,-0.16811150892864507,-0.872056939687299,1.8614091812731006,9.777287149923232,-0.9162965172412342,0.6565921600018444,7.282141999865914,0.06752672716407125,0.0012941080939003827,-0.4966498528369962,0.08857288863678911,-0.0072022839902597564,0.41425200376603927,2011-09-26 13:11:26.587135616,11.180507235
49.018959283339505,8.430449542540543,116.6859297158743,0.007177136161502055,0.022961355052194973,0.11258251259833651,13.67220912223156,13.550281142209872,12.273510579364528,0.023865566681476533,0.043537367293171356,-0.7289522791055635,7.733662922563452,11.29029847276062,0.7322539715384414,4.035429514041925,13.692318805887925,-0.02128472994016034,-0.025666039816552032,0.676534271317877,0.3070919071980466,0.3373703097252748,-0.5427236751129766,2011-09-26 13:11:26.687369188,11.280740807
49.0170668132722,8.434493937788767,115.2396676163074,-0.24634781424612062,0.02649830768775007,1.2256277563785325,0.07642875706458518,0.37441942651688365,10.19240565840048,0.05764344909008136,0.02014818522600187,14.759806817798594,18.210153834571997,10.788198241543181,0.770883720460748,8.12048289631226,9.344042158059189,-0.07537561857289685,-0.08659494761115334,-0.3692398511548929,0.0796968747114648,0.0898615629946155,0.12488235765752936,2011-09-26 13:11:26.797142748,11.390514367
49.016197723843014,8.433946342548172,115.17075530376495,0.06979865045060268,0.054304898024145024,0.8885850545815555,1.1747596923472843,38.42917057687244,11.820011320563697,0.35210601102604416,-0.481937084170368,8.368205498467141,-2.7795036642372732,9.377480756074503,0.1792135587523245,4.780809929369686,9.0114020137169,-0.047157756471286526,-0.1585532618894358,0.40291511511641676,0.030651025251863005,-0.004777133090536649,0.30601856087774415,2011-09-26 13:11:26.897137128,11.490508747
49.01944159307726,8.439431938361324,115.33373480801849,0.038836677894933135,0.015766070246631226,-1.556032996597219,-15.859108973344805,31.480198417819174,22.360216521666896,0.8952245406444985,-0.15751950190190855,-9.099244316558442,2.739190196731409,9.422117595756873,3.248937532764451,3.262460063469585,10.310733612881283,0.0336591341083885,-0.02782418354514194,0.3413822608090367,-0.2147126313255689,0.011706594056129015,2.5902993942238663,2011-09-26 13:11:26.997132054,11.590503673
49.01692201590973,8.440924089261639,113.59306763177679,0.031872462793666304,-0.0034247258294097076,-0.6111926207459244,3.221501736188456,3.178004240874116,11.048829327555694,-0.2780161488017712,-0.07581988165265828,1.4313121971503744,2.4753565607619663,8.830957803031662,0.027310242782593544,-3.531025159650732,15.12120801783297,0.04208253155812337,0.27312727970850476,0.06699291578849749,0.0714677769779839,-0.013288123302940224,0.5477296492970961,2011-09-26 13:11:27.107124759,11.700496378
49.01407038249656,8.439227230315197,115.5636627102039,0.041848878945310794,0.016078830093028983,4.345220448984249,18.708412069109755,-2.9765380900786376,46.246119630410945,0.28738959887192705,-0.5097188350343407,-2.43008267898814,-4.502626109392491,10.677464878730715,1.521849426967422,9.122581044529694,9.108036323267267,-0.03710905203331784,0.057405015336605934,0.4450625483682356,0.06068677147344277,-0.19509219020559976,-0.17031342567380342,2011-09-26 13:11:27.207302926,11.800674545
49.04390464555324,8.43711912965642,114.67902795665422,0.014537084026561339,-0.012901034317502353,1.0100759061641091,8.956184805726965,-2.0101798248727594,21.536914797028714,0.030902447018296808,0.1318324181342542,-0.14576847535446982,4.305598585111581,9.218502733717958,1.051787972919354,4.558249789231973,6.878472050225186,0.00860724905087127,-0.1700192008048378,-0.1695395999418661,0.018454026267958508,-0.09299217836516666,0.32134728093218246,2011-09-26 13:11:27.307160168,11.900531787
49.01956548426978,8.44277171460893,115.56676641905649,0.03941747743408491,0.021680463858653572,-0.03137025939214588,13.559270301582355,11.437696098763109,21.362529742997395,-0.08054799373493693,-0.20826579170496984,0.7279331670331932,-2.454617609061534,12.147303360939828,-2.4184641698041265,4.013625347699511,11.123235364594962,-0.17507540111729847,0.017829435636525948,0.12367067890927412,-0.18100815896921596,0.007161507103592583,-0.38660741934713155,2011-09-26 13:11:27.417143562,12.010515181
49.01581125639942,8.432992673696974,115.79510757228094,0.05263353868171271,-0.009767468451329385,-0.46375350403794413,2.8597575334762944,-15.310970339003815,2.2147510324783006,0.09643368518877658,0.024570009932152255,-0.2812829866332067,0.6948093438289423,10.010570451506506,0.8965828499645736,11.585970579790539,16.682626326859886,0.02844921384262561,0.04629978955706707,0.316094272171554,0.09455042470971428,0.12747381519076179,-0.4706915496483728,2011-09-26 13:11:27.517163169,12.110534788
49.01610086931944,8.444376826864147,116.29566578807332,0.14316129581801326,-0.008243982574980338,0.7588632737774477,3.690665975442818,-2.8833634996794846,18.32978560310281,-0.1102768317361653,-0.08595044933274879,0.5095949300468527,1.216443485309151,10.343675337715172,-13.766227815205783,-2.096871999538949,9.428260431533886,0.12349887792164616,0.06294278702800055,0.2524168935105957,-0.07526960692622796,0.02356411721539503,0.3610441808107412,2011-09-26 13:11:27.617209959,12.210581578
49.01907911246386,8.435554129379097,115.50913826401549,0.004668094877396167,0.023033935939344146,-0.7972423262128852,2.5623494121091195,-5.109341122036154,27.24409613492874,0.08997400797140771,0.18980785849641418,-0.9780977222373869,0.8727992473755932,9.985799003605447,0.20022611797404288,2.677015029681918,10.386558686738187,-0.004197658300306042,-0.134213207947591,-0.43925442202476367,-0.013156288395131499,-0.04140450846134115,-0.543522220996445,2011-09-26 13:11:27.727289588,12.320661207
49.01966125012165,8.427664174984205,113.73148798047909,0.047565400159911675,0.02349387906359307,0.17833312180531746,3.6748631458948258,8.405734699516666,31.08222185173164,-0.05938299725580709,0.0001834816472501173,2.061765928215453,-0.9834025281420145,9.911795872888872,3.5802379653830827,-12.79426065658666,8.893504106243206,-0.017958354977978916,-0.06832690955811734,-0.9430866899916358,0.01824559212804794,-0.02340785543976814,-0.27247593258644753,2011-09-26 13:11:27.827166684,12.420538303
49.0174377502311,8.44473417249547,114.24857173397966,0.04685593799623759,0.0097055475099618,-0.1127316910478049,14.130950157021875,20.507870292287436,12.172983973313707,-0.028237000622700868,0.0655251733228906,-10.303440971350037,3.414906700757023,11.84261201996296,0.012015653585567235,-2.663834733243163,8.993767553869496,0.3701751277162763,-0.04924325899305115,0.4395941106435444,-0.05277916926406504,0.03886883933077188,0.06000448597205515,2011-09-26 13:11:27.937183984,12.530555603
