lat,lon,alt,roll,pitch,yaw,vn,ve,vf,vl,vu,ax,ay,az,af,al,au,wx,wy,wz,wf,wl,wu,timestamp,rel_time
49.011970169959554,8.4179857720467,115.14321777849497,0.04681325641541594,0.02050294594668487,-1.652903938625792,-57.992062229265066,-1.049851375222489,16.75794921533826,-0.04106090485926185,0.07001638109487564,-5.999114259922618,0.8714263440263128,9.730531884322106,-10.505724955353442,0.18401731439093666,9.618443744540189,-0.026153070116518705,-0.003242355912171797,-0.012200303950748927,-0.0070378021319563435,-0.018510787795894403,-0.006805295053268147,2011-09-28 12:26:56.233527746,0.000000000
49.011716162555544,8.418099113578528,115.91261052166334,0.04385177624918158,0.014735550447028461,-1.6109160197282846,-68.78347348522044,-0.7899988516071607,12.325217980999668,-0.11280027490450598,-0.04190949504070613,2.8102532915130993,0.1822338956361414,10.464130021878075,0.5856824564654625,0.1617450416746829,10.509525148217607,0.001452390667634947,0.023759439440987462,-0.05368526546604266,-0.03460095950594194,-0.025893608166210384,0.004760841931607435,2011-09-28 12:26:56.333491894,0.099964148
49.01211563192438,8.418055840418537,115.27195404641046,0.0546098373360019,0.01150493572318079,-1.613586069110714,-3.680549167332164,-0.4003641349185532,6.519407423093832,-0.1009682341305525,0.012704248072181804,-2.817385708561518,0.6520573812658742,10.519623858577784,-3.4559427687701345,-0.28763404994829656,9.475105925237695,-0.009874317410556686,0.008456631191998385,-0.006154021122951754,-0.018294711192618433,0.0018391873513183127,-0.01309685058184077,2011-09-28 12:26:56.443536100,0.210008354
49.01336882000769,8.41800977167513,115.57704750024742,0.026238682261545715,0.01683415889281785,-1.6950509722822225,7.834328830012684,-1.5112344464547545,6.38073658796786,-0.14782370582200763,0.11493553547204172,-0.7948674286280166,-0.14033640241513323,9.992886509432326,1.199952473696741,-0.11589481059187859,10.387786780984994,0.0023402624494498533,-0.007073835477333236,0.0010487466018280732,-0.125358676617632,0.048946220279239255,0.0016843773652000862,2011-09-28 12:26:56.543585625,0.310057879
49.01162350433105,8.417941894518025,115.24106560249298,0.038029290944740765,0.014952930565992367,-1.6313380150071752,-8.666325910551791,-1.0343946348228914,38.500512536102,-0.07818629704387944,-0.3912135617154535,-1.1789486818821002,0.05528464624956014,12.418362821085923,-0.791363527512558,3.911282802415705e-06,9.657917298483943,-0.019254241473331803,-0.004112149546234302,-0.012793873593015103,-0.02368860755112323,-0.04963703224315687,-0.0014423504224227086,2011-09-28 12:26:56.653532376,0.420004630
49.0111911238966,8.4180545861595,115.33727457329138,0.05296667183718491,0.0196806256292508,-1.6375116555027895,-32.10167474697944,-0.34349929703875354,20.04099180266554,-0.10318796431740443,0.7035440231859768,-1.7292883361827291,-0.11475846087190728,9.50810712338213,-0.3381962621979975,0.8423496431779409,10.210227508777349,-0.01991418226689167,-0.030844204986160903,0.004755522929861252,-0.031279888558623445,0.002397272207293543,-0.007777781608593468,2011-09-28 12:26:56.753572489,0.520044743
49.011730276506604,8.41802821671125,115.3636497646085,0.04421909288466359,0.015530889603391268,-1.663224732181379,-41.5231336202004,-1.2987519120223663,7.218578088383056,-0.20377468744908833,-0.004014829041303239,0.09057583067455066,0.5006050396386882,9.63175773503437,1.4630885290874154,0.4017425857823845,9.058905358376819,0.010685449759362376,0.31191392418077757,-0.0032569681111351183,0.016619662089360655,0.003518688122040132,-0.007703089453577856,2011-09-28 12:26:56.853543788,0.620016042
49.014616221235784,8.418007771481454,115.31845190328423,0.038481938038716225,0.018312159089017874,-1.6284913656807645,2.5010606498685224,-1.0096871056578085,40.83989896835208,0.0575454444324881,0.10440885503278038,-0.16583813231296474,0.23933031265818006,9.29702097735954,1.6590853189880301,-0.2445367720626303,9.585967925199121,-0.015606554651937863,-0.0016455111125038765,-0.009274430018280884,0.01489668496425699,0.025677398871493624,-0.0005444738424473785,2011-09-28 12:26:56.963578900,0.730051154
49.01046945056681,8.418078611045386,114.93779882682638,0.03658756659979895,0.022588696065217788,-1.6160057573509192,-14.270530647366446,-0.26981940740839977,40.49358775071444,0.027010129049779855,-0.05045855131512114,5.808224391750887,0.9196219649509016,9.226375080621766,-2.58217664850738,-0.2419868370512112,9.863159389386963,0.0006765287968049771,0.005020549803680833,-2.4094091052474266e-05,-0.004511445877340721,-0.016461015524655877,0.001331401926945652,2011-09-28 12:26:57.063774129,0.830246383
49.01129967445897,8.418028031574687,114.00971640153527,0.06138377379795229,0.005402148992034629,-1.6396266256681398,-39.09918389945907,-1.1120693110374642,6.959304474760856,-0.1269315313777004,0.25643810084023133,3.2829357903113525,0.5315571376746258,9.491187606889222,0.02283811220862486,-0.01661710757446662,9.578669743032465,0.009906211598826091,-0.25372183121518194,0.001692923317473254,-0.051017738831825574,-0.0270774860665405,-0.0032194188350530093,2011-09-28 12:26:57.163550569,0.930022823
49.01224648226843,8.418027099166528,115.32154190924398,0.04522966650256691,0.007669681776618755,-1.6439732674491996,-13.080956036742318,-0.38492840155186714,13.666854759832676,0.013824625353139164,-0.1296859043536529,-20.595600985400456,0.33826235919278225,9.64962156711049,2.6020750576671583,0.371981528582729,8.708922554784163,-0.031538690320424306,0.03929421522008704,-0.05979499809742954,0.016599946249654485,0.030608168587468253,0.005356803869069285,2011-09-28 12:26:57.273579679,1.040051933
49.0091488029363,8.418089487801605,115.29593144217965,0.03980261916845635,-0.0027350419369697385,-1.6355351952176895,-13.142452200777502,-0.2673494672881832,33.324232050930505,-0.13648051382822407,-0.14346135048450745,2.028148315736527,0.31303394824695613,9.348340738266016,1.3563120343805526,-0.07456633397174879,9.129575944226586,-0.005449444835364843,-0.05575927462993146,0.0005485532940136748,-0.03336618138448536,0.020398071818006767,-0.019660180551577942,2011-09-28 12:26:57.373597344,1.140069598
49.014077104336295,8.418006865817171,115.5607662455952,0.0952630530317846,0.02288220302645406,-1.672946074300649,-22.120340494486907,-0.2039758419519726,29.36014150332582,0.1894761440400929,-0.09258237835231445,0.7475937769092488,0.2905291961697114,7.945897243429377,-2.806253431477566,0.09251109938922367,8.621178995418578,0.004377787845558163,0.012926112409529358,-0.0053884390752235636,0.009580160308041904,-0.03255717043108913,0.0028626403926834574,2011-09-28 12:26:57.473661315,1.240133569
49.01268748772925,8.418051947674027,115.95434492827378,0.09935420960651381,0.011704561485537153,-1.636675403801763,3.4852794119272534,0.9459486056191095,14.484723860914904,-0.12495807060209539,-0.2325567639820423,17.41530637555415,0.5633327091957911,10.108852500529013,-2.05440125852572,-0.12971091355044242,9.896254341421072,0.014117798838307993,-0.029126621339995017,-0.0007009152035219227,0.023305709209834963,-0.02305197552516976,0.007957423661925995,2011-09-28 12:26:57.583688333,1.350160587
49.01430028266846,8.417937733950433,115.34990715631578,0.04237245576543075,0.02037000712293687,-1.662554606729287,-10.212063497116212,-1.260939520258607,24.727374473855235,-0.016919666663902114,-0.10821249315007105,7.180308130440415,0.33808279176928274,10.524886349940735,-1.9249151452648934,-0.7046711852593106,8.771362870978393,-0.009397588200573417,-0.006137282022611896,-0.00017604019344266784,-0.09411693823416403,-0.02078788337627567,-0.011895990536837165,2011-09-28 12:26:57.683612602,1.450084856
49.0113901871496,8.41809877800503,115.45943718692995,0.04890461138782563,0.008616233695718671,-1.6676775132243706,-9.844161395804138,-0.554845314297991,-18.504178512886437,0.05687501525512536,0.2928865180560566,0.33306328464148993,0.8097135323676085,10.21818049989157,-2.1330333375936856,0.24571745997870859,10.249709765453211,-0.1279060760431729,-0.004312413841419279,0.006250442687036174,-0.006607390818592567,0.030602755314035893,-0.0036368655990840454,2011-09-28 12:26:57.793661348,1.560133602
49.011873926799446,8.41804410656176,115.32253691311891,0.057372985699121,0.018818327794443847,-1.6216869916948444,24.08674429855969,-1.7567340570793915,12.024395225877445,0.018573391299749595,0.0018211789246728519,-0.0646180421620916,0.8231721651761977,9.839878317065647,0.15992862092355611,0.1519647203916768,10.449266124345856,-0.019973537135116983,0.05083591450744553,-0.010478191581566612,-0.014139905110464627,0.018802274778411555,0.0077644844594592696,2011-09-28 12:26:57.893619611,1.660091865
49.0108729199742,8.417962915643647,115.04062673310175,0.07070103520335763,0.030549468212678503,-1.639440531887194,-1.1577267472419273,1.4047846993867517,10.966571372804859,0.0597548408110785,-0.436883192622606,-0.2899535008768901,0.3101790948360364,9.282870055573268,-1.1433915968698491,0.10536356345094758,14.358736088544429,-0.021604053027221383,-0.00137807494609791,-0.0097649077197201,-0.0701714911596336,0.028346561863380255,-0.009602235634571205,2011-09-28 12:26:57.993649633,1.760121887
49.01151452123944,8.417989627784399,115.41773490685922,0.0670736574368187,-0.015356556331029388,-1.6413281270485043,-10.41048966217555,-1.187200329581112,12.99457875950521,-0.10444437952328132,-0.21566993742053586,-0.4185584075622061,-0.20666129002944095,9.899968196623197,0.24734142447084873,-0.25398870545840907,9.68763742260849,-0.0023192847845689302,0.002594452082706899,-0.010853606415410336,0.005561737393772643,0.004865376273550461,-0.001887437702390392,2011-09-28 12:26:58.103766710,1.870238964
49.0112035737941,8.417951139330372,115.89941561574729,0.04665753324403489,0.012805150912358256,-1.646097021570187,-18.910530225747806,-0.4548782789925952,31.165404716068878,-0.06164532122272232,-0.20928942279345586,-1.1798919530256429,-0.018303337161632044,10.116544094916035,2.9525021291452207,-0.38717692007459614,10.340043678197695,0.004381883403117607,-0.06560427751551205,0.0036655679643757006,0.009709344104591188,0.010865014716211516,-0.01150766113507528,2011-09-28 12:26:58.203726362,1.970198616
49.012115405443396,8.418064083456484,115.69740760366487,0.05524654228582436,0.006837287791959524,-1.6316836196071594,-13.767691136884295,0.3707039544035752,76.96512424496943,-0.12331608190030746,0.029759003740965004,-0.5303592693189958,0.34122018274624405,9.662290277846509,1.9388600380261667,0.03413499106148128,10.588061285559625,0.011994959249189472,-0.027186742102001966,0.0028159290149888947,-0.007413115479961154,0.013533524953851576,-0.01469338076007716,2011-09-28 12:26:58.303685190,2.070157444
49.01213021894804,8.418018501556832,115.43523605200497,0.05995043900330307,0.012000215279955198,-1.634616919099249,-11.743356576501338,-1.1677986614807678,-4.630922738687575,-0.12439822373306447,0.062094401475148414,-1.9564245615042717,0.8485995549110672,9.567098442627307,-0.194241896272842,-0.07736552019342315,10.707048903571385,0.028670499765129365,-0.011668616110838264,-0.014704325438889833,-0.14659225232200426,-0.036668516921934916,-0.004358479205934088,2011-09-28 12:26:58.413702866,2.180175120
49.011843221662375,8.41799090426661,116.12214143660081,0.061943619021150885,0.01723424330267421,-1.6312676644446737,-16.34687058602972,-1.0993649480337646,6.854984097596437,-0.15076879924019743,0.03190209455823446,2.7611062233698234,0.8610544785079134,10.02241501062941,-1.2329162675760474,-0.18787121184066702,10.705636788866292,-0.0032825774787957583,-0.011113206388661964,-0.005471405917320051,-0.021354278300054402,0.005608184072251602,-0.017185629116873026,2011-09-28 12:26:58.513921229,2.280393483
49.01133898945942,8.417996375026844,116.95403861882917,0.010100185230972905,0.006202837847843848,-1.6479613982726438,-14.647658284205674,-0.9457231046559174,-4.834023667143551,0.0687842109331263,0.03760764432581124,-1.9629478562963099,0.5028505519890466,9.934960769843341,-1.1932873756563822,-0.29135421811929535,10.147697164629168,-0.001695533773880601,0.022534261549269595,-0.002464452479895539,-0.010817855500376207,-0.014266378228717479,-0.009048781433622421,2011-09-28 12:26:58.613752048,2.380224302
49.011963822805406,8.417999858124578,115.33660993206209,0.056682651686796114,0.006484026323691365,-1.637132807833843,-25.454632168054665,5.241473441901137,3.852038075868994,0.01279405969259377,-0.5289372598139725,-0.7278876182450809,0.515262904422452,10.276889832782842,-0.24400040758969327,0.010160313119794942,9.804313691703754,0.015434189163035359,-0.0018034684266571136,-0.02797876484345136,-0.0016188371746169983,0.0024103530556214316,-0.007636202606207707,2011-09-28 12:26:58.723742913,2.490215167
49.011120267982164,8.41804158243243,115.50546065780067,0.051158393466763236,0.009730622541340897,-1.658056187952732,0.49168559875022666,-2.2339349233650374,23.886049707087118,-0.16423667104052236,0.010385743445849714,1.4259661092248517,0.5984791685897801,7.712405016184541,-1.4622553428392933,0.03717815840426428,11.530695086352516,-0.010380866185384228,-0.009579019314181498,-0.00875703569320056,-0.022761163599178617,-0.01147429194602088,-0.006737425510797907,2011-09-28 12:26:58.823737637,2.590209891
49.01129376255744,8.417573174278754,115.72393192927261,0.08804590034880533,0.014198934368618778,-1.6702846796240707,-11.69549422260204,-0.2735625601320709,-6.154872022591105,-0.7663187363812884,0.7840796443975964,-1.3457020308850318,0.9594358117869712,9.821536548474924,0.6830623085919978,0.29025933929602427,9.924593244228163,-0.006849648351235257,-0.06805995108877667,0.0009566560524054437,0.01926749574127465,-0.047338559983421916,0.010135386954704048,2011-09-28 12:26:58.933783335,2.700255589
49.010805427972016,8.417949433003127,115.18362230626245,0.04601260698090157,0.0028004565321137474,-1.6761159020101162,-36.70262005482915,-1.1961399717322263,9.374293984569837,-0.073804688916788,0.005112355573361158,2.6473763819341687,0.48897329567328407,9.767510926333319,-1.3693882372125445,-0.7429408004766244,9.920671773105266,-0.015514228660442489,-0.0506177779053592,-0.01023954843868502,-0.03236340176929823,-0.04887522779355589,-0.0005536460313587217,2011-09-28 12:26:59.034022732,2.800494986
49.01079399249745,8.417983474747201,115.24649862933337,0.04694999401322152,-0.0010396829083965647,-1.662767895856082,-2.304297457283038,-1.1694449049175677,25.81909169176015,-0.09999346631072731,0.17086798493345767,-14.29827731827422,-0.8799347603819806,10.52078074713463,-2.879466043827394,0.19330779289045807,10.517023848916446,-0.01881196635783546,0.041067099003908224,-0.010137779605593257,-0.014778003801341963,0.002298824218485476,-0.0017172510069962815,2011-09-28 12:26:59.133779917,2.900252171
49.008380215268986,8.418035445007638,115.58022275738043,0.10519130716482239,0.007649307280064969,-1.6536430472381267,-17.449559612136465,-0.645748779630726,6.268090734910131,-0.09115594124243469,0.06625449049256191,-0.6286578824031456,0.07058757963178139,9.585682734217322,0.3338058166669817,-0.3252394692512964,9.978637376696586,-0.028013313664056072,0.026017240230815315,-0.00992871255293546,-0.022578534264339208,0.03572072817618474,-0.010291795555077494,2011-09-28 12:26:59.243784998,3.010257252
49.01096681323956,8.418014489178772,115.34290702547997,0.04532427450964669,-0.0035160439545291623,-1.6573171090480165,5.731043450107853,-1.1347675400574166,12.328042180989858,-0.026171600096056423,0.07551994027680425,-10.671486016395782,0.9726189272213529,9.741292200679096,0.7700621241590049,0.002426032392015276,9.26514287361564,-0.001953314718725793,-0.03240419993407727,-0.000954873859451885,0.11531413103869471,-0.055814304787592445,-0.016991873947049214,2011-09-28 12:26:59.343770947,3.110243201
49.01169579253359,8.41796217032837,115.67880108085569,0.04583262528010877,0.004978288311491875,-1.6334847815624745,6.1739604167160085,0.4845193667896608,4.528465735699634,-0.23813818671729892,0.06772732186836608,-2.1576165464578185,0.617384912878506,10.172354723310713,-1.905563132377924,0.3138305584584443,10.359433755258342,0.023056206942832662,-0.03486790940061392,-0.001776313840217902,-0.005750985202605315,0.00930006402880484,-0.0032678768632855167,2011-09-28 12:26:59.443835044,3.210307298
49.010616000879416,8.417939362275549,115.49658517189751,0.063995117005583,0.012605929726765958,-1.6764756383261277,-23.701631438228645,-1.0905867238319644,2.92018997316299,-0.04750652767614144,0.11913874476295186,-1.4835860104054839,0.5830759203037192,9.503864266474155,-0.3437654589251601,0.007328323033099014,9.331976820258765,0.02083496788966821,-0.004948769755945364,-0.008865004807369233,0.00453290947002936,-0.013856820172315036,0.0018214191870207853,2011-09-28 12:26:59.553991874,3.320464128
49.01230292421428,8.417985246722692,115.20263532958828,0.04995900336403221,0.0032055426136286006,-1.6417960735880206,2.733170328327727,0.0109153920782743,3.1130966655418124,-0.5865789857940329,0.07337600458958284,-1.1284446028082615,0.03489880057567302,9.71869803062558,0.29462676454690406,-0.018671528132428575,7.912665462997926,0.016038332166429452,0.007553955318072023,0.0069242225063045094,-0.001281036111771344,-0.00180330007510353,0.004439968083224697,2011-09-28 12:26:59.653843215,3.420315469
49.01214639423048,8.417883409450441,115.44984950112068,-0.02776210313616633,-0.012830520589758187,-1.638801268380903,10.957491557371629,-0.4547099496615404,19.991584380136366,-0.38124739279205294,-0.027066168282946376,-1.1836719506111666,0.7184349270404266,9.04160895347952,0.0072609930721695415,-0.8225385815334,9.039095261562325,0.009106082000188444,-0.03555964914081648,0.00147459347034705,-0.025431187288171297,-0.0008155286171933895,-0.03233426412267303,2011-09-28 12:26:59.753860752,3.520333006
49.011822629791986,8.417998890207931,115.47461601696075,0.08237806073150032,0.006276052682330853,-1.651668801793227,-12.895465487649062,-0.16228271932824057,17.872014599857188,-0.03251927997369608,0.1436822004647896,-3.3426672226493466,0.6965074675576691,9.374489515943567,2.404002255121823,-0.003527950273374242,9.908306075430332,-0.01880655103974968,-0.03040325055690308,-0.013220426111462147,0.008412876422361838,-0.05239529290678557,0.0028422829211391318,2011-09-28 12:26:59.863874396,3.630346650
49.011383846748465,8.41796473796946,115.75320930592203,0.04859573382848799,0.0095674820970555,-1.6343400745681769,-8.837517755064065,4.07572030194833,69.77807913379773,-0.0020109004759936017,0.16845075251331187,0.11726733036009418,0.7905682180115767,11.251249766265081,-0.3300225446781996,-0.09113052665006044,10.204859415660863,0.018752279722977338,0.008964306649222493,-0.019218735208346067,-0.007317993633090604,0.025156925560586088,-0.012810139509339397,2011-09-28 12:26:59.963851763,3.730324017
49.01127418408684,8.417963540426573,114.95158952185827,0.07038110779652823,0.00117594797517496,-1.6267133249132362,-66.20842003781786,-0.5620915831575841,4.21309075485661,-0.10420655074054391,0.06854317884456088,0.4414332521200446,-0.46522806262032756,9.741735910423754,10.72592896198736,0.10310591480984883,9.271719998785102,0.10411525852695273,0.013166772072344816,-0.002286625710798936,-0.026399041408945344,-0.016351873500137993,-0.006123980155715359,2011-09-28 12:27:00.074028412,3.840500666
49.01117499563987,8.41799532522788,115.4521564071439,0.06044413964974541,0.03226228003772945,-1.6621673814580624,-4.147783163777602,-1.8224006275985638,21.65431656732146,0.08308109797516912,0.37059410059241576,-1.6350010166855795,0.5976590584731302,9.603880958451168,-2.4713006440989584,-0.18665373635847043,9.523416282995038,-0.031672170578699546,0.0015065655717858427,0.0041409334160847685,0.019926388765070198,-0.00694555697851529,0.0069276788877281675,2011-09-28 12:27:00.173996786,3.940469040
49.01146345524167,8.417981016401958,115.62510577486292,0.05160844970025266,0.018283005046496572,-1.6480086905619693,-24.38477938116504,-0.6630856458734634,15.099742426170922,-0.8132324827163352,0.029525655863861633,-1.2771918751831222,0.5784236405437274,10.02153864433525,1.1179705961943938,-0.14901606102999,10.47658106570454,0.005459702919370834,0.025765560161790366,-0.00010407437898105054,-0.0029822670630047215,-0.0031653294021890873,0.008589251567416693,2011-09-28 12:27:00.273894473,4.040366727
49.01531389565836,8.417830870391438,115.44367202185727,0.05608496836820807,0.01920477810702202,-1.6770981174222583,4.458222102102113,-1.2280877427713737,12.475158781382012,-0.057740370748775596,0.0799447713801534,0.39019552347366204,0.8272968903059996,10.015525784303328,-1.411223339157236,-0.40505827138831635,9.08483817482297,-0.026490063898230706,0.0227712463300633,-0.0012359956519671263,-0.009375893198621827,-0.11606329702244451,-0.008887777280130474,2011-09-28 12:27:00.383878828,4.150351082
49.010376214113386,8.41792183458278,115.77445580380267,0.049913597880470416,0.01087455478713849,-1.6298422520907414,107.5176016814446,-0.5127418185139312,4.048735978799777,-0.025266769289067015,-0.07400831254313127,0.5377953191340037,0.3993862688788178,9.196943768481006,-1.1440450481607018,0.286123592872471,11.246032368672127,0.010236415424897581,-0.03852709069626429,0.010744099953275858,-0.0018730028252152279,-0.010583415369633625,-0.007374275508972724,2011-09-28 12:27:00.483881081,4.250353335
49.01184194640446,8.417985861891776,115.43583603011224,0.032212122869290996,0.008305036280788514,-1.6385764597244603,-5.392726280547383,-0.31571382123290354,2.87499275985084,-0.1918778751146848,-0.189098164682074,-2.0000267250853763,1.0029365118608202,8.930497067111261,0.18180509778471388,0.37566068977417877,10.370699933942257,-0.04179864128017892,0.008117469126834224,0.00854739293166789,-0.038953659100600835,0.015266775747140983,0.010549324009248257,2011-09-28 12:27:00.583949445,4.350421699
49.011574229503495,8.417935802282974,115.17404471226067,0.024328952573178356,0.007139710351757428,-1.6884918331679462,-108.36604034201655,-2.2317553047675442,19.765094996716556,-0.09532960952813796,0.0032409701059032334,-7.587447938895462,0.2384767124623727,10.386218854773695,-1.7556089339314465,-0.1677278101605072,9.76551141531813,-0.03640596269885607,0.03823549489394949,0.010332563017241,-0.04352888719557271,0.005710607993028402,0.011340474618594788,2011-09-28 12:27:00.693912003,4.460384257
49.011425723512836,8.417916656098193,114.91028291360104,0.04612715559499787,0.00938409637383377,-1.5342523080719164,-1.725214465406836,-5.199907994835032,71.13089591892835,-0.0730008790771438,0.06343246170544341,-5.5270468072669905,0.9233403108769163,9.845418716020943,-1.4234792377386014,0.24489578216076513,10.046486431961512,-0.02127755318207788,0.03876352328226236,0.012027766936764536,-0.01572408829235034,0.11488119375973017,0.0024588491539788626,2011-09-28 12:27:00.793936283,4.560408537
49.01137467076556,8.417935468661678,115.44505036223167,0.050552813711593085,0.025574662232770815,-1.713652297415398,-7.845332643878362,-0.3670071175482906,7.647636099872348,-0.2066638826262409,0.013277428925099092,-2.2864815641830827,0.16886149237228237,11.518008125000156,-1.8666310306716556,0.12145351882418313,9.62917197727893,-0.03131513995555672,-0.06439487163631154,0.020300187105844046,-0.008109501590528817,0.08150907216778087,0.004470128528753758,2011-09-28 12:27:00.903950402,4.670422656
49.0108491261862,8.41798686407311,115.20672027450513,0.0500500748568025,0.0006884357762432063,-1.675625357761217,15.832320351314163,-0.6299116665603343,-1.2065561540632768,7.878347906591088e-05,-0.04676061370659142,-1.5236520042712782,0.38125593718399164,9.95380448769346,-3.9932016461965736,0.04223848485979119,10.326265652177046,-0.006211112833450851,0.016874331522307117,0.0020148338303429946,-0.12062670190921676,-0.08000313388935586,0.015936259846731065,2011-09-28 12:27:01.004212992,4.770685246
49.01115706426258,8.418017885773091,115.41694049329377,0.04845893729559314,0.025900810051417193,-1.624706071087156,-9.441167844541024,-0.9461376306277731,4.3189982003600536,-0.13267980630083875,-0.08134334208298863,-2.5188593838896267,0.4330156461051372,9.514077840369312,-1.455096161675825,0.20231435947457932,9.29685247180177,0.005691178889570608,-0.012424809848999584,0.008295860965552572,-0.07612766195375245,0.06045679488332983,0.009538856148695067,2011-09-28 12:27:01.103986475,4.870458729
49.011293044114765,8.417959412760082,115.75520558565772,0.036013426668421916,0.02084258781244601,-1.6316538609228477,-3.5155915337566093,-0.1397771966318631,14.924208566020194,-0.24781095118813828,0.06355142992797284,-3.4730520105578657,-0.07889912496381024,10.236903243941084,-2.094342284614168,0.01224589506028878,10.60706616765002,0.033388161792109246,0.011693073975922237,0.003989392845352754,0.010094324743076349,0.016161150177727283,0.003303500646806976,2011-09-28 12:27:01.214010292,4.980482546
49.011082486293425,8.41795384367642,115.0973068553997,0.03786897644006603,-0.02152693393127801,-1.675797961575923,-90.78245242195031,-2.2824302962757264,23.99009077296065,-0.0277942289741731,-0.07204438645339231,-3.723982579752955,0.28747870842007583,9.170030991898711,-2.3288171946866387,0.17550667265560177,9.571497283168389,-0.08083496936556112,-0.001247956562538722,0.012338285284989259,-0.008378097364860167,0.03544503778894125,-0.00477004128558303,2011-09-28 12:27:01.314000823,5.080473077
49.010608574950076,8.41801458559447,115.21964146633579,0.04991426964891388,0.0179882810662864,-1.6117803968786073,12.649016443812023,0.3190004720799704,0.9186228946918344,-0.9711525193599307,-0.27491172422147653,-1.1807259219544146,1.8056473479789752,9.321744382519869,-2.112372648862132,-0.12393708378294437,10.070725658039832,-0.003978415329281491,0.026827210533463253,0.0037836953011034383,0.03901435824701407,0.00644260111262162,-0.003359369893115041,2011-09-28 12:27:01.414000601,5.180472855
49.011314676221474,8.417905782363317,115.55906444218213,0.06643036662580967,0.018440318498141935,-1.7157118123261332,-4.489651323518021,0.20390804218587666,0.83967702559407,-0.11441282101490449,0.15521585609704044,-0.04345469059893503,-0.04137286153993497,9.67372469803792,0.6156825410350022,0.15062762246194264,9.72038581825855,0.06527968161686441,-0.014370515616029799,0.010432774923363402,0.005372195650494826,-0.003887371315367094,0.011614101943365481,2011-09-28 12:27:01.524340510,5.290812764
49.01072635323026,8.41796421653994,113.80302138971592,0.028360258309929137,0.01605892043284261,-1.6320728253324763,-6.8625731402326995,0.2145200703386836,25.232130043115276,0.08995206242781532,-0.10285629675190809,-6.297172974947433,-1.1558358184668363,10.676757690927616,-4.6409074929011105,0.13991730327173027,9.765850667487612,0.018922794754847802,-0.009089371361140778,-0.018381528801342466,0.008837414301946225,-0.020445982762171303,0.009396342358551541,2011-09-28 12:27:01.624035231,5.390507485
49.01151941374886,8.418104213174283,115.31116439031344,0.006901489971964089,0.008059502342247667,-1.6448551029938419,0.19052574926303745,-0.1855750821595215,14.864216490731629,0.04284714509911704,0.13391963004098412,-7.172181747851781,0.4763159205997004,9.850590312603993,-3.7092043976301614,0.3374220763154518,9.68239517382913,-0.0008755691934307862,-0.020115090431779472,0.019822765335132893,0.0037843641734183428,-0.010263784754219171,0.01028982149758813,2011-09-28 12:27:01.724069688,5.490541942
49.01148347770991,8.417927124107216,114.98176302359698,0.05429225561788101,0.009701014113905643,-1.719879277542932,-3.350248589741538,-1.8238897495793167,-63.241829758473195,-0.11776760745513293,0.051155818878326355,-1.5783339047539107,0.32691513597480465,10.12220226839791,-24.85479005474546,0.3486111694168994,10.040049671827003,0.012912958566137696,0.008217777907468717,-0.0018350861077653588,-0.07998087444286602,0.022219319370106773,0.002166054944396573,2011-09-28 12:27:01.834036599,5.600508853
49.010655358054095,8.417927738376575,116.01372952310612,-0.00765886598279452,0.017998122843953253,-1.5992399521321166,-2.771891246542036,-0.7742339942500462,18.48697380488445,-0.008306389429159712,0.08531438918734201,-3.3390467979930074,-0.3617153353438045,9.442212197448509,-3.971702746625329,0.12670259915120455,8.54685970240509,0.028798037108082025,0.006567505147735959,0.018107857465728166,0.0007763951760334075,0.01826508259798272,0.0018407635896610835,2011-09-28 12:27:01.934048384,5.700520638
49.010601577257695,8.417878667716883,115.44663808928001,0.017408545457353503,0.06634745323703194,-1.630726761021907,-3.410995512853355,-0.3642034913844706,13.663173863555283,-0.37930569635693134,0.05936857868107504,-4.241845076198974,0.4633636257412418,9.466934292715756,-2.2072851420790935,-0.0896829193104062,9.965904314809137,-0.004880725195735056,0.011364587610767056,0.009193284200899238,0.021297159843275227,0.006688507772720304,-0.0021280451301975856,2011-09-28 12:27:02.044251431,5.810723685
49.01095456676381,8.41799694615449,115.34051258005562,0.09457702257811995,0.016426243948017383,-1.6524622991033004,-0.6060096096896057,0.9121703133138608,-87.74236602544853,-0.09628375575497489,0.4167056088018625,-4.236221006919685,0.26819373399166624,8.927465201962317,-0.8102972226285239,0.5048962450854991,9.581212792871492,0.0020465074568825343,0.032393174989097856,-0.0016089745344770503,0.01539081784553907,-0.1428903185265673,0.00796768952890801,2011-09-28 12:27:02.144057779,5.910530033
49.008971680414035,8.417920518172146,115.43573126322198,-0.10020363213715211,0.02011782003433829,-1.616321498097284,-34.73626555607687,-1.3072374225343708,16.428706643226736,0.03275235336149101,0.11232511451604006,5.675601309121228,0.6389925199828225,10.008998176350605,-5.0714307665780485,-0.021949248177113273,9.357722608241682,0.007940545067637037,0.008934838515832877,0.003954773785866509,0.16589166235315775,-0.010807268046958373,0.0019051657813750553,2011-09-28 12:27:02.244059576,6.010531830
49.01079016489834,8.41795872873663,115.57070611653529,0.05554309906262768,0.011309652175306146,-1.7185587059905048,1.993659379907732,-0.49351121227524186,-0.2071318701561733,-0.45219918564629397,-0.02465517053002208,-5.150075130972709,0.772898379306069,7.3103512114948295,-0.009616606792716365,0.2614422253906588,9.14196320269143,-0.015051615048030674,-0.012843713807364923,0.002328038459085217,0.002253753714425555,0.04860068397374844,-0.00865151478071902,2011-09-28 12:27:02.354083932,6.120556186
49.011115615916516,8.418000589621395,115.24888190230563,0.04398487983970263,0.005932542495511277,-1.642320205828435,-0.4372356397272359,-2.263676594413926,8.744468230083507,-0.08459995283640434,-0.017110051286338336,-3.6664481908654003,-0.06390158687676678,9.946596367059941,-4.275288445781682,0.7433058691648659,9.52917389501849,-0.0069497927611092076,-0.04018254084153202,0.0068194822429429765,-0.00933572932877222,0.003055455948423624,-0.005093353206060807,2011-09-28 12:27:02.454077679,6.220549933
49.01108710661143,8.417997390980489,115.54580505206978,-0.10436909016388737,0.016933267989073207,-1.645025649181561,7.311626691390822,-0.18685153216998784,26.90389601794181,-0.028025557311027998,0.035899892644205914,-0.5224002658042495,0.27471492007944415,9.380668147639245,-1.1380313900850614,-0.276617475525784,10.111067139848302,0.01433593053182864,0.03225019132644293,-0.020078264309577442,-0.007226698158862581,0.02807322249580358,0.004051864228596226,2011-09-28 12:27:02.554357968,6.320830222
49.00990685980505,8.417963755345555,115.86723032622442,0.05384445530618258,-0.030085749517005708,-1.623000443167922,-6.376017202275625,-2.1514284940055832,-2.1475558501731387,0.01320880789030382,0.08217929469981061,-7.685331453052758,0.5406596047044978,10.216371217170916,-1.8089259208979016,-0.12647265299064886,9.7609436907493,0.012959254161815195,0.021421290765104864,0.00490829278123432,-0.013121352451786776,-0.0271607385799357,0.0490808931056575,2011-09-28 12:27:02.664109008,6.430581262
49.01192982187691,8.417941166491243,115.47291851071043,0.012061496164613224,0.015040430860718027,-1.5885385103536456,-10.863813525570082,-0.4329963532428315,7.906698814371075,-0.06014417418546184,-0.04514210277423472,-0.440137707647549,0.2738347938637604,9.668661439076995,-3.2357382701417037,0.08292062939976975,13.571639514629549,0.0017917476997503109,0.013110728893011498,-0.03353647523767404,0.0039388482799247015,-0.007584726674103414,-0.009754345949122552,2011-09-28 12:27:02.764150835,6.530623089
49.010586246424225,8.417943023908407,115.11009205087493,0.03304709866683022,0.03823473095691603,-1.6851601371768943,-2.4978129583788644,-0.6309100607648761,1.9038680129787076,0.020736383107133716,0.02022326375799778,-0.6006887588466026,0.3243751541937355,9.7698658563629,-2.87942120137609,0.0005162685475178369,9.968888885009497,0.0037126955046241543,0.0441812219501345,0.008472396488251273,-0.023023919782576806,-0.04460289683179516,-0.008531986651253017,2011-09-28 12:27:02.864108253,6.630580507
49.00894107079315,8.418069674146773,115.29480828164782,0.09814880958312666,0.00621396840252347,-1.5801263172377022,-12.739502565211874,0.3773119133214428,11.167846315856252,-0.06269198545548325,-0.0016195147741262933,-0.48258141145319255,0.1872410336620429,12.625814892380902,-1.8843506815999411,0.6541180450838808,9.960719104372068,0.015684453476132083,0.0025928770884875423,0.01751411708751971,-0.008238157611748526,-0.00012834311443195236,0.007034742403982346,2011-09-28 12:27:02.974122065,6.740594319
49.01090408613454,8.417957755499359,115.91495394212602,0.09805212195012519,0.030104069103521855,-1.6314056244541746,12.270820567211377,0.7309615708784287,19.671154559179698,-0.18214270272485772,-0.06688873637683757,-4.635997570371426,0.26994467114250503,10.04013957171904,-1.817588217853999,-0.16849625271037033,9.805715370347418,0.010034598498351593,0.0813293999179876,0.00015567371328926755,0.0015790359717116542,0.002539225876506521,0.004414186215944559,2011-09-28 12:27:03.074410926,6.840883180
49.0115588242932,8.417680545167197,115.83856145475775,0.02303575401418945,0.029885807264905806,-1.6341278064054825,-8.575282368741156,-1.9700198167461132,6.524815364330854,-0.08040606833916411,0.009734902785892684,-1.6928887201014313,0.22597113945736655,9.635485699815467,6.395276213448167,0.28777017806857413,12.359204504188469,0.014309277866475975,-0.005976422691056065,0.007299518064809738,0.01095491782253985,-0.0154744463437815,0.0033918919250565485,2011-09-28 12:27:03.184166218,6.950638472
49.01119362471953,8.417971135521814,115.39399695346364,0.0350123769165984,0.012763435376585251,-1.6194502931058086,0.4777810110916949,-0.44680721720237837,11.15992995985983,-0.10076213835829621,-0.12013266958092483,-0.1816990345496503,0.20207793146814548,10.08418272085692,-2.0025019237266872,0.05021385031338857,9.46703440769054,-0.00614078101250298,0.12554721809436398,0.010982784566593986,0.007796189418845605,-0.018643311267050273,-0.004593537114282565,2011-09-28 12:27:03.284188179,7.050660433
49.0120292212278,8.417791545280041,115.81761853334594,0.0663628945934747,0.007114689349818163,-1.6202857101607302,-2.011954366262975,0.17584856595668388,36.51959020809674,0.3724866393862139,0.3149282250105992,-0.7493701735777449,0.37109257960523956,10.184131103798352,0.271512229468426,0.018130396372423675,9.86433202145959,-0.005998298931643255,0.017124350038422068,0.0089320312277531,0.025703004903499284,-0.0731683540542468,-0.007171583005352148,2011-09-28 12:27:03.384176176,7.150648430
49.01067919478075,8.417923258203173,115.08493081160186,0.011313133806775622,0.0040956136349951,-1.6207092925571005,-40.12320623229393,-0.4427651063293029,-5.571700911015692,0.03434469414633908,0.003988579247621964,-1.866608730426261,0.11704391043612272,8.407624253193218,-2.32449807268386,0.3686766976588509,10.659975752175185,-0.016072315527586405,-0.023284882394888077,0.0017769913797383895,0.007203175803004077,-0.01845133462006096,-0.00203768317758507,2011-09-28 12:27:03.494166961,7.260639215
49.010918733050836,8.418034232804395,115.47752071920573,0.03648643530746975,0.04275981414914338,-1.6133688318929305,3.777676476450376,0.5716708575629308,-2.901194263790945,-0.24887060734367872,0.08323888605100017,3.3632212145527736,0.2856766896864895,10.233746489659751,-1.027473710868947,0.0730910176129757,9.7590624338901,0.009085688154213817,0.01053894024473344,-0.03697186705945034,-0.021789209538624427,0.014707982801849142,0.004372238593024623,2011-09-28 12:27:03.594295904,7.360768158
49.00745307964547,8.41761096840568,115.64364420659189,0.08001598477746888,0.01390073632608429,-1.6483154369270885,1.5467775711395877,0.7482933795568865,20.762142392604545,-0.12160924886877604,0.012264979728474002,-3.568448338728869,0.6710028216309987,9.55823636894217,0.7133257156554293,-0.0946217693364042,10.36967429980746,0.012371917491122602,0.014373237296151415,0.004831852493725379,0.010338765032698025,0.022100837551227034,-0.008011380173694311,2011-09-28 12:27:03.694198952,7.460671206
49.011196119995795,8.417904569015494,115.33298409696161,0.03980952518070076,0.01284819362958329,-1.6453787477760988,-8.170671936514571,-4.7310918342387165,-18.396272240031095,0.06792968787977194,0.03789047506413904,-2.08201544924743,0.5119304101303717,10.106351322221704,-5.308693549449095,-0.16910827028993355,9.980450487278663,-0.003174415495434446,-0.049930376390193064,0.0018408242214295648,-0.012928504344767097,-0.07791137061297042,0.00016835820071082336,2011-09-28 12:27:03.804223155,7.570695409
49.01479749143929,8.418004573565156,117.41211015433889,0.027780222587723336,0.015633268064532902,-1.5647524805997521,5.805383769975703,0.6650217190303062,-3.346761719282509,0.8659219907108822,0.10740658951281061,4.717362664434649,0.6993418088831486,9.220378377584495,-1.4008945208239716,0.06386878854187403,9.627220549169074,-0.001584622809724496,0.006180369782769856,0.003458591853441921,0.010590150761746778,-0.025028682148874836,0.0016207522517177842,2011-09-28 12:27:03.904263929,7.670736183
49.0111997731779,8.418250553620327,115.40356310718482,0.05239088791408689,0.015829175782059904,-1.643410652153822,-11.089896649014253,0.7178536448906889,4.892945681079215,0.028128033941002613,-0.006652180564576793,15.194899429360742,0.44082715958061414,9.025945986618467,-4.258145244527745,0.2866089856414744,9.670114827348119,-0.00441653609841908,-0.017966709047523788,-0.008859148800272387,0.02271961121543809,-0.01736196134214025,0.008331005944767099,2011-09-28 12:27:04.004449258,7.770921512
49.01084411232198,8.417966213601604,115.92949358591615,0.0368514551389787,0.06300635747850342,-1.6331056368020647,-17.06134104816505,0.2813032007309187,-23.334566126823248,-0.17203596761330595,0.01823597620060028,-14.750721047750647,-0.1977158503291172,9.81499047930189,3.4882010479100134,0.024851650169329387,10.774550738113797,0.01812275673620387,-0.0042818993302273884,0.0023627670245064273,-0.032444702227762245,0.015182000363849207,0.002795291489764236,2011-09-28 12:27:04.114278874,7.880751128
49.01139258607993,8.417827645124934,115.53213042835993,0.06033463133341021,0.012515622905317367,-1.6517100237605413,-26.1747747801598,-0.025464170122742436,6.67533271941066,-0.15175304252316324,0.03198983480249963,-4.4768924216886,0.3815983111400279,8.96710174251558,-0.5096715273489396,0.1579384512321274,10.38793043015697,0.004372778754833923,0.002674796347461342,-0.0028107912483005936,-0.01382143533155823,-0.014736436035492873,0.0030388071287077495,2011-09-28 12:27:04.214421655,7.980893909
49.01143787421062,8.418084551485405,115.06184522570646,0.053155456118220444,0.024810018600544995,-1.6086233593924688,21.557742451660594,-0.9971825517609662,1.0799588712187096,-0.20944220755149345,0.45615530085951883,-5.145421781674704,0.32955740408557926,10.618399848556713,-3.8771584181073004,-0.1484236167943075,9.817072125269291,-0.019791438112558266,0.019798454557778507,0.0036622748637452516,0.010311790639160573,-0.01962779735034993,-0.009659758798367077,2011-09-28 12:27:04.324260395,8.090732649
49.01151086340731,8.418003019267108,115.92208880406766,0.028777735146869075,-0.02245012461042632,-1.6189536072706874,0.3346565692952663,0.634976063682502,26.09759045308734,-0.03767289144131319,0.5135680326091832,2.027593568623578,0.32403164875048185,9.901856546990532,-2.9668490044568143,-0.11714356567539737,9.173012507588924,-0.008688748031910722,-0.0474186810230456,-0.021269567066595465,0.03533198941349136,-0.00507321483786812,0.004683599070234487,2011-09-28 12:27:04.424278607,8.190750861
49.011930245256835,8.418070153348234,115.1871488069748,-0.025395793451466704,0.0027584943128919903,-1.63951456438795,-0.035302625804676246,0.10312662307672081,-15.755161780102195,-0.1630614082709977,0.016234529752132874,-4.490398905131299,0.5188430915334693,9.59840157072019,-2.7777197552745942,0.12981601882190694,10.20896411706266,0.01527978940263036,-0.005814051963062964,-0.009636839951837157,0.015577069045046096,0.010388725568754989,0.014245117400664128,2011-09-28 12:27:04.524616128,8.291088382
49.01148129592932,8.418038491855071,115.17303751867917,0.05416730667644948,0.00601543460558048,-1.6965088988231078,12.804456891848128,0.3137086773613723,14.880258108757623,0.03983485662512204,-0.053974067784647764,0.1569537952060922,1.0956003960605547,9.09291926134461,-2.6966758237789477,-0.016609017436871487,8.742955788269759,0.007625421927134461,-0.023554163097252216,-0.005848040192381963,-0.010416985664668296,-0.02126281003728881,0.004674631408423134,2011-09-28 12:27:04.634290288,8.400762542
49.01153499169069,8.417918549641719,114.82461557643953,0.035156302287553974,0.015799552558051697,-1.6453012110671659,8.790472017499376,-0.5014280600159425,-61.7374649587492,0.06913626216347875,-0.03325596950409007,-0.900805849494142,0.6751405677741075,9.542496871083992,0.28041584354448923,-0.010506770486311275,9.379962025178411,-0.017323050682194894,0.026727939349422816,0.00911437209826059,0.01989184538190459,-0.009546894389951979,0.002634916528222687,2011-09-28 12:27:04.734275345,8.500747599
49.01086157103946,8.417875328561598,115.48619216290878,0.0488695085313464,0.02234583138582308,-1.6814213649546745,36.342180778980925,2.9490014863230902,-1.8054361238088257,0.016022050164708507,-0.027773810520792683,-2.1752910245864836,0.14945573792493505,9.05389111801791,9.382805236050022,-0.10025469031337561,9.47404922647363,-0.007464134160464743,0.017938021370208883,7.713816758615679e-05,0.010686562722217238,-0.026609589798181097,-0.013222671860030835,2011-09-28 12:27:04.834313435,8.600785689
49.01065848464742,8.418001791926955,115.26478776315587,0.017892177350581125,0.01680656365871609,-1.6209721028242892,16.1662903484649,-0.3671133795870501,12.173850062887677,0.04050191133840618,-0.05843520517316902,-3.3670712214989944,0.6705384295131589,10.425151379994468,8.673905083685195,-0.19954188135020207,9.22478022860256,-0.015289893802300688,-0.014381929657632452,0.02780991734744791,0.00647080234254766,-0.007129759422995641,-0.00020289352730440608,2011-09-28 12:27:04.944307308,8.710779562
49.011879650488545,8.418078786925733,115.57046320663065,0.03870350268017883,-0.020891247405806567,-1.6186356677277283,29.99890954075927,4.20684377478329,28.77173699922956,-0.09178465304198324,-0.0268051314762851,1.1548066406657882,0.7379407421606419,9.955987857578865,-4.391738430935898,0.2680228664608867,10.132716885212984,0.006667546386692415,-0.007166234868225757,-0.0066640124434400325,-0.0005260041125957483,-0.011331632378908907,-0.01894064922258519,2011-09-28 12:27:05.044564310,8.811036564
49.01183354472951,8.417896389461703,115.51949521325862,0.032082388523397225,0.03174034992052377,-1.63066494996145,-0.8725463021116147,-1.7938648430993869,8.621443869873278,0.08109911610024073,0.013464876100167224,-3.656304867671855,0.12425437867634498,8.167102314619372,1.460816133521474,0.5633897451095207,9.42400699356561,0.010971688363881849,-0.0009851637392607124,0.0015816260205594218,0.004067830315654175,-0.007470628070868129,-0.004533358104448906,2011-09-28 12:27:05.144314842,8.910787096
49.012478805693796,8.417997876860452,115.51886683942641,0.04149550568509896,0.014471404114922011,-1.6115557946783785,-7.658748924559535,3.2232262511740273,13.890416800855636,-0.058348701954587676,0.09810984716375228,0.39717460043311625,0.43265577989146276,9.15640906757086,-0.16521943929173588,0.8611201976378834,10.123525334847878,-0.05088136830107776,-0.019948819741291333,-0.009687845378227911,0.020184045596031593,-0.008790387587366045,-0.00018232361384448628,2011-09-28 12:27:05.254345688,9.020817942
49.01063950566702,8.417941281706527,115.13718424916706,0.033490603269589386,-0.04331595800634684,-1.658435751039714,-13.035126374346145,-0.07236571700835275,-0.8325171263700862,0.1171094032057147,0.050903953866150736,-1.9693486141724763,0.648543170486443,9.93791104633403,0.5790092264764661,-0.2840804882543705,9.572036670712626,-0.026659340327939214,0.0005157875618130032,-0.015400868228893895,0.02017793308001926,-0.006768121416557035,-0.04584554467980628,2011-09-28 12:27:05.354354473,9.120826727
49.01333442031794,8.41799012633121,115.88810240454747,0.07625736151969739,0.013607896537950233,-1.6019699547327697,-1.6044246345552513,-0.8167446186284966,-29.53702403380875,-0.010271875800993086,-0.0582873570757637,-5.039969426722878,0.37787959606731336,10.791397903824507,-0.9815201835312195,0.29831326032377314,9.783381552395381,-0.00632327760312064,0.004752126313395697,0.0012898884753558238,0.03173975496458224,-0.007717064351193277,-0.008109952904728176,2011-09-28 12:27:05.464339559,9.230811813
49.01025205365688,8.417751813785317,116.99605450467001,0.0204625454265759,0.014749062133769204,-1.651509969972695,3.977682714716428,-0.967991572738367,-56.08652156200209,0.11521114109659404,0.10857383309810006,2.3747117364215122,-0.2612786915911179,9.667949514381345,1.9028699253493249,-0.03269294720700629,9.654067431311942,0.0641686261456882,0.007908394588428102,0.00655064765091914,-0.00804344576216522,-0.024532635519049658,-0.004491299511748304,2011-09-28 12:27:05.564447935,9.330920189
49.01173715798474,8.417712135187877,116.08131316337057,0.0352871092565794,0.023135386460853335,-1.6384152564804186,3.692770944063991,-0.029835968971727245,14.941353272048692,-0.10174955954019624,-0.07572364445481773,-4.759833108662377,0.7888332944595131,10.146491590006065,-4.604327858859964,0.05570148828537137,8.848279251338678,0.00221485570264617,-0.03910977149358221,-0.005218390798081233,0.005070155910975682,-0.021448874058612222,0.0017296150202355334,2011-09-28 12:27:05.664409790,9.430882044
49.01157044731339,8.417463384133729,115.53318471505446,0.037493770957040734,0.05214131566593712,-1.616227300848407,-26.235974759711468,-2.8289468512675153,-17.480544777453552,0.03831185554234582,-0.030972104443976294,0.4728871246148907,0.15916961736277288,9.517884766415683,-8.785511359149233,0.047422975980169535,10.604353328416211,0.029915897625756246,-0.015893719400911305,0.007339840679191329,-0.012601620446539367,-0.00022615482031627617,-0.0038171540184211775,2011-09-28 12:27:05.774396873,9.540869127
49.011960848634196,8.417973750242544,115.46654697763982,-0.06325851139216623,0.011758864371058277,-1.6578038739436767,3.1885843981492834,0.13940924050207557,-19.608281111020066,-0.04864522692563639,-0.026569253343178667,1.5448780916436937,0.36621396549615465,9.961294286917171,-3.14995277057059,0.8515487600435255,10.228303146732442,0.038236060817553576,-0.00931342216511891,0.02061793700851166,-0.00873162415508802,-0.007632147249674137,0.009172928463055278,2011-09-28 12:27:05.874457817,9.640930071
49.01156743737068,8.41799384795913,116.11660698638826,0.05810128840687321,0.008868709073954862,-1.6363470777323958,-10.953328822945599,0.6527390778695533,-8.242519350409117,-0.04858473230329667,0.03576935435736926,-2.6399830498134014,0.21448402806597025,9.639209872255522,2.3752915841195876,0.32064332578000526,10.5986087631154,-0.009333352504009764,-0.03778942950760207,-0.0013538020175634482,0.006207943254275447,-0.03268934368154112,-0.00676033233543812,2011-09-28 12:27:05.974453410,9.740925664
49.01100953312307,8.418045739041387,115.58585117785692,0.023904829121898723,0.005902174364598298,-1.6321637630226393,7.515622749539229,1.459667945605476,10.025416745366561,0.11062442883859445,-0.15381727529927763,-3.3929145381784322,1.713615255252563,10.009503187272482,0.22052641788310418,-0.2576376186063102,9.88299833573876,-0.015869489480878154,-0.0635325613470121,-0.0374610623556556,-0.03301656819651063,0.016040008397249172,-0.006702511517883768,2011-09-28 12:27:06.084586973,9.851059227
49.01148054638118,8.41780062201585,115.38934324477525,0.02647500700631164,-0.0015949920268219942,-1.6083297709406656,57.88452233227128,0.23259027724490866,18.739821014156536,0.35150269712616933,-0.2573734100586995,-1.57158319245168,0.45678115164366784,9.701887301760603,-0.17916599784891263,0.2677271714721712,9.59931861882944,0.008277522010692413,0.02543705877255773,0.0004829482532540094,0.02704649737571412,0.040923911264906694,0.005810253740359526,2011-09-28 12:27:06.184463477,9.950935731
49.01272761131079,8.417624113116926,115.4559098714587,0.032472530542166006,0.01240305854700028,-1.6302914782773468,0.08881477039669132,2.1223528263727385,1.747790373368708,-0.04192778536813961,0.05103876636807489,5.15364021488905,2.358420481264392,9.549083612243976,0.3395602373411394,0.21867765564263228,10.030453294288284,-0.006196902030087095,0.041642963974072286,0.010096456726895508,-0.014282119878919232,-0.03589333853163327,-0.0015259084125707298,2011-09-28 12:27:06.294432312,10.060904566
49.01059700115224,8.417986428216743,116.01983464372391,0.02432247296843685,0.026535399453748987,-1.9201127424973783,4.266599591968706,1.2207087369189362,1.4916847190313285,-0.06379436446059895,-0.5092451813051591,-3.5785718209950037,0.20349668275765948,9.569754847078183,-1.5098996022763915,-0.08691524281780316,9.75101405116425,0.028509776146128093,0.03334638248295772,0.012829803287499596,0.012829684055151452,0.0017387963643476425,-0.0012288420263572995,2011-09-28 12:27:06.394430829,10.160903083
49.01122551011084,8.41797757869084,113.61540550800242,-0.009078334901678413,0.013472475000740121,-1.7330672345823834,-5.72148511154905,-1.3517706184864353,-14.232230366235639,-0.036480470870621416,0.00021581432127604303,-0.05474472785116964,0.6038566402428338,9.114682348082743,-2.4168784233034746,0.02171552503410605,8.949155650725173,-0.007323441311923644,0.0035088292791006304,0.007272717236560023,-0.015921372979789402,-0.014539884025325826,-0.000779911295304792,2011-09-28 12:27:06.494469240,10.260941494
49.01098609713209,8.41785923196397,115.71931646721015,0.03194882822843427,0.02087579534561905,-1.6660655442900665,5.116954094224416,-3.34379097679014,2.4849513934801575,0.0787585545867752,-0.0525980298037238,0.5460732282947953,0.30787476416924414,10.150849505402215,2.4783454299934164,-0.15129656957958243,10.095508590343323,0.026250885574018917,0.009580147461756724,0.018138411595780304,-0.010017935677553253,0.005006474275265426,0.009289048560464282,2011-09-28 12:27:06.604529352,10.371001606
49.011592394129586,8.41806138094167,115.60971538788048,0.013190467838750438,0.006595838496744126,-1.6049413217353918,15.105339626664989,1.648781822797843,18.160680362251608,-0.05267932471194092,-0.03614218060308358,-4.976463029759514,0.7160003947725334,10.595629640499146,0.054891770276161524,-0.042849985157963545,10.20573282823366,-0.05947793317035294,-0.017770740525199145,0.02418840281742106,-0.02690267202059793,-0.00927005374051604,-0.015275404741877763,2011-09-28 12:27:06.704486151,10.470958405
49.009995644936524,8.417990196999193,116.06902854795415,0.04268418885447118,0.030771495268739506,-1.5905452617974916,-15.781440678394763,0.08337939566341437,-12.42365382057271,0.017619779396138346,-0.044627806485305344,-1.3164490721447142,0.7651264356709262,9.625517116128076,7.02351864355366,0.3251799631386826,13.260076093013993,-0.03495372948469475,-0.019331103082966147,0.0032048483736348905,0.0032266124792822565,0.014651749389249371,0.008595402453336051,2011-09-28 12:27:06.804482681,10.570954935
49.011472043666174,8.417934087047731,115.75032266766142,0.02583599440535883,0.012350230531703118,-1.6434818384402723,18.995277505194004,1.1574425752914599,4.514666381435363,0.058032183970980804,-0.1668479984271201,-1.7216180534236432,2.9408139994165716,10.016001835131899,2.093261693518553,1.7782414161007134,9.679780019472918,0.022325053015765713,0.013088351635657238,-0.0050914164985440226,0.01905172367823461,0.008138027036363626,-0.007402309824604523,2011-09-28 12:27:06.914504196,10.680976450
49.010949311770524,8.417963777981306,115.5540285481917,0.03803254029772218,0.00908814114056794,-1.588620208764528,-8.965465639907121,-1.6786593503984852,77.15579184144643,-0.046711682227413974,0.078896037642985,3.8233622387352804,0.3074095379605309,10.279412467087944,3.316748398752313,-0.26435879276697166,11.198544684265128,0.04096496181232415,0.008005315335692488,-0.0046276382476066955,0.0016638753724235284,0.03041676888979738,0.008218830237947203,2011-09-28 12:27:07.014619922,10.781092176
49.010901222246076,8.418058907524163,113.91800595973926,0.08173154707894532,0.014119982862691316,-1.6469823503983154,14.535879380319388,1.1888975793964613,-5.617399174344172,0.0526355858267116,0.09694595411976908,1.513305490816593,0.5402579110249696,9.341608759217124,-20.00498748502334,1.2574051866043663,9.893433328023814,-0.003983640227207899,-0.009422780422327208,-0.0013296232427069347,-0.03567688388123586,-0.02672721379110816,-0.0072313967683004165,2011-09-28 12:27:07.114640402,10.881112656
49.011683761202846,8.417961863956183,115.32104122073447,0.0279144567749558,-0.0170323306029794,-1.6225901313772864,-42.49916268660399,1.0164995153675234,1.4681613830736688,0.02906761914153852,0.059903017748029266,-2.1740687179774234,0.7361226099503013,10.328146297533488,-1.2988669675822047,0.26692368481333295,9.810680440542471,0.020313858976791683,-0.03115743599370029,-0.007958931092820707,0.029254729619579874,0.0032252931197260318,-0.030051519205131185,2011-09-28 12:27:07.224522008,10.990994262
49.010274041304264,8.418032790992982,115.68591682987777,0.11263584695663759,0.004312225377945594,-1.6586501289611004,-2.571476476733252,-0.47535830581508987,4.07463509489285,0.033590973155317894,-0.06491385699342084,-1.8482955844862956,0.12992776828474856,9.656438357330899,-3.417290031791566,-0.04972921844460076,10.49021162340809,0.21206482979760774,-0.017848613614232036,0.011610264343380368,-0.023330011280793442,-0.009161903183981433,0.0049971235752409495,2011-09-28 12:27:07.324573254,11.091045508
49.010972153272114,8.418037381097069,115.32369619257625,0.05995487488415261,0.021965036605644875,-1.614942053300054,-1.904192868495954,-0.3240140921937924,-15.816592950500652,-0.03657706238186387,0.6247359076720054,-16.763978615232144,0.24385088569326557,10.52644073190589,-16.290439742107537,0.22288845704905466,8.662150496920873,-0.0119082952685177,0.0018097474332774382,-0.007423077155968836,0.009194974758057835,-0.01996696478575426,0.061763883633226366,2011-09-28 12:27:07.434565362,11.201037616
49.011254661710666,8.41766190398359,117.47595307213605,0.07507783288161105,0.017864181082899284,-1.6814421530516876,-1.7255601732520793,-0.9298304737743031,4.441297225259136,0.00605699368723665,0.02093498415442214,-0.2172502490821928,0.3831338801372219,9.80688753286764,-6.461022413677396,0.12193454822992042,9.236766015702143,-0.020578788412331097,-0.04175024214326278,-0.003347002029056449,0.02064767930774087,-0.04885222932530494,-0.001473062520944917,2011-09-28 12:27:07.534764827,11.301237081
49.01145738110081,8.41797659914773,115.59595488070337,0.0506241791517236,0.017902114490725207,-1.6478916895583258,3.738036958744278,-7.606468568360709,-23.243609447795325,0.09258269215275489,-0.033916651528399594,0.3754836944601113,1.3005839033281248,11.081466121884052,0.3286836796415623,0.010819107539321901,10.613027375169283,-0.20491442427361795,0.015235684794066912,-0.0035771246825637526,-0.04499881494326046,-0.20014485118930986,-0.0018112686239836369,2011-09-28 12:27:07.634595703,11.401067957
49.014968282447896,8.418053451542756,115.55470028331602,0.07381162606945205,0.006276864850134582,-1.6246535249146798,-16.923504132942146,0.5416765598789656,6.764490806332695,0.025266461727984614,0.014722677126312712,1.8588568420614446,-0.5528749294703954,9.115461134292888,-1.6363496475929011,0.12656606515038357,11.277958039371534,-0.01173384931712586,-0.012599146565863662,0.009056549520690842,-0.02463199994409762,0.006080590809761157,-0.011648097686107943,2011-09-28 12:27:07.744592123,11.511064377
49.010647393427114,8.418076622274471,115.64139390842207,0.04805772721284283,0.021571783719153127,-1.6256890751819562,-8.686958486785237,-4.832255747376709,14.890303314900919,0.07026979710426766,0.057210157872531815,-1.7483045950394192,0.29680873279994296,9.60499675157883,0.9397296080139523,0.1560086694520826,10.27814866613307,0.0041199777160920185,0.0046837240711024,0.04639363277684627,0.022403313741750964,0.0010820651481738477,0.0014095962899450996,2011-09-28 12:27:07.844591126,11.611063380
49.01194932064696,8.418019593704702,115.84496059662904,0.028294556874227893,0.02272010670541367,-1.6170114072051252,9.203697285837052,0.01113293795895173,8.307597945793159,0.03328794650206526,-0.021167779511902445,-2.3148590468568795,-0.01717044512068633,9.383419424363275,29.791323504092972,0.0130105373150213,10.084122585491468,-0.006280828231399041,0.02983865724371803,0.0012651154747162913,-0.05982855880671701,0.03815017842236008,0.014321114177617418,2011-09-28 12:27:07.944605696,11.711077950
49.011149960598054,8.417966841052241,115.35477451249334,0.012375690531971763,-0.02194802844954445,-1.6006800418139695,0.16942270440898421,0.06885458356892282,-8.571671432823578,-0.038852646912108095,0.0020280162243898185,-1.2723669944929914,0.5059229796013038,9.562148445297082,1.1202297708609739,-0.2984636669441365,9.328799937634267,-0.017391547189445692,0.01089063770847768,0.05775035593776166,-0.04045986329462234,0.0074374609672746405,0.00945267603630638,2011-09-28 12:27:08.054869072,11.821341326
49.01100065069774,8.417889418482572,115.51272817760872,0.052112334516930287,0.016800728238002098,-1.6572749932177322,0.1136962924868695,3.795652991464413,-13.137164901198085,0.06787386733838174,-0.05159251472383701,-15.100850342321296,-0.16236711099171497,9.172301314839137,1.364463362048865,-0.1403263341025503,10.078887563780123,0.00250134642388263,0.035823599152822926,0.0027605608163558497,0.0010964236878200696,0.006845321773626253,-0.005020791095321219,2011-09-28 12:27:08.154672382,11.921144636
49.01123950512229,8.417968994075533,114.85945302259545,0.038381985930755966,0.018662132880536822,-1.6487937598346292,29.588464858095893,-10.0032010172633,-0.30526434745224346,0.22570917379063354,-0.015119818892165923,-0.5660298823611821,0.6238703581254027,9.557513481172247,0.9898047711169865,-0.11034543111224636,10.786181918317089,-0.011938156480564278,0.01333329908200155,0.015934549697441368,0.003160834678391705,-0.06013184292194052,0.005642652617451411,2011-09-28 12:27:08.264635470,12.031107724
49.01062684319719,8.41794458758454,115.56629378058193,0.049236862395371776,-0.017170051247386298,-1.6314206228525396,8.074062852515075,-3.2714235518938963,-2.423363921721568,-0.03334868363140705,-0.2370010347615643,0.5068529514776832,1.7974396143347389,10.281802892397467,-0.12058045378021595,-0.37460967664660944,9.923683068827605,0.003153505209984323,0.005952109521974592,0.010243842372680584,0.023466931550783124,-0.01859017211635246,-0.003278442802611555,2011-09-28 12:27:08.364634034,12.131106288
49.011770358181465,8.417922243214157,115.2995203185243,0.0329641906025796,-0.05467128677356905,-1.6475710437593258,-27.287707516626572,1.5660640386952445,-7.100721940835343,-0.2197767010589065,-0.06409858607698643,0.11887043821163762,0.3000229933782431,10.217063403853047,-16.28631202932023,0.5198266945125012,10.45902312961025,0.08051188095232774,0.002589442704152277,-0.007300696978747761,-0.015179089283942512,0.04154763385862586,0.01914010704360591,2011-09-28 12:27:08.464655107,12.231127361
