lat,lon,alt,roll,pitch,yaw,vn,ve,vf,vl,vu,ax,ay,az,af,al,au,wx,wy,wz,wf,wl,wu,timestamp,rel_time
49.00886659399973,8.417826858964276,115.09079406123945,0.021073263788418957,0.0024125997320190527,-1.635662906421416,-8.781047146631463,-0.4742817560113257,7.919753386896137,-0.07655674692943362,-0.0810151732300956,-16.993339969366733,0.5156656458259051,10.347091390935073,0.7163083877026704,-0.14370019641929865,9.97310588307032,-0.04394580831444097,-0.007327152637673456,-0.003134541423558482,-0.028528638226366476,-0.03843990645379588,0.003589469714774733,2011-09-28 12:26:56.233527746,0.000000000
49.01171064065882,8.41796449148535,118.14891327083876,0.06768076291421589,0.004819972032135597,-1.633959132667736,-11.948050527706412,-0.5727223452745722,-6.503082499048505,-0.0662271766681474,0.038573838942208484,-1.2104776725060287,-0.7335912799953113,9.679330250588784,0.5310054816403316,-0.00432936020634773,10.140452748995656,-0.02678585328128194,-0.022640608402259628,-0.013023216301825081,-0.005843838893433893,0.007690250267824357,-0.003055321059517845,2011-09-28 12:26:56.333491894,0.099964148
49.01293556607473,8.417986277390197,115.26827789604984,0.056002418573538895,-0.0013492236554135673,-1.5844791948872448,-12.839808219583865,-1.4246878899734274,1.180436424219847,-0.1495399141991849,-0.010870904896359161,0.4235491009427064,0.05574447921623016,12.9653308957684,0.9137027686928949,-0.04849294485491833,10.459826426566083,0.004660035219153511,0.011463269027777835,0.0041147391816029775,-0.020199001106127063,0.007536543317455664,-0.009738518931347306,2011-09-28 12:26:56.443536100,0.210008354
49.011476538401034,8.418063841232765,115.18488157312663,0.05422980097650097,0.018912005631444323,-1.6588434464692798,-8.366008645893444,0.29987415384511684,21.02365613188167,-0.048828866889379555,0.08447895172605384,-1.8329686981094118,0.49798798771857244,9.401983307868774,1.4497109558719703,-0.21333124555566563,9.199103424741041,-0.006326045637242235,-0.04157282594154157,0.0009232095985208001,-0.03749086492992788,-0.015251961588915532,-0.00018839515720551602,2011-09-28 12:26:56.543585625,0.310057879
49.011251309894405,8.418009449565998,115.72232446775965,0.04867881378176951,-0.015912767905571203,-1.6668123624005329,-5.538999032669116,-4.450848790967915,11.885448202906995,0.00508327826905404,-0.13559543912162295,-3.6492981814968855,0.2451845625345368,9.646129848059234,-0.9507842320121929,0.16079285512996902,9.999506119268732,-0.05748393695060506,0.022936880404988216,-0.005521559932697744,0.010956579636781242,0.11975900852416974,-0.0013210387851851145,2011-09-28 12:26:56.653532376,0.420004630
49.01132078372949,8.41769778934262,115.57610897107436,0.04397783774304547,0.003750429325827616,-1.64332553146817,-19.939345083928078,-0.6395666792127177,-1.5347252024805726,0.0806439088230716,0.11996224336322997,-9.01008139890064,0.4293243068024034,9.864209091334192,-1.1848744216493734,0.2651049951850382,8.846002167113054,0.02885892959260567,0.016729132387614747,-0.017005192149605976,-0.023736363902777807,0.06359148412584821,-0.006519576670183278,2011-09-28 12:26:56.753572489,0.520044743
49.011261620734885,8.418085266340633,115.03351540702067,0.03639742396509024,0.01011066712469047,-1.633203545178497,-14.906132531342958,-0.8037205172348527,30.602603716678374,-0.06029599623930692,0.07131310799069944,2.5365011856041924,0.8158405744831736,10.662120102493901,6.9899989019642454,0.5624902795126031,8.232833094189804,0.0006890767183411624,-0.01104850943639216,-0.009104364798522706,-0.00779808588935444,-0.17035210625967137,-0.01031092677169256,2011-09-28 12:26:56.853543788,0.620016042
49.01188887384952,8.418078615712064,117.00967265659035,0.028799055293665297,0.016635924163736653,-1.6507170748302296,-27.165369664518092,-1.5450410015692586,-67.04108969158005,-0.03618572772676637,-0.0745250282523626,2.541289749507118,0.2968986693104446,9.62474503732233,-2.6346024062445346,-0.13094652936039336,9.79962245588207,0.02438193088557037,0.021118291393530754,0.0010299368167501098,0.0247988578317154,0.09231829114029817,-0.006234746988785279,2011-09-28 12:26:56.963578900,0.730051154
49.01136231100362,8.41801732938035,115.26592656774156,0.13543853157587243,0.012721197100476348,-1.6119608749273213,-43.25127163687364,0.7467935955393652,18.255863819701133,0.1456870704620185,0.06304553378075028,-2.6978947355762886,0.36786750059622747,9.649595884758284,0.359885288618296,0.03547048366881937,9.127899170344588,-0.0009209589845954854,-0.04483192508992293,-0.00867301149180612,-0.015516655123812742,0.025836832267534905,-0.003285732869150336,2011-09-28 12:26:57.063774129,0.830246383
49.01148464836908,8.418059764513906,116.02218764511542,0.05037891284635317,0.022273603488950102,-1.6661863495232674,-6.453356727878611,-1.548113685020386,19.537601591842925,-0.07951626291965684,-0.038577845019628604,11.34920950103456,0.14881892269356078,9.621970377752673,-0.5383979608299869,-0.18458097460638095,9.893719799247675,0.04806630493308946,-0.04045702918143914,-0.04805385780370027,0.1349140630645861,0.0036817068418747937,-0.014784282235385603,2011-09-28 12:26:57.163550569,0.930022823
49.01144309777157,8.418017013376545,115.33899580491043,0.03209037051315616,0.019755006370407047,-1.6579578199236318,-15.43352019807447,-1.3688119624984059,16.315351579682176,-0.10986950868175349,-0.036305227139313945,-0.9850186024737334,0.6179724845195093,9.695804973740525,11.069166699054682,0.18364700979185122,9.51425705849657,-0.08988131630531591,0.0932245681506964,-0.014758134197620263,-0.007641906763084457,0.04511900031896937,0.00149607962696821,2011-09-28 12:26:57.273579679,1.040051933
49.0120165102553,8.418010864231832,115.3100469816373,0.05288728527820631,0.03447926372590234,-1.6522665327283794,-19.688769811214904,-1.0654103838817983,6.244557008670579,-0.15153215922992597,-0.05597901010190799,-0.5003768181434599,0.371106107963815,11.86961181687202,2.2944753137214766,-0.2663513157704002,9.422148654476853,0.02250557081494469,0.016481895244664042,0.0022442190399189774,-0.105739224863211,0.04546169508159817,-0.0005447070015914129,2011-09-28 12:26:57.373597344,1.140069598
49.01154805957147,8.41800835701893,113.87156565380343,0.039197576703397165,0.030173432151056903,-1.6352997743078233,-5.226150434565558,-0.5685512416831399,-4.452001275263392,-0.0949942907130003,-0.5642001595202035,-0.3412775021803312,0.19074987901263066,7.9287756207994775,8.66933149510562,-0.16648407798723672,8.59802716672913,0.026664588291408484,-0.007821811955704673,0.0038823233310737674,0.016498624019784972,-0.0020509925531542977,-0.021294126325651166,2011-09-28 12:26:57.473661315,1.240133569
49.01149233689305,8.418061873255224,115.68373766391987,0.02717541049119496,0.015947759338115968,-1.6429260085006874,48.32900003422578,0.2351982541803037,-53.09740298501275,-0.007331167402572135,-0.2571562909052083,0.9332123352536785,0.33852106815069305,10.448280557979253,13.149779746347255,0.6125743383525399,10.499320696291377,-0.029652264287653444,0.006879500552124329,-0.007531629090615513,0.023834905565714284,-0.053042731064066574,0.0035520872819011185,2011-09-28 12:26:57.583688333,1.350160587
49.012387665963345,8.417874324416022,117.13715069704513,0.059359358681158256,0.021713774542545614,-1.644711252960416,6.975799038600103,-0.11653547143185627,8.000198798929187,-0.04883357179952294,-0.1420960798182301,-3.5320815271448684,0.27679594084430115,10.799840223997323,1.2805452617487683,0.14435000785543473,10.228157158676868,0.015805659502050325,-0.03300203810256069,0.004467261641369676,0.04156910733430775,-0.010168892908670278,0.004381776306672857,2011-09-28 12:26:57.683612602,1.450084856
49.01185403246634,8.418038396001384,115.78082937415583,0.05632523386184332,-0.016293257400097547,-1.6342321109053255,-18.818486473202988,-1.8671675294346861,28.42332033299919,0.02118978982888594,0.00981024036553866,-3.1240486529895537,0.6733043637856992,9.753546241567548,-1.3288402684422629,0.15926219612492545,11.761236177860333,-0.006896444179227444,-0.006601188593983991,0.003400987879153135,0.015625995376171865,-0.013593772216545168,-0.004171666360722118,2011-09-28 12:26:57.793661348,1.560133602
49.01163401484115,8.418064005829775,116.68730515194072,0.04557029438823035,-0.02946596744387874,-1.6366743693403354,-24.284620778392007,-2.2543447320767815,30.10414753574643,-0.12055584381949849,0.16231855334876372,2.8954123059268606,0.9689428024305875,9.31581547538758,-1.1320286401762059,0.346728058226252,9.895945735404093,0.0010340689442009518,0.08964148055683092,-0.006370476804393496,-0.031249138924059623,-0.015388727245592934,0.0022549095512621594,2011-09-28 12:26:57.893619611,1.660091865
49.01107285657299,8.41813894773899,115.16075951664538,-0.025960490191302574,0.022033273037114297,-1.6309721263291999,-4.053436684738804,-0.44594691190522284,13.020041257129813,-0.2983563006719098,-0.09480485796181656,-1.19740420280207,0.21387394814770228,9.428968344786608,0.1807686088758647,0.08342433770610708,9.42380294446005,-0.03657800051359208,0.13480307535832692,0.03827950477313144,-0.03372273857627105,-0.006215280336835206,-0.002649631284083658,2011-09-28 12:26:57.993649633,1.760121887
49.01144418834845,8.41807241620953,115.58591574207206,0.05870323819000755,0.01816919773324188,-1.6670347260025982,4.759169187124497,0.12423690148372579,6.98030843536689,0.21588716251892892,0.09757364818545368,0.9730714895825582,0.2360328184055863,9.770332777413268,-13.300569131119586,-0.25178667862669296,9.694227346719325,0.01776452204716292,-0.0236433631693106,-0.012647990595513862,0.012880427174303145,0.018857419361584013,-0.000246854567793095,2011-09-28 12:26:58.103766710,1.870238964
49.01121198833382,8.418033905192676,115.5006816005469,0.0660140255706112,0.011790209102647806,-1.6586378816068352,-6.295373056493613,-0.5864533588841309,-13.935773104608502,-0.13830367480374745,-0.2188758877229045,8.967816744210062,0.4074892217970072,9.55449022394865,-8.00599768017958,-0.43284727209269847,10.392043981483988,-0.18186861053341183,0.017309516047000744,-0.028951677021953635,0.005336267808311346,0.01092963837029064,-0.00666797695143177,2011-09-28 12:26:58.203726362,1.970198616
49.01158779254779,8.417986348112743,115.55453984131645,0.05681302575460297,0.0095985927397961,-1.6563824918282524,-6.3730824056257465,-1.90397743303927,17.757984798211226,-0.05298350728200331,0.34625422354291846,-0.26575313972817083,0.27819847993632535,9.989976299123912,-11.00660182463626,-0.02503278861965478,10.317620920169444,0.003996273777840247,-0.02134956287431377,-0.06625134529986783,0.11561853104632333,0.07023349541211127,-0.0005821969234519418,2011-09-28 12:26:58.303685190,2.070157444
49.01196676935058,8.418015769836137,115.36776454609058,0.05754374609433317,0.008468381742335608,-1.6722556388997014,-6.426403774515512,-1.9436963522802477,24.343018852770165,-0.49143357359494433,-0.06453001228030614,-2.282550329494719,0.574518373281872,9.89113325083351,1.112856696281357,-0.04986647486006891,9.753742852853538,0.018231806194936046,-0.032058261792426226,-0.008711523079484496,-0.019916052564265867,-0.05000139531571261,0.02649178858700468,2011-09-28 12:26:58.413702866,2.180175120
49.011128324264234,8.418070921222625,115.39198241343063,0.07151625620160404,0.020412187180222436,-1.6289152254278245,-9.028016901214157,-1.7394382195051197,21.855491902551154,-0.05110189866065035,0.039444170525044064,-1.0702167462017578,0.5754475099766605,10.280776079506568,1.2017496512878254,-0.10713489374236147,10.623162114738536,-0.005658195955842965,0.002645716162719973,-0.00994236573221315,-0.0015129210685630116,0.10457508566567189,0.001348853984648484,2011-09-28 12:26:58.513921229,2.280393483
49.011849805401155,8.417978974174257,115.9077869860427,0.05606639465906373,0.00318371941490774,-1.6454451264346346,-27.006643326773077,-1.2235186719586328,37.66680461026772,0.40269730197957726,-0.014804864019507615,0.6877521816573198,0.43897528594672547,8.752794616420955,-0.08276183192665576,-0.1816858843080365,9.263672011267172,0.025984788272366825,0.009691316334780358,-0.007503021903773391,-0.019196483661742245,0.041092651422751585,-0.013244760472592371,2011-09-28 12:26:58.613752048,2.380224302
49.01136030670663,8.418039000366187,115.32746473842856,-0.02561645833782278,0.010658609020096129,-1.649819322890632,-4.7292691168660195,-0.42740788892516873,21.92446171732561,-0.15843957401382197,0.006952020866187937,-1.759358158199066,0.09882850417771394,10.21034199562721,-0.7803744023263748,0.03974770421550541,5.964853296881099,-0.014492103439539439,0.05211919674479969,-0.0004414900282130722,0.011330841596153026,0.01840571828655654,-0.006313813585023396,2011-09-28 12:26:58.723742913,2.490215167
49.01135539718955,8.4180714074966,116.17834539387908,0.07095530058406568,0.004693739360513895,-1.6451867967595928,-9.509051951069349,0.44485188070442916,18.74000946688152,0.1108237067363796,0.02466422003139717,0.23721967187843507,0.7899476568788989,8.87861621739118,0.9415248508329361,0.4525743119313242,9.451122999797077,-0.006076711514268202,0.013605892990648337,0.00244707000789091,-0.14234666100815688,-0.006856579886256508,-0.005217878257690412,2011-09-28 12:26:58.823737637,2.590209891
49.012487315917774,8.417945259116538,115.47391199920011,0.06101942800554344,0.006310579895045076,-1.6496399101454662,-2.8980496587256175,-0.26981408066239365,-37.88075643216612,-0.16282178341191866,-0.02076820951990207,0.4765178839288358,1.2897844073406546,11.804845883004567,-24.109221265280734,0.3141811172531601,9.866284684438405,-0.03759020294235196,-0.018082353870134158,-0.00256649782263878,-0.030261852274604182,-0.028189459307747928,-0.011441707714642112,2011-09-28 12:26:58.933783335,2.700255589
49.01009348190387,8.418118453442604,115.7289758156766,0.07252040845335131,-0.01087996358275536,-1.651249544223087,-0.07918887364234983,-1.8066189526628116,17.630165874460804,-0.17001718206647998,-0.1539169461257703,-1.694713668265718,0.39656078076619933,10.153623343513743,3.981946735833341,0.628959426988597,10.896991108052214,-0.011585488953102402,-0.08518127718204344,-0.0018543637528931926,-0.01693206811761971,-0.058822461604300456,-0.005374051689754447,2011-09-28 12:26:59.034022732,2.800494986
49.011956274588464,8.418042268626493,115.34933408825813,0.05116718803743187,-0.0009370609517785665,-1.8044918753937962,-15.49921917766125,-0.6056116035082406,10.13614225164171,-0.13407467082062954,0.08636482165767824,-3.4683162175443814,0.7094610566470906,10.358992945824273,-0.6658359585018768,-0.09597161318168845,10.107947832044301,0.036448000583253384,-0.0030845943387192787,-0.01863880315072814,-0.009635089494590915,0.07940434928679706,-0.024384526480677928,2011-09-28 12:26:59.133779917,2.900252171
49.01624795184693,8.418044331752032,115.60126000756264,0.06775804956258179,0.010250956369205822,-1.6436636467228982,-12.568327377451256,-0.17260269034816111,4.336215783209911,-0.07251262056655428,0.14424968776067043,-2.256321053401149,-0.6132229131145742,9.253137572255259,0.8777762891761105,-0.24220876427398022,9.726242276191522,0.007376956470916527,-0.0055082235561138785,-0.000485450001237139,0.010746218198579087,0.02315515502673298,0.0012580028635267582,2011-09-28 12:26:59.243784998,3.010257252
49.01134963576927,8.417937848686753,115.46502892355352,0.046764978550854513,0.013778776481521758,-1.6788031099949083,-39.00155614757961,-0.9223711998923895,20.683143018289442,0.041735158850603124,0.041429205691243864,-1.876406618044593,0.2072838231214224,9.978880558935847,-2.488186406587859,-0.25844103933158835,8.981520912150641,-0.014491521889324267,0.01790708684158624,0.0011828287590126246,-0.007299559131867771,0.06572560668304137,0.006955303434305058,2011-09-28 12:26:59.343770947,3.110243201
49.01056305637854,8.418039055744835,115.479104837496,0.09651265404942527,0.009836276967052658,-1.660613837129025,-3.7453884962431996,-1.6461295932260878,11.564952711910756,0.1003619880966315,-5.852751290136293e-05,2.2793462518101952,0.3317552050622412,9.888261913814366,1.034237509890258,-0.8797160039348454,9.836564907078136,0.012814382525626881,0.024182300490230547,0.027986750146074157,0.008641683233553975,0.028394466083599527,-0.0033519406265042355,2011-09-28 12:26:59.443835044,3.210307298
49.01143744600047,8.418029272470212,115.96880583680507,0.057001871776047985,0.002228182786279299,-1.6088722127982722,5.65173155269229,-0.8957908802312101,31.96098725598968,-0.040793482528379596,0.025654155902118822,-2.421641501865546,0.684331768537461,9.433309242530763,-0.14210686385233334,-0.1107311106955898,9.368221886282313,0.006648248455903634,0.021121125048755685,-0.0031496073787612446,-0.0228396093456088,0.04049409833243438,0.007646110253911165,2011-09-28 12:26:59.553991874,3.320464128
49.01145565133085,8.417905038267442,117.0248461692273,0.04847374046887534,0.025089853187684925,-1.6497478492901285,-13.72825583297196,-0.10369098758590323,-4.3654023913301625,-0.1436618882529837,0.0164302640732664,0.1300622921362825,0.21061816287344115,9.452727918350986,-0.051810576615337944,-0.007176655002380475,9.805862292462777,0.0019555690548058273,-0.0018419961468531406,0.007689752975541159,0.0054882439038085535,-0.024980811415353292,-0.03838720358409091,2011-09-28 12:26:59.653843215,3.420315469
49.01108008553354,8.41795489346619,115.16536508413412,0.0413706540763156,0.007259188172189277,-1.6467065603738937,-2.838607506751462,-1.197447793699276,18.86960080679598,-0.1277283263935332,-0.005214332718948972,0.8808295996582991,0.2727907545962948,9.610219337231976,-0.05283438409644747,0.2454588249543913,9.92687927269215,-0.01833475117434661,0.34071036531775756,0.0071261855124576156,-0.18009382813703947,0.029529534393178965,-0.0005290265992043595,2011-09-28 12:26:59.753860752,3.520333006
49.0119031684103,8.418469457109907,115.36595287325764,0.042538772594011794,0.015478545253238864,-1.6654835488675925,-11.654587774794166,-1.6928403933263385,21.46296257575888,0.5982158758507506,0.0004600530621413565,3.637779253272143,2.3272067517828527,10.185184953738457,-3.4235214016620295,-0.25193459725556555,10.656001472219522,0.0027634323574245194,0.03528966598238254,-0.08559083631683279,0.008930385816783761,0.02061450366529885,0.0056489098261313635,2011-09-28 12:26:59.863874396,3.630346650
49.011160232336536,8.417918934517177,115.5699190967842,0.1820867071478627,0.004006373717498501,-1.6056408496913166,-12.859160587639208,-0.13212196465546155,-20.8230925481764,-0.15246699039743758,-0.03727843321864391,-1.4513962243765848,0.6069058719287671,10.516590963298237,-2.1400060176688775,0.1518073323110599,11.515143868363907,0.01503097564564931,0.020270183764971576,-0.0011441197464256841,0.028785120690954572,0.03431321033409426,-0.009139505979633372,2011-09-28 12:26:59.963851763,3.730324017
49.011182251637415,8.417947996549483,115.00725604236328,0.06510544070368104,0.01914301779817995,-1.6770933941864725,-13.970603405441874,-0.3511344724738926,-62.490222875124,-0.049116289677776606,0.08072976904615109,-0.06774619380702829,0.6624042573497021,7.486995803977976,1.626848387941548,0.37607890395481347,9.780061020459723,-0.02124809568536235,0.04769854184971131,0.012069823993099138,-0.026102860126598064,0.029999638061466348,-0.00040861060159079346,2011-09-28 12:27:00.074028412,3.840500666
49.01139158263209,8.417993288526139,115.39312344103321,0.04228063597364341,-0.01386395688007504,-1.6407144591007532,-4.75443031200095,-0.3953386810728664,-0.32062137639087673,-0.029309467247017044,-0.3855520522584143,-0.19054104155795737,1.7678647738379558,10.995312775951527,1.4902086474713687,-0.10780275329354239,9.77781781441715,0.010751124458848151,-0.005992074293110349,0.011123966635732736,0.11142192938469636,0.005445628154063225,0.002297920094085402,2011-09-28 12:27:00.173996786,3.940469040
49.01071149774779,8.417843247547253,115.39009892424485,0.05731186305309621,0.022922712921261607,-1.6599577860146957,-1.0673648334298882,0.5782681337445973,17.592267927182156,0.052553434220269604,-0.5639954542166071,-0.07506829466065335,0.4919151782242944,9.964874295139149,1.35438818857382,0.09289950148274048,10.70737607090269,0.023211853151141413,-0.023426630223124682,-0.02762166911711015,0.0010749316383592451,-0.18287156758637102,0.009440270041302717,2011-09-28 12:27:00.273894473,4.040366727
49.01160736840613,8.417942341104478,115.96949817054553,0.04098776611918553,0.007414570060095322,-1.6263545622057256,-6.331155040291316,-1.982070436470005,22.85503117098743,-0.11026051284866185,-0.19786502811078144,-2.247622681013861,0.8788263144304381,9.35445627614508,-0.9608917327359904,0.15290330286068285,9.596934258252448,-0.04006969702280362,0.0031523373791310493,-0.006425435649247409,-0.003795974211099569,-0.002654598225691178,0.0056113776643661635,2011-09-28 12:27:00.383878828,4.150351082
49.01082792505903,8.418025246547511,115.40807054973395,0.1189990424704441,0.002159708685663694,-1.6638643907582187,40.546885056545214,0.3346252670314389,14.507500084710788,0.03951033824653266,-0.0724618442466374,-3.0537831758631713,0.07327624901689447,9.740806168041644,12.35747934643276,-0.06477473056447897,9.646953377548975,0.0054741719895717135,-0.017897657630382768,0.0022003947484398635,2.598259541920485e-05,0.01253779839649586,-0.001522202554575039,2011-09-28 12:27:00.483881081,4.250353335
49.01058102110744,8.417988495769968,115.11225905735,0.041492053108368954,0.017744156631791984,-1.6431392416477406,-14.034484833270167,-0.39803562022846195,0.968646268771673,-0.04819232453352909,-0.30577194914508865,0.6316780617874327,0.9633605616471256,9.709381398624238,-2.066716979748934,0.23704885346331672,9.996250986871326,-0.014531906669164355,-0.2769081043867839,-0.005270033133592902,-0.00136430177689666,0.020647527093996997,0.015029759231232107,2011-09-28 12:27:00.583949445,4.350421699
49.011200569809546,8.417969968955939,115.23499124379539,0.03789957086319779,0.012865404210353797,-1.6796819655033934,7.216869221920863,0.43807039959822114,25.347722685760836,-0.14810553516605993,0.037643916120532916,-1.5989212668941482,0.40892685616309354,9.97552387749894,-0.04544454797619246,0.1453777348045033,10.950956163893322,-0.021122305363666022,0.015872354373218746,0.00714666445846918,-0.041342177940259316,0.02034544253108105,0.01720305773594794,2011-09-28 12:27:00.693912003,4.460384257
49.01157419562869,8.417969868153033,115.3986387814747,0.0267210417483146,0.01861349396774059,-1.6563950876664166,-17.646732457885697,1.0620140794031387,10.21419747612843,-0.06908592804428064,0.1476390508283527,-1.4699516941354587,0.5120371085656649,11.480952945100777,-1.7302791910221293,0.5306733689135821,9.278903466537418,-0.028683577462510237,0.013772480299843418,0.017731108170952605,-0.007679916344865067,0.025454171747430355,0.027995354925398185,2011-09-28 12:27:00.793936283,4.560408537
49.009020217993665,8.41796833229431,115.6497623304568,0.03092024250410974,0.004862029088987153,-1.6184449232982328,-14.332524277313865,2.4805122457713296,2.5104795219284677,-0.4864427045372295,-0.07343803542850688,3.694337411603737,0.5300772508985973,8.923976107323835,-10.898776579522188,0.2676945972418984,6.849680251120356,-0.017837351753177376,-0.0038444558330606214,0.005762245588790872,-0.005414851678991632,-0.003596236189277421,-0.0014526127648190586,2011-09-28 12:27:00.903950402,4.670422656
49.01095928983819,8.418008248496367,115.69546846449668,0.025562386871434993,0.01832604032788029,-1.6819448029199715,-13.488826271029051,2.876349802276661,17.073305999019524,-0.01102265512675897,0.2046843952028716,0.43430276655584454,0.30954960901245154,9.587965257516815,0.37340624558352675,0.4474445155105333,9.620629170386534,0.0015116163489870028,0.03781377536315901,0.00867678603767129,-0.03815031783456696,-0.07424594704902061,-0.015355238604426131,2011-09-28 12:27:01.004212992,4.770685246
49.01110868492802,8.418049498273936,115.07091853785647,0.04373330231243644,0.01705617306464576,-1.6558131175856805,2.1162286931031655,1.4684741300569812,-11.193691415018485,-0.07621581495300532,0.022941539942703284,-3.249438493758691,0.45375176074097745,9.670827585019056,0.13726362116557644,0.19444283143647598,10.690990772377438,-0.033138247791372935,-0.011471515962168347,0.006544568612094939,0.036673376523925244,0.03034507865485367,0.012713252503815563,2011-09-28 12:27:01.103986475,4.870458729
49.010916252767814,8.41802532266483,115.56067823160039,0.030211843485146425,0.007461387079558093,-1.6580853720572049,1.1399993201955212,0.031300836826767986,-12.565772806104516,-0.10197038383469756,-0.0002939010762131565,-2.2396783147339714,0.08898387638395959,9.87866841885171,-2.688224468113526,0.12147973023808584,10.658848556627177,0.0074267947995300745,-0.010124393981356186,-0.0033410445036678024,-0.016693259290871988,0.007515518319982551,0.011757826374427797,2011-09-28 12:27:01.214010292,4.980482546
49.010731237974376,8.417970179503898,115.49462828967091,0.03902094550224824,0.0247124692371746,-1.630851304366975,-90.66485182201639,-2.8163992681188312,-6.431955495054018,-0.09789358205807062,-0.027836797543376812,-1.9560430274853033,0.39449550747451423,9.873609628988984,-1.5125448871070049,-0.237503645071736,10.594732836355508,0.035633348326147986,0.04093716232229262,-0.0022751094907173287,0.05531235185591473,0.02797722906215821,0.017584932150020077,2011-09-28 12:27:01.314000823,5.080473077
49.011680860110346,8.418006649346266,115.12152950217317,0.02238322946698504,0.023550390636797713,-1.6266908388376033,-2.5718863504992653,0.36957165891729826,15.929446394769299,0.28371075028247594,-0.05908309542820893,-4.7885294627443695,0.13267107013870316,10.026439416962138,-3.854323326077637,-0.019160067558976382,9.035705832219373,-0.04982396461182041,0.05264920359408522,0.06652999660307583,0.20442988419096042,0.02589637924820671,0.009874430528476044,2011-09-28 12:27:01.414000601,5.180472855
49.01163712778982,8.41804974831176,115.71889368121217,0.03565918701647893,0.01583615643003471,-1.6416935379833022,0.8374427354802805,-0.7461031337995634,24.590061635792498,0.00098389468148221,-0.02212207704102517,-0.811619459877805,0.467089628095413,10.068302629429354,-6.033132646653182,0.08363228274260308,9.350127218809984,0.007000689319041556,-0.029481645504168586,0.00371876547236678,-0.004180580161306159,-0.013724601352137497,0.016049200568270257,2011-09-28 12:27:01.524340510,5.290812764
49.01087396342877,8.417930152925619,115.2533367698122,0.033400349151900294,0.00954177331180102,-1.6373826764239328,-14.331108125192884,-1.2761734467122339,-9.952643569031121,-0.03496965367868112,0.018036634627539756,-1.7194954664068152,-0.6208238832009428,9.76514908046057,-2.8774380902556254,0.6766803177385273,9.568403436202205,-0.07327680609853124,-0.029507507973107385,0.012374045993295328,0.0067541950890492785,-0.003970926445094378,0.0005525610442618737,2011-09-28 12:27:01.624035231,5.390507485
49.011199859447245,8.417955000123193,115.67079971239,0.021089826234006164,0.05874651087751665,-1.6539123363857413,-3.694514249491074,0.34776552657531484,9.169396201687888,-0.7727186840338461,-0.5424191016633539,-1.752482114997132,0.5584219193700515,9.95256505821829,0.3444827497396563,0.10056621540914598,10.194270611965385,0.008083975474743873,-0.0037258382604717297,0.006988196473307983,0.08860777935615247,0.010041248935989651,0.00855553423635242,2011-09-28 12:27:01.724069688,5.490541942
49.01014723177321,8.417964292376105,115.40993398743463,0.027923001308236495,0.008783551579035289,-1.6365526585539745,-86.92837558595667,5.7034004969475065,-92.91423128880876,0.051858054669556425,0.08696924878346629,-2.8149937559174436,0.26326548445494874,10.41930388259393,1.3318907461893357,-0.03273897624223164,9.6554872547661,0.0554247686473982,-0.007782341336813113,0.012891254204235453,-0.03620394048501322,0.012723639345785442,-0.0014536249183435155,2011-09-28 12:27:01.834036599,5.600508853
49.01096286472088,8.418305570716308,115.70971788475559,0.04194311215357856,0.008740541704875007,-1.6616706902940555,10.446502369568748,-0.7620209745809127,4.556343204479784,-0.08077418483095607,0.055124574464136114,-2.140124804519945,-1.0021987994084118,9.893645113291566,-5.353956518792211,-0.034476427335256646,9.409949580859925,-0.004139034095565566,-0.02160029766512521,-0.013511887918187526,-0.0005459612758550378,0.16690380739084376,-0.0006931594430358064,2011-09-28 12:27:01.934048384,5.700520638
49.01182283194791,8.41797425739236,115.0791912039249,0.047478492621329305,0.015963651442433634,-1.6872957579913506,102.07983409995653,-0.06818521050594994,10.570065733329923,-0.5820453481007478,0.06638224418529029,-8.070138827910801,0.3050147282056256,8.968910938424841,-1.6766562630693698,0.038132435730704566,8.122785022433705,0.008212346461211006,-0.004199305687788004,0.012011013112456944,0.013730254459419677,0.0055664070855283385,0.00452009115860673,2011-09-28 12:27:02.044251431,5.810723685
49.01105832603858,8.418019462329177,115.21166586959654,0.05104743395447022,0.02281489165692974,-1.6695172683117911,10.704195890242378,-1.3063214382457702,-0.86008847964231,-0.3679312251994561,-0.011023581082343283,-3.45757019734553,0.12306809499758653,9.631523147615628,-11.497043808266355,-0.28669978555253806,12.320692210767152,-0.009365955901178048,0.007687239501552025,-0.04042599688206602,0.018241603458596288,-0.006665367672530798,-0.0014226046092218592,2011-09-28 12:27:02.144057779,5.910530033
49.01139569707872,8.41799016133156,115.54586373997122,0.029000013613114457,0.021647490721152168,-1.617616701040488,-11.35902194009855,-0.9164554878216559,5.723832273783207,0.005044265284235565,0.1627750353592339,-5.135635106015851,0.3488660138107188,9.940572900974063,-3.4514264258312792,0.3931982882440662,9.70655611475071,0.003341979263794473,0.008558295735664072,-0.0036846606379125867,0.013994392810801956,0.03262801260137078,-0.0009256699800092635,2011-09-28 12:27:02.244059576,6.010531830
49.01144761308926,8.417958300679084,115.66289655957671,0.004102240377171322,0.0217383572151055,-1.6310174561861324,-28.15592975663995,-0.6300087915054372,18.973731285897014,-0.07870293410255923,-0.046188240632941364,-0.9660513114468186,-1.006707179953222,9.250083034715606,-4.362518399400798,0.005636759227692604,9.92306775520555,0.01530618116335607,0.012247972643152112,-0.0019046444770327133,-0.030330578572108184,-0.009624920161962596,-0.0026329481560798274,2011-09-28 12:27:02.354083932,6.120556186
49.010993421061706,8.417981923074757,115.05883367546299,0.04629567369416954,0.002463347830458623,-1.6460101542119603,23.751131613813836,-0.020131631072667466,5.773888597454141,0.030030106650255725,0.1340950759989552,-6.346233866483196,0.23088234037849686,9.491350945689506,1.871855886037113,-0.006700837915109101,9.427088033433334,-0.002373064189362198,0.005157502879178098,0.010136174208878631,0.013691617827550375,-0.015803118300852206,0.002072610160749602,2011-09-28 12:27:02.454077679,6.220549933
49.011270024558115,8.418040205593867,115.25374248317466,0.08394705062697413,0.008598543094104098,-1.6311950401830853,4.739278045433272,-0.40632712070558946,2.731193829779366,-0.022909812057474596,0.04206178787285947,-3.5096019228838484,0.09321315949754788,9.715325095195851,0.675689595443187,-0.11796180914728446,10.205254487256163,0.005307833797180344,-0.001418698347400306,-0.0033194033847305207,0.07405122443792805,-0.016050055034610343,-0.01300536058100057,2011-09-28 12:27:02.554357968,6.320830222
49.01055077448154,8.418045113986583,115.60979310544236,0.043119570093187176,0.022328544202814635,-1.6372481764209819,7.357413654983642,-0.3706446926081779,-6.419285481852379,0.06668460743051809,0.07148978404033002,-2.4865264487371643,0.6502001752022456,9.735964432996001,-2.5733807702111817,-0.01371712618975654,13.727414670468928,0.004268469380907529,0.03968615962620073,0.017331530548243906,0.03747793038741629,0.01681568424611387,0.0009086486748788349,2011-09-28 12:27:02.664109008,6.430581262
49.01065985900444,8.417909212959461,115.86386512829881,0.0694491136856119,0.011750295480100781,-1.6548834165302062,-0.4472253555230141,-0.5136872841467238,0.9642070186843723,-0.026853774987381285,-0.05449561486415011,5.891942375637872,0.6641616307435995,10.613224973955225,-1.5701009954919682,0.02683716860545858,9.407190572802682,-0.008601002564546078,-0.021074986016931717,-0.0033810662578082715,0.0030903388567900952,0.010667066348423453,-0.007370063675579254,2011-09-28 12:27:02.764150835,6.530623089
49.010497159232294,8.417886481866216,115.17856323874007,0.040953031763219294,0.04047787773666086,-1.6387724645912394,18.338691107560575,-0.4961601073211126,8.171391363898387,-0.10849823611273557,-0.34787259866075093,-11.519913131311501,0.3111940848809724,10.219423174953436,-1.8064967432208703,-0.10916438979048895,9.470788748866815,-0.0036778383018309466,-0.017351395019849846,0.0010883686497533574,0.10524824670067322,-0.005970462113957201,0.0024896190362104303,2011-09-28 12:27:02.864108253,6.630580507
49.01092334130213,8.417999368089214,117.72116200369202,0.041659787906541915,0.016923470139385246,-1.653743593914077,91.21106780128294,0.38886617651020644,2.915728746748668,0.26823541814814134,0.32131659309801286,-1.0334404030974358,0.5186563356035128,9.214148163997061,-2.634428121885331,0.26722924258219605,10.174500845500495,0.015443960453804296,0.026486370221113654,0.010648541857376929,0.03982506056945579,-0.005884036926309391,0.007250115567870601,2011-09-28 12:27:02.974122065,6.740594319
49.01113510578163,8.417872622065525,115.65592545528867,0.035132363911188326,0.020102886830872743,-1.656193629623704,-18.72804547683143,0.5429876164733762,-106.17215380127143,-0.08459292233270055,-0.05178720210610086,-3.1138835455977047,0.1846624387080331,9.98012831454602,-1.6099727183878554,0.13000934300002182,9.8933316912994,-0.002216927638301891,-0.006377163806588311,-0.001496644222945822,0.00799102423283053,0.17870993599509388,0.003212909352983088,2011-09-28 12:27:03.074410926,6.840883180
49.01178199922698,8.417979346325264,115.53857360088266,0.05529002859472458,0.014260613919051751,-1.5465713594196515,15.33389662514402,-1.4754027832824312,2.566021262602025,0.3288912309551208,-0.1422239312177142,-9.075156380422321,0.6564602962871579,10.028339063208225,1.4245206872205411,0.36533888784466956,10.056674563168581,-0.031061702589111437,0.005486310590755411,0.02405967932997503,0.009881917100805406,-0.0052356361522536655,-0.007702244988035742,2011-09-28 12:27:03.184166218,6.950638472
49.012017976964124,8.417967467627898,115.43629069277537,0.050883629165522935,-0.013885614987889278,-1.6178049731384798,0.11435598280926573,-1.1036630661772702,-25.666920307566762,-0.07557493337419756,-0.008329147063987205,-1.0323074355114215,0.103525470925391,9.506256078986139,-0.7310034885756009,0.0017147099410900063,9.109694223452143,-0.036676689674073316,0.011248699294199969,0.004373277212145348,-0.013851861821056799,0.0007949040858507865,0.06270897621874451,2011-09-28 12:27:03.284188179,7.050660433
49.01220827036825,8.418677087542303,115.25944690220938,0.04000288391594514,0.024058216807444622,-1.5587346626985203,16.058530035806797,-1.293450033109783,10.66587362918589,-0.1240518465824662,-0.03032630300774688,-0.8847192932373396,1.7011277366491369,10.353636715304686,-1.3099822092420839,-0.07975618922813565,9.678509604972028,-0.04643752271411845,-0.015057266604783848,0.0016126315140152603,0.03012217344457285,-0.010694023055424788,-0.0026902884936139604,2011-09-28 12:27:03.384176176,7.150648430
49.013445784126546,8.41801208319408,115.71021752804818,0.05117127573066424,0.011701330514044305,-1.6456916043247047,15.33340180001606,-0.6381233054211922,-6.383534997560541,0.04818288402005686,0.0031229330654225494,-2.7111934769693846,0.4698014110271167,7.8409804493137205,-1.59064645840474,0.037116255744212234,9.423479907860585,0.029199981401446966,-0.018811638049022802,-0.004789107229715752,-0.008040304570058027,-0.024014793654259653,-0.00020395311665149824,2011-09-28 12:27:03.494166961,7.260639215
49.01212306495082,8.417926496038504,115.10763722383474,0.03328165261554507,0.03233033089787583,-1.6416515591976233,-9.06578656472176,0.6746982248226675,-7.036302234094036,0.10741503134895458,0.1973259752955402,-1.4114353602181695,0.5196285699446228,10.511210080388663,16.44401156128621,0.06010075906080063,10.13773218012447,-0.014094371529698417,-0.08281867698353414,0.007762240181235926,0.007785411273369537,-0.010108942126053507,-0.0025538897296336236,2011-09-28 12:27:03.594295904,7.360768158
49.01096588245304,8.417958190473202,115.2382800085215,0.05930760725324487,0.022091157778214444,-1.6571310758423536,-70.13172679230685,-0.4316544899572168,46.97669111665631,-0.0428881378205091,0.06568656971862616,-6.972575516794819,0.11755477463074604,9.230877645712075,1.5663220562745344,0.273666299913324,10.274734176559642,0.035109555950625884,-0.01247211016849476,0.003177231855340965,0.0067109963092681114,0.02335880319180763,-0.00800495240230251,2011-09-28 12:27:03.694198952,7.460671206
49.0109084328362,8.418289178718268,115.00794159863091,0.04009442486882697,0.04158672909347453,-1.6410942417514927,-5.574552714460037,-2.3810786444713985,16.080979431905146,0.16041982917599795,-0.2009055416269891,-0.5059311939311988,0.26938200727047856,10.00937961320776,-2.4118011346734107,-0.013314570430164605,10.369651480070809,-0.008183720366475022,0.0022078901591339804,-0.0028022883281304286,-0.025273902749765414,0.02033901102458725,0.00333019547161383,2011-09-28 12:27:03.804223155,7.570695409
49.01125974592394,8.417993738944034,115.46135880860518,0.02536081961330077,0.012871376517522421,-1.5258465940303354,35.89937304774003,-0.727060332660572,2.0791036063607082,-0.089293310064537,0.041745065631795766,-4.337361916578157,0.365720952960599,8.390092854784415,-16.43633122215183,0.25514904321245047,9.314428252175489,0.022760037515295015,-0.0023265024236308134,0.01286790343966861,-0.007930682498379976,0.01782401389168105,0.0034478173120370288,2011-09-28 12:27:03.904263929,7.670736183
49.01042355663066,8.417987771787098,115.67591454810498,0.07754724689723555,0.022925621157331513,-1.6272715465337428,24.239921047752425,1.0152010225649557,-8.899061764114037,0.539163593412084,0.09356066481248954,-10.897216133383942,1.556481557374394,9.009938215837945,-5.779450886910949,0.2786767771432652,9.499053908795304,0.006284287028605584,0.03376566915889748,0.011507005702797158,-0.045399181362483526,-0.017286621407661084,-0.010520938593329917,2011-09-28 12:27:04.004449258,7.770921512
49.01196831541284,8.41799369646789,115.53454477026345,0.06260218840159522,0.01870177989470767,-1.612467036205329,5.335621600804252,-1.0104040271674464,12.974158376420718,-0.4318001969540509,-0.05650678537494575,-0.18342209793453756,0.24883186879191638,10.399865115825342,-1.8819954795574385,-0.11182966782036886,9.987615209198603,-0.17782539625816712,-0.012260288906314223,0.017124124992771352,-0.004364675888847153,0.02073965419205905,-0.017832116237815235,2011-09-28 12:27:04.114278874,7.880751128
49.01025303194318,8.418171254453426,117.17745084631267,0.027146090150014582,0.019497354022086497,-1.6341318600026589,12.704496068714722,-0.13139559704456183,-11.858895874953458,0.01004260840653979,0.010549858016694332,0.2656752927376336,0.6914588694900277,9.883818020133287,-0.2025920509157051,0.22201125378202502,8.727501877896298,0.006841110401582946,-0.029706314870067915,0.011099115390637236,0.016308997929973288,0.003681649613329252,-0.0023771577154149586,2011-09-28 12:27:04.214421655,7.980893909
49.01074443255435,8.417976824136447,117.01655186004342,0.11658162689869431,0.017521875946140675,-1.6403886904669638,-21.2624693830398,0.3127562472091051,9.544370412597454,-0.03480814589399816,-0.03825598932150259,16.29466449348699,1.428077215514627,10.075971178118772,-4.556729210862543,0.2718309865250389,9.670141096821618,0.01611426481493448,0.006957202533948715,-0.007061264022010997,0.05928944379955298,0.037915419792787265,0.0019012394075764785,2011-09-28 12:27:04.324260395,8.090732649
49.01106491845346,8.417898541406068,115.5436114629702,0.04477324681807093,0.02346776272520599,-1.6407605564400467,22.848882620450397,-0.37797938873271353,10.183363512360948,0.05369720368632438,0.05049631659498298,-5.448897667207296,-0.1852584069377745,10.325331286571522,-1.525044755665119,-0.07596107962714622,10.249211071906744,0.01918219653048441,0.02215515047837677,0.009693047330296623,0.034906584321444896,0.09879772281176728,0.004757522634535219,2011-09-28 12:27:04.424278607,8.190750861
49.010960447453606,8.41798364492086,115.39649903110453,0.0351408221963113,0.016896481529358458,-1.6254110521950311,-8.036325036079825,-5.696053637355421,28.071268770580694,-0.09289215204944297,0.6633954431249461,-1.8132815518532681,-0.14210117405382322,9.952730532158164,-2.2731167856299983,-0.29786873150999393,10.293751052180188,0.0179852512177733,-0.015554853219879377,-0.008249789687105269,-0.009293743080548974,-0.03639590049963492,0.00262416526720826,2011-09-28 12:27:04.524616128,8.291088382
49.01080273810319,8.417979952708384,115.1226125737002,0.05587472129399752,0.02816815311013993,-1.6136971960168645,-4.513051489151084,-0.6693447330238332,3.672017526653872,-0.07858354228908915,-0.10093592740344869,-13.394279978410232,0.6309339917356849,8.635168302608474,-3.60179342664848,0.12267430214006568,7.95510831919284,-0.010981904080309121,0.02405304444349195,-0.0009694327620971763,0.014197055883504733,-0.012529082248961203,-0.003828737430766922,2011-09-28 12:27:04.634290288,8.400762542
49.0111871534423,8.418014349971646,118.10030588427945,0.05320350581930226,0.010644954012315314,-1.6551684786753915,-9.245037142128268,-3.6491677928681727,18.211161620079707,0.042859575315700255,0.08272790935756014,10.453404538240736,0.2685280175848239,9.291406178332894,-5.080684395359947,-0.06156531389827377,9.569087236589851,-0.0013847620314571402,0.15160636538929861,-0.010830073590386654,0.004263173628724852,0.02392060148109151,-0.004869123650336089,2011-09-28 12:27:04.734275345,8.500747599
49.01091371678695,8.417958129286761,115.51270196166737,0.028984811662695155,0.015346413017699907,-1.7984107625737757,17.5726581316592,0.3807111706390299,6.727664251775012,-0.0138691782678434,-0.0593485611906694,-2.420751023193069,0.4610004602777381,9.934866975473334,-0.11645459385996415,-1.2074170556982826,9.900356714983847,-0.010017951707750203,0.022217552337501494,-0.0019536484216246333,0.012449772764663167,-0.039529602918486756,-0.014090265489954837,2011-09-28 12:27:04.834313435,8.600785689
49.01080324269048,8.417961689128063,115.25797063253594,0.030195501230782067,0.01700511005436861,-1.6439542624493446,-20.63304577057969,-1.7421755632122626,1.4149580216479796,-0.3802440135285178,0.05942477884877835,0.4631274249069215,0.3721432987475067,9.674290649851548,-1.509223639053715,-0.11126852516009213,10.111992259424362,-0.005033577759808295,-0.0004433731358333944,-0.012688312334382034,-0.006614081264807097,-0.021299275165976756,-0.006507642890923238,2011-09-28 12:27:04.944307308,8.710779562
49.01147426364141,8.41796877562701,115.74439462098874,-0.02262984817488515,0.019419538759486436,-1.6258538372058724,0.9228962276109373,0.7412379420624972,0.09408316073211453,-0.015361934392557279,0.004220121032398012,2.2331732589659783,0.30761911025996025,9.665403414169493,0.32770220270759376,0.15738547379854323,9.581213299920185,0.002753483250146875,-0.011923160160029197,-0.002206038655435904,0.017389907055797474,0.009281699315922157,-0.0020334729378012734,2011-09-28 12:27:05.044564310,8.811036564
49.010352695027954,8.417900789243504,115.3722463050561,0.022965595786894402,0.00613858336617297,-1.641409811680904,2.5786569784932425,-0.9236971302232484,-12.21847720443213,0.08401599809870255,-0.04075543961032049,1.5020812947376865,0.1345969085438118,7.255777417680322,-0.03352881817485165,0.034178717228785405,10.113013414372809,0.009864419732342656,0.026531299762531758,0.0024687415262354224,0.0015453280584205023,-0.002778423153694709,-0.002561149166409109,2011-09-28 12:27:05.144314842,8.910787096
49.01073821708118,8.417916956187305,115.58179558830516,0.045367278286664266,0.029723000802470964,-1.6733238619388635,-143.751259072603,0.7304623386571474,-8.366256091212717,-0.5111520254636781,-0.031873791787594453,-2.0537319928369997,0.36489532807334246,9.755602605709246,3.5235142923010363,-0.3898277253418264,10.443330781300377,0.21498600860425784,-0.029847738893563687,-0.0016919093553591658,-0.0032588216677520146,0.013682008991142493,-0.017492530442817025,2011-09-28 12:27:05.254345688,9.020817942
49.01064244347242,8.417862827799667,115.3589993708264,0.029486581749495207,0.019327749022206984,-1.6531454054809367,1.9716184646734196,0.7063815581508327,-18.995923042360243,0.016128815784580402,0.05962616994231263,-5.2450927707193,0.8122681058369721,9.031440441771723,2.895606935069507,0.0529145645923934,10.130216377984055,0.017408013744314384,0.004890608906137363,0.025972954775027226,-0.005476134965897564,-0.0009986818538261768,-0.002601305727545316,2011-09-28 12:27:05.354354473,9.120826727
49.01064878607325,8.417899085060254,115.6360294616616,0.05282750018706417,-0.01081217148880978,-1.6682562910825562,15.885966188825144,0.026459214778147888,-15.566005036913358,-0.051305408434349456,-0.3250232262763454,2.736688405900464,0.3594956014988946,9.604368879491071,-2.4120240415435905,-0.13921368345096966,9.376053918296085,-0.008595664399421658,-0.047488992804652616,-0.005678259398966128,0.0035474317435279443,0.030296451653435183,0.008019561213700234,2011-09-28 12:27:05.464339559,9.230811813
49.01140415426408,8.418054196833861,115.71213210406144,0.038559550397965006,0.00738692267708939,-1.6677532312392533,57.602259989867775,-0.50537362315355,7.558959982298054,-0.09375626442854056,-0.0896038294011418,-0.7172348983011516,1.8828580755909434,9.448043988294302,-6.193772109690894,0.1398072098508613,9.444176441679875,0.02051213460894942,0.026848504622660734,-0.0005249849377642977,-0.004144211929180375,0.057467331236988675,0.004144417019354783,2011-09-28 12:27:05.564447935,9.330920189
49.010555368836606,8.417893715996556,115.73015027732168,0.026555490641260338,0.013335329043858625,-1.633204718993773,0.1459068933053975,0.29291829052973906,4.5639717448103685,0.03448056441461185,0.01754908695898172,-1.9423902303589329,0.1806497581668041,8.507396603603624,-1.1217831436505568,0.6068653493340476,10.132805173025968,0.019418133024382948,-0.007668951952628164,-0.006348436765748453,-0.0028948781215798513,0.044446490372714226,0.04417082144170551,2011-09-28 12:27:05.664409790,9.430882044
49.01102479911166,8.417983127456596,115.41464782182193,0.03388394949421597,0.012113828870810276,-1.6129285276551366,8.417655424830805,-0.510021425001527,-48.15136405161489,-0.9695967381414985,-0.1150540064533318,-1.357685879321229,0.5482952660686383,10.018998171588384,-3.2781672914705453,-1.160834289545318,10.269533791069016,-0.040198495573413255,0.035213305125808295,0.005467592535008002,0.04138684871216029,-0.09178811273629142,0.0039639933000453955,2011-09-28 12:27:05.774396873,9.540869127
49.01146657008685,8.417925022414899,115.65621531862408,0.04521441374402908,0.01834884338540311,-1.6723408178802646,-94.12565924336597,-0.3031491628774219,10.277092592949149,0.015295433551755179,-0.1111756575953449,-1.3505863558413118,0.21634128115044177,10.32792149806068,-0.45144791938333734,-0.24705322723538417,10.161853069070592,0.020851030080277704,0.010076715230799643,0.0055925240446516936,0.002005191029164164,-0.014115750937249276,0.0034461917386245503,2011-09-28 12:27:05.874457817,9.640930071
49.01066242976113,8.417913955878612,115.1171155869794,0.03687903329827886,0.002830222969308384,-1.6667550769985822,-7.911468211320106,-0.7959892522243384,8.42234548689756,0.3676184333472494,-0.047606205023638104,1.2362475160575368,0.3580592346909412,9.59911301943049,-5.483820969248627,0.13657941038827587,9.886912397419211,-0.01168705233120232,-0.0148169036578987,0.0012953206701676798,-0.030915562965945265,-0.017034800900366843,0.010903753390151906,2011-09-28 12:27:05.974453410,9.740925664
49.011361397848624,8.41797661038904,115.21432223483818,0.046812002911082444,0.012940894916850047,-1.657521883236056,8.121452209598134,-0.873360256201806,5.230113417955558,0.09689229749562833,0.10384807928089775,-1.6644130785272884,0.7701574544806343,10.441476008975979,-3.253522884316579,0.12237567022305901,9.223141883547541,0.04661655989668425,-0.0060078055403558275,0.0030292282805185174,0.02930443971244825,-0.016131441251048338,0.0008483446474747787,2011-09-28 12:27:06.084586973,9.851059227
49.01079438232331,8.418176455897736,115.76337118929806,0.025703860648237865,0.01860715227169034,-1.6498534524657797,-2.750094519025328,-0.22721979017866273,-27.471515565769256,-0.16211634066792688,-0.01318253791835217,2.379954827045278,0.14707359956722113,10.468095497449323,0.1704925188999047,0.2292379422277804,10.197304767725125,-0.00868782395305824,-0.041809942946627536,-0.004045366853885604,0.009368897144840392,-0.005816976913358612,0.0034043389680180765,2011-09-28 12:27:06.184463477,9.950935731
49.01075244046536,8.417918969102592,115.70881892613399,0.07823313986806517,-0.006483955097478126,-1.6310518425218525,-2.2798087796088184,-0.8598464270394727,19.868775474617628,-0.09487198386500514,0.07483244765510451,-0.28850428260101285,0.27639962003535257,9.971267479404085,2.039387414118273,0.3876362213544201,9.890708506285325,-0.05612178522729791,-0.02041532725565733,-0.019071681234255435,0.001866361922846682,0.010307812684530281,-0.0005757280234308968,2011-09-28 12:27:06.294432312,10.060904566
49.01153932461031,8.41796617174906,115.47027369250993,0.015181636595776114,0.12017395931371853,-1.601322471961732,4.7175100183483085,4.401751782635623,2.5534715229942804,-0.0566350516546293,0.00758841308839845,1.9836364511909672,0.486230298151708,9.58294050767958,-6.488472186349033,0.40286328637623164,10.20877916205441,0.004028812947711215,-0.01965801240167033,-0.019609146545317372,0.07987378967486915,0.09588736435655976,0.0024806969956064203,2011-09-28 12:27:06.394430829,10.160903083
49.01119673388014,8.417963044268257,115.54441227608848,0.06569853621919722,0.012262348461513861,-1.641613117110184,2.817625021264137,0.6044946355319496,-33.88176405631177,0.02334416839182673,-0.008972565863341116,1.0979209962726209,0.47239852272444866,9.240041930514575,-1.1353579688987634,0.04856240278287825,9.862852555571362,-0.027811482106624534,0.12006508824958285,-0.017336087497025327,0.001981301061971355,0.045505729022847594,0.008339725683123658,2011-09-28 12:27:06.494469240,10.260941494
49.010682939782356,8.4179862179366,115.93692856728832,0.03432835203914275,0.0006562668339977745,-1.6280804424286537,3.25109382285841,-0.9388242222013137,-51.14371081355455,0.010744178287904877,0.15753476438286546,-23.791555098625782,0.5735125128335918,9.904469247004819,-1.2207254268821344,0.23241736659393059,9.415117616802952,-0.0172976602723154,-0.026180580774404064,-0.0002988770232957807,0.011743851987337963,0.12447571631488165,0.005734721449814231,2011-09-28 12:27:06.604529352,10.371001606
49.01175241900282,8.41809632834115,115.54018303592547,0.05344879818069753,0.020841302798142607,-1.6142814429051908,-5.961919327403818,0.6806663774155784,15.782276009591623,0.09943350756035932,-0.4657754908069686,0.34550713872981936,0.5988301267471441,9.534663073769241,0.04575624709198022,-0.168036282933218,9.284542350065129,-0.018363628350346835,0.08953089392901736,-0.0005704006898430881,0.009370823461201806,0.04117828022415164,-0.014204630644626506,2011-09-28 12:27:06.704486151,10.470958405
49.010978426017495,8.417869297866002,115.49168390169991,0.023540218632589455,0.013047598877873441,-1.622750206441204,-1.5869296442230423,-0.23873802601152433,30.661777034832415,0.001067176359216956,0.03198104940328514,-3.080697257051714,0.38095168820825764,9.274875119347495,4.2625996312868875,-0.027026346669667523,9.985027125979045,-0.01114670600340099,-0.022551598128162174,-0.00535614487304029,-0.19529499488982038,0.05926372579107071,-0.0013328682460962997,2011-09-28 12:27:06.804482681,10.570954935
49.01043999561235,8.418050856116341,116.22822978607309,0.01334253686128569,0.00952466062476445,-1.6548043688023049,4.916772437237048,-1.5047316748333057,-34.642094841309635,0.0933242771919158,-0.06785934711600056,1.816309519586087,0.29057365128813994,10.572153692675968,13.514060703370765,-0.17139133794455585,6.610986348491,-0.0031544622605910607,0.11111342183283845,0.00471602901245717,-0.030810893237754995,-0.00594663018463615,0.0023389503532206795,2011-09-28 12:27:06.914504196,10.680976450
49.01184582638778,8.418014055192579,115.62359335132957,0.04354221556482511,-0.027623498082504493,-1.6192075980226925,-28.026567987076483,-0.036743830749333406,12.947980054860784,0.047889223134141276,0.2094272721773681,10.471302026226184,0.45147962444795064,9.805737483753317,-1.4297176475173576,-0.12631035166576318,9.969392778518115,0.0037169081069446455,-0.005691791512025654,0.0064909504626139945,0.0035873658469955274,0.02679310547716211,0.0009396953847412093,2011-09-28 12:27:07.014619922,10.781092176
49.01102945967319,8.417980628783233,115.54006884979756,0.03910611595843512,0.02156772024879039,-1.6346131775931498,5.192231752158738,-0.09537756625169681,-0.8197872002150622,-0.32858299487293485,0.023801941185197448,-0.8814401728473986,0.33331129085751554,9.72476868094122,11.66361210810706,0.3686352471538767,10.37861415401768,0.019779975030797012,0.015070173945163839,0.0002828616538275528,0.008310685500681059,0.060949877611934516,-0.001310739094671071,2011-09-28 12:27:07.114640402,10.881112656
49.011484819996355,8.417930390950739,115.92828284092509,0.08150410662466966,-0.00024345673919849362,-1.6335357683977925,-37.570939786442814,-0.6783928026577755,-3.2603197614676307,-0.38745865043717354,0.04871188405755102,-1.7647300325036033,0.10269392714407793,9.729649906737658,-0.7557712791694194,-0.13071326575874437,10.574975604000862,-0.007254675423061314,-0.04782858349279943,0.0156869978130682,0.01922348320608739,-0.0038857259938991718,0.0058407451892447055,2011-09-28 12:27:07.224522008,10.990994262
49.009448903521516,8.418034424948162,115.21090366574893,0.02357837648903183,0.010436103988789205,-1.6621127557612705,-11.715809199376785,-0.8262350719520105,-8.815795751754637,0.020437265255364292,0.029488218133084367,2.1089707777648092,0.518914839478382,10.208309579368523,-1.7048963438880052,0.12584047753489644,9.981303208861725,-0.004157674289472176,-0.014479074048483158,-0.004100363676501691,-0.06398283945673713,0.011804639418293815,0.011926473938900322,2011-09-28 12:27:07.324573254,11.091045508
49.011161512543396,8.417941554837384,115.64433700762889,0.05944146433204056,0.015572556487490166,-1.6239745239177497,8.05619689735219,-1.7899730791873907,9.885508868344386,0.16687005477257122,-0.051994006805310834,13.195569605289494,0.19168979676505116,9.626158151784027,-0.5424959390192524,0.005707399997616281,11.183661772097235,-0.003780485813780738,-0.016613662729074996,0.0028870091399297118,0.047510649597937604,0.00615418609214731,0.050788945796085894,2011-09-28 12:27:07.434565362,11.201037616
49.01174557201345,8.418014604300891,115.65732475540547,0.03558633682823563,0.01483538705381102,-1.793281229735039,28.055939497908007,-0.06567399564918838,-18.022923892145748,0.17760487852337678,0.007435369823712321,-1.2675598299549382,-0.13945340149239133,10.405129519655535,-11.687671254241629,-0.18677474311143966,10.057395287296368,-0.003070205269242081,0.015600265825457246,-0.008987075422413924,-0.17497742000298197,0.0003854372005865436,-0.11285051026095831,2011-09-28 12:27:07.534764827,11.301237081
49.010471643997,8.418151212695701,115.6816674213793,0.027329721292651314,0.010689117471948367,-1.6047468834956333,-0.7325642394809482,0.4001997690760705,-0.33573707284866944,0.11984471962856073,0.012344963750328992,0.19566200445451498,0.25757126856783913,10.815376315522023,-2.38588261403977,0.2763686582742442,9.587072793857542,-0.0295964975675076,-0.011591513058996361,0.06239844881678377,0.008635229539603665,0.1564968251964637,0.00883207950147835,2011-09-28 12:27:07.634595703,11.401067957
49.01115784536746,8.417903660891245,115.73761172117284,0.022678672929673564,0.015727149070027653,-1.6524563808690913,-2.57796280885172,-0.781985568003381,-1.876817719791856,-0.1692621631743214,-0.535736397334328,-0.8130588513015176,0.2714314654742984,6.511342203570882,-11.983166199634224,0.08601630294372888,9.613572048196094,0.023017617366041604,-0.03063760847442416,-0.0041348528005748795,0.00400437660237806,-0.01981190480595578,-0.013142196307929545,2011-09-28 12:27:07.744592123,11.511064377
49.011030711131035,8.417921509336459,115.45482573984025,-0.043511776868596454,0.00909525837781722,-1.6318985648700783,3.628948588635868,3.5724148792922032,-18.124437660191965,1.2109955965243422,0.02407143145496053,-0.3497246992017903,0.4799652682881476,9.801730459385638,-3.4118337603984616,-0.03486376175289553,9.389498464348852,9.683074210033106e-05,0.02343007717527609,-0.004030312235443835,-0.0344383059012679,0.1098491473457068,-0.03412942656120872,2011-09-28 12:27:07.844591126,11.611063380
49.01052069086857,8.417898617604669,115.66284567380627,0.048155871210154806,0.014367695038673932,-1.6306461811736415,19.54836777736681,0.16680173824488687,4.197517941186947,0.09798580977453718,0.004445358011391913,3.2657608561603215,0.42804599977392194,10.095472462355582,-1.9221551914159818,0.02445992082771406,9.284035995612195,-0.0023907255194900974,0.011778142119073869,-0.006242600547214119,0.09107959272001442,-0.04588627472967345,-0.006869948653537304,2011-09-28 12:27:07.944605696,11.711077950
49.010558340931944,8.417913873373351,115.94753807940654,0.007640065117085128,0.02088675048416603,-1.6290072538941092,-107.42782015536805,-2.860190958560379,12.339497561730862,0.04018180088549672,-0.4717307445757448,0.8685592398910984,1.896851222143421,10.087864158188154,0.6838351862268476,0.09510084038967509,9.524969206184508,0.08413201676612765,0.05866701231784777,-0.01685927829813542,-0.036875127642443495,0.001874435686819932,0.002608899832117198,2011-09-28 12:27:08.054869072,11.821341326
49.01083032649854,8.41782994531095,115.92798601170294,0.05435041456399463,0.014465165812102065,-1.5927910424392933,-7.829022118902791,-0.4319565306114281,15.220946708840774,0.1855051095425317,-0.07925556043792943,-2.2622725915768007,0.7719885371375743,9.612923960030248,-0.1168131769270549,-0.15493334038559284,10.04805693711555,0.011171293407476142,0.05803282356917928,-0.008107870746548415,-0.00465815018492329,-0.016846779793430088,-0.009207482616703138,2011-09-28 12:27:08.154672382,11.921144636
49.0117161068959,8.417953388352245,115.37146540894095,0.019893187067203534,0.010653107590338301,-1.6567387783194443,-6.543348001708691,1.109752482035323,16.944577082020913,0.11746785543628546,-0.057157481269657466,1.2132091046646083,0.5204675465301344,9.7265766525929,-2.043390861825439,0.015133781045956344,9.393870758659434,-0.0061920591678814845,-0.012040765669636142,0.0017017531454871144,0.005529276666155942,0.009911212808025677,0.001789361365444945,2011-09-28 12:27:08.264635470,12.031107724
49.01083784682313,8.418070038552283,117.16180579370555,0.06590190831630517,0.023066175372995882,-1.6866808454414859,10.013066810570884,-1.6204453000899082,4.904053832645881,-0.05653109108546244,0.10511625714901357,-3.478340967486912,0.41298203027312796,10.286709802926403,-1.7469822781769755,0.0021276662629191815,9.860360883431184,-0.02319273955186619,-0.12908852655721517,-0.004029854619903533,-0.07940216172755428,0.0009325553586086192,-0.005242811880145993,2011-09-28 12:27:08.364634034,12.131106288
49.01100635763455,8.418001474546696,115.76744243272803,0.04112993100028066,0.012856888748902942,-1.6477780044750812,-10.072300063513863,-0.45267678833777647,-20.372774310227225,0.09448705789657187,-0.05131907747320601,-9.192912393396467,1.522211230487824,9.704870108445432,0.997268250468585,-0.2327669927305243,9.32711015634235,0.018068279996216765,-0.025284079245316587,-0.0018860371436680429,0.012297437476177028,0.01301121227829378,-0.005495459706385311,2011-09-28 12:27:08.464655107,12.231127361
