lat,lon,alt,roll,pitch,yaw,vn,ve,vf,vl,vu,ax,ay,az,af,al,au,wx,wy,wz,wf,wl,wu,timestamp,rel_time
49.03208128552387,8.45068587374973,115.58735972701555,0.10215153125907267,0.06236522135316926,2.397556168588437,-5.496221437960719,-0.7083053351396482,8.75119523623082,-0.09242161931461826,-0.1447940452915806,0.8539719980352554,5.692940010515001,9.415152200012997,-0.003333688656372291,0.532316363927057,7.5862476057718435,0.007693097322673686,0.47502051270408446,-1.0257940618266277,-0.025635504818067076,0.1506429270898673,0.33877744533068055,2011-09-26 13:17:59.293761040,0.000000000
49.0332803119976,8.40149579369247,113.43599174182664,0.013564852814856327,-0.017505349930442178,2.5067439450356614,1.4455106552867862,0.9720748949284728,6.175102471302923,0.3062054612737841,-0.030612071905889014,2.710984286461394,1.1911802500431552,10.568492430370258,3.7225989596575424,1.1030408416664423,8.712834331262469,0.14173760069787378,0.01172366133802346,0.11842595516213388,0.020843905234877794,0.07549328631085402,0.17077338201084918,2011-09-26 13:17:59.393600894,0.099839854
49.03173868554252,8.444389167756523,113.96611112875345,0.05488279743697746,0.04865635351668542,1.44489158884036,3.363939133008284,-5.187763443835811,-0.030092489072755413,0.325117092754979,0.12480210202855355,0.4191032095292257,1.1449789151326248,9.948046048008088,2.3598904174593196,2.1889189239713973,9.819112103296513,-0.037004170034848155,0.14760690695925693,0.1658947485186675,0.16051698885520221,0.08569919032129483,-0.47294803099932975,2011-09-26 13:17:59.503620820,0.209859780
49.031679038295586,8.444397641606539,117.14919052532625,-0.011450100195760128,0.03547296788942697,2.582956140145329,7.098441198568851,-29.974576657410054,-5.5478457442311395,-0.3726453145079315,0.29766890974539706,0.5534940165397815,0.863945381843458,8.647831122315852,-4.2377753386188335,1.7001416365108888,9.821209023723737,-0.0827396853006679,-0.09773220490010387,0.1871069203590664,0.014921127485888657,-0.022369304783441922,0.1240841077128016,2011-09-26 13:17:59.603627580,0.309866540
49.03735871971895,8.442521642999996,116.47098032089662,0.04365851164801768,0.01389899230278884,1.9839609494334538,1.7144591815406722,5.367377021529681,4.976001467212343,0.4250551005205594,1.083607457818883,-0.6277045279331791,2.8685580283458565,9.348739765339744,1.2646918847112443,0.38057995233654984,7.278574773988502,-0.0683735946977501,0.05543915865612603,0.22399662276187082,-0.018451938004111552,0.16237511346109784,0.31514498393797685,2011-09-26 13:17:59.713670484,0.419909444
49.034804023172946,8.438930692318108,117.9036009268309,-0.01319113468714321,0.03658136747539864,2.3282496356584,3.122936448541952,-4.585025072109428,9.745660755132521,3.115201543737106,-0.15591209345320559,0.02558823240281724,-5.0837401468476315,9.072610796410565,1.1911752059906644,0.5410947362500674,10.531425971773034,-0.3457704148031214,0.07327535137585121,0.04964026548329212,0.04883159643141605,0.08284440050744463,0.2125169971202382,2011-09-26 13:17:59.813642393,0.519881353
49.03288539280613,8.443456605053491,116.96034335075753,0.014114379812512866,0.2306371811227169,3.376311517242738,3.382385005573137,-15.468163293710885,-5.573031841127342,0.22511314779867914,0.1380438875386605,-0.4627012213839904,1.4286017559146964,8.51204641134016,-0.2473453503745175,0.2621009873352728,4.3205362212976635,-0.012327763891666217,0.2042636302144925,-0.05659982149564782,-0.0112715160160132,0.004557562287070303,0.10809766934027985,2011-09-26 13:17:59.913621630,0.619860590
49.03311804582309,8.438102862625033,117.3210262061634,0.04360349770500247,0.07615018206509101,2.842620089309237,14.072417441107167,-9.609997916410803,1.2191023090715358,-0.06006889679656027,-1.4909119540513684,0.13378128446668422,0.030374230038654693,7.766986438650603,0.38629643038638867,1.1642247459354933,11.420691069672053,-0.03260654418595661,-0.06089189265624532,-0.3611963060969199,0.5550318428262112,-0.15599108287215166,0.10768148717405915,2011-09-26 13:18:00.023639310,0.729878270
49.03171622114568,8.43743401453019,117.09915396443166,-0.029116558588305155,0.004075993351180144,1.6091908025983268,1.335624574402762,1.0459608915887055,4.094406547459511,0.5109270459380297,-0.1286192909163568,0.6969611227597017,1.808181118952495,8.954568781455759,-0.14524867803133445,13.560799808805676,9.00798948426094,0.08990923882117943,-0.085143310412095,0.08753463531299888,0.0044086667028446005,-0.1340351857496488,0.12664021237311937,2011-09-26 13:18:00.123631319,0.829870279
49.03348731827286,8.438995854006041,115.15702106618568,0.008314061542373949,-0.06973943914265464,1.402507922220927,6.4246146759765566,31.72945138465072,4.850954287584321,1.507061769400018,-0.3519998368309443,-0.16817006149184718,0.7647392225163574,6.768424734452805,7.678288083897779,-1.9363303565266723,6.635861277297335,-0.10108235249445335,-0.10539898385592582,0.024281029155399814,-0.06992283357802315,0.023947288959376097,0.13491032676286766,2011-09-26 13:18:00.233769345,0.940008305
49.03105279465306,8.462909934228842,134.6102104356912,0.03717187944938293,0.026078228360343018,1.932128061292533,2.927827828246352,-3.4895610622477222,1.2616371950521827,-0.05627907863322984,-0.19272395361756378,-3.7352348423300956,-0.40485196967402687,10.166698560391378,-0.26871799797240653,-4.8308589111861036,10.480135273776556,-0.14110179421314883,0.015798933349995492,0.08617122956851939,-0.09550642136956573,-0.07815727088814971,0.304223948757336,2011-09-26 13:18:00.333612586,1.039851546
49.03197064059575,8.441245470686662,114.31340826926453,-0.024696130747727738,0.0407420075393019,2.496654093780236,1.6493159966760613,-15.749442786193747,7.935482319081144,0.329512921625394,-0.12610625800294034,0.3173482560578939,1.6616648528486286,12.091043205217026,2.1579094199002196,0.7432235771790383,12.034530979228514,-0.1198397081474547,-0.03908903969897541,-0.2696536337787169,-0.15270072866806195,-0.14261274949845168,0.3062673218820048,2011-09-26 13:18:00.433652902,1.139891862
49.03354944285151,8.45406730575684,114.87477867944853,0.007890008563386463,0.114577217005768,2.7026821135700283,5.236662093910212,1.5646245871000937,10.661003759244187,0.20502929937587483,-0.09563819698031738,0.13261133884765214,0.029662783097257506,10.11819578577387,-8.88804797230531,-0.639832640212822,10.024383017928004,0.009086033777559344,0.08645971466186539,0.2102435463204913,-0.06107564107092463,0.0018474290893246634,0.8328968525937207,2011-09-26 13:18:00.533595411,1.239834371
49.0330888392866,8.449979940284747,115.39184668332179,-0.053141256019433696,0.04467078922002346,0.5327949961518779,-0.4129116729909734,-13.326578563346896,4.577906797335267,0.23949357676487742,0.009461701604196744,2.126262755071173,-2.258968716561814,13.403181029167687,-0.5449177793480069,-0.8500440303027645,8.544940570767375,-0.08531897602760438,0.35586249688748867,0.1473518716020183,-0.0035251744615067155,0.10128275597311935,0.11238164562145744,2011-09-26 13:18:00.643681971,1.349920931
49.03234825282731,8.440759209285066,118.0361908112424,0.009064691131099646,0.04530928051502437,6.09131750766851,4.071034565652001,-16.723955448197167,-5.658689600333004,0.1160392517176227,-0.003922580363702768,-1.1042224787809234,-9.395009841396396,10.082282694891708,-1.5224047639372968,-8.935397628797086,10.05273063722913,0.07058840741969877,-0.12390169182020105,0.2763830273590459,0.011842980070774844,0.08146736001612277,0.06474031774656716,2011-09-26 13:18:00.743676333,1.449915293
49.03089215246424,8.43905149313386,113.15534089233793,0.030228606327149125,0.0409659099223995,5.943696590082476,3.5370160940649575,5.912006106594725,7.637885082204804,0.39692278143771875,0.22528575152507563,-0.19899934550635998,1.0714042940928505,9.654275805644225,-0.40489754263093725,0.8028477110150176,9.395057188991924,-0.0742158452579614,-0.07343514910393764,0.05956975113866247,-0.007403916945360422,0.03696762710409328,0.08216209761870821,2011-09-26 13:18:00.853667564,1.559906524
49.03199743375751,8.439492808595446,115.71021338213559,-0.019003886838910102,0.08094291797877659,3.3677202651240306,5.698848625505665,-2.6209363412299664,43.929420355689714,0.19713518242300132,0.1889546235095764,-0.26971414255610926,0.13593165996415374,8.553925005067734,0.5094986287638799,-0.2405775090990574,9.969229402763023,-0.07352351092976703,0.07059129608362477,-0.1226522027875509,0.02887039351570607,0.48125684376200123,0.4610709234336271,2011-09-26 13:18:00.953642273,1.659881233
49.03673760653594,8.438952950432698,115.28866604449973,0.0004613382846230807,0.08174236966832979,2.3469431540016936,2.9121249436849643,-4.7059405658566025,4.286986142543249,0.056716595246545265,-0.002841565121277742,-0.83738898518604,-11.823067941377696,9.81642430924589,-1.140077292815735,-0.18479508253108862,15.918597890533276,-0.13527206903934763,0.3271616447123561,0.026446994198010693,0.02265343619421232,0.04131017251077774,0.09483194074916051,2011-09-26 13:18:01.053659923,1.759898883
49.03225402124609,8.435950300320235,116.25346471462015,-0.017071108538395694,-0.043539461173033436,2.4384203863476417,-6.797591081391484,-7.877463267211427,1.2227290495356726,-0.02735831624430913,-0.08433769250066317,-1.7658919119105472,-1.1285449198553543,8.356751983050783,-1.984605347329168,0.543387767059371,8.04225029383592,0.19456778137061712,0.02968152738405304,0.05243085382453087,-0.05898359814508395,0.005394435112683553,0.1521282526763424,2011-09-26 13:18:01.163694578,1.869933538
49.0321969939268,8.44476527960201,121.94525932531634,-0.07398715101230363,0.07708213117152943,2.4781509456101536,1.7141895279884989,2.567941028536123,3.9340284676539654,0.05859831828584251,-0.19230181931670404,-0.09543959151092873,0.08360549382129612,6.974563543232724,-1.2307664754855256,-0.46255659840902213,7.858747581358353,-0.3937118388684768,-0.0018772514798534798,-0.06738418270509514,0.00583969059935574,0.22450083555343656,0.009729261395816494,2011-09-26 13:18:01.263948336,1.970187296
49.03264514516386,8.44567630700956,112.29726580938927,-0.018434840959621893,0.053283503647786334,2.9579949907192433,1.0983513690868332,-1.2320344413456121,0.749151125561335,-0.19111586749845308,-0.2506169225505161,-2.020845513189507,0.7190680124939531,9.366993784448614,-0.2216124227649003,-0.002259470864872659,11.24113884064611,0.08184176059532072,0.09064674288753449,0.05000751033675385,-0.014124433999058513,-0.2559701401320692,-0.03152724398216766,2011-09-26 13:18:01.363700511,2.069939471
49.03268301319926,8.437122096702012,114.73100599048199,-0.043389034758833586,0.023508931995184782,1.8598874773588299,-1.3993780970725407,1.6727473103398371,5.234350401995507,-0.040772688716021535,-0.12186249765981902,-0.5751162681275938,0.9716732610478006,6.9658548401342175,-0.06187483766013604,-3.874222051360107,9.047523528832283,-0.11692210441478995,-0.12763396208153271,-0.07081791431005012,0.0010372828611084836,-0.17359187828915926,-0.02270451371165487,2011-09-26 13:18:01.473655315,2.179894275
49.03314421080036,8.459106434468312,111.91427091934175,0.02501280925485935,0.01790951359837577,1.9106092897833147,2.392822993896905,-3.327940730330722,2.536010601932543,0.08884884844241757,-0.24091268992144804,0.24428072764847605,-0.5311814729025258,8.238070224151361,-0.5876608968177753,0.3849102223012178,11.861658320373493,-0.08909036905985906,-0.12316712245578318,0.860167510204261,-0.20029533893768475,-0.11994411896950605,9.436733179030501e-05,2011-09-26 13:18:01.573726175,2.279965135
49.029666915903356,8.458390165606001,114.40186925449073,-0.05338461179297785,-0.031902635231144935,2.4199242900980535,3.0473866183155094,-3.7878296217257366,2.8672810838318536,-0.4177630211706734,-0.12719646673041235,0.2228302317061624,-1.0789547456098574,9.975078292451405,-0.4780829675841378,-1.3484653987577735,8.644622571180857,-0.006297252859511153,-0.08248350279134299,-0.46425104514203114,0.007663195820695683,-0.15182105869911935,-0.10354469922337818,2011-09-26 13:18:01.673740857,2.379979817
49.0316777060309,8.436584919520266,112.50603706007507,0.0338188319353514,0.05549178781015819,3.1374632968366356,1.6971098733985108,-21.734695621754845,0.39798909936486027,0.02849517806292827,-0.25155521358208266,0.5798165968903881,0.4504799964798758,13.204690893827129,0.8381647729780297,0.4909673731862265,10.692476700896485,0.17305243322709146,0.08085221671397219,-0.13800417302472168,0.27507678209283526,-0.12076644286082819,0.6934090554740735,2011-09-26 13:18:01.783763073,2.490002033
49.03323693050644,8.44333991840646,98.33877669421518,-0.016399321837135397,0.04170583785372415,4.337889169240622,0.9490915139250866,-8.34630221840456,7.727238447691766,-0.23788973264063207,-0.012663575978590663,3.2352727648352984,1.912724289644314,10.832025747865293,1.6305346796022488,1.838863423649098,11.695075264255141,-0.157463892536532,0.24368550176222153,0.09024131590491435,0.018186156894190817,-0.002006550196722995,0.07417852365526983,2011-09-26 13:18:01.883662231,2.589901191
49.03215922229526,8.440526248750487,116.19926920318396,-0.02309565097112615,0.0236696202502929,0.7203664457409626,0.520885104318364,-5.053702560323916,2.093472376332269,-0.04635897524540076,-0.11075450991194644,-2.129108595297179,-1.3463243169288217,9.961753935510028,-0.11358201175018828,1.9988219945983676,19.772377558310062,-0.10983660446112982,0.03198435160100695,-0.5205370283474997,0.0042545083929693105,0.0474475684343523,0.02876992654627303,2011-09-26 13:18:01.993810233,2.700049193
49.036276453804575,8.444248035000026,112.52086210011828,0.022763149105484128,0.004945065711584012,2.2658352177576306,3.2045059677685264,-12.231277486087226,-1.4719341991960349,-0.2715951070961299,1.2668581053649677,0.05469775338829316,-0.14641476033405126,-2.501553333130154,-6.887516576108915,-12.661167191157134,7.062089734463304,-0.12200347130534246,0.07501304200108987,0.20272412393088177,0.024578320005490185,0.10413922972671132,0.18105840517226215,2011-09-26 13:18:02.093724349,2.799963309
49.03383833900993,8.428096364602647,120.96525088542668,-0.008148088768965259,0.000733767075141516,0.7495717240259994,3.5130600241357426,11.44214811286796,22.538442437428323,-0.2471488161330965,-0.0583865906091146,0.60773878431112,2.2839131110799884,8.771694680574884,-0.21834693846425846,0.30926847886983266,8.419855137359313,-0.22381065785251741,-0.00022805246233551651,0.3068046855741709,0.07139776114882093,-0.011853066149027258,0.7160404048768301,2011-09-26 13:18:02.193810715,2.900049675
49.0323443138897,8.439279575117398,108.77988387527179,-0.10620886397118919,0.02431560985390234,2.903597493478281,6.251437063313074,-2.2328006501978663,6.1231319998076446,-0.41597550333869604,0.9537139696560503,0.7662424868920144,-0.4641865408633996,9.158581251943062,0.3538268184835968,-8.001873826822852,8.298532839865869,0.008442420921482976,-0.04846683062806087,0.027807379287106148,-0.0060586235160752615,-0.059627454162533025,0.04021541272639839,2011-09-26 13:18:02.303750233,3.009989193
49.032124103606876,8.439275142821403,109.08757623868183,-0.04107015043822278,-0.021947840053780074,2.1358523383072145,4.526813706223129,-22.431582150335505,0.7616739755138058,3.8422281952428894,-0.007592489074044501,0.9094334571699065,-0.5532370886593073,2.7372723117380495,0.4209255976837981,0.6969723969496074,9.417697282535723,0.1015088171991486,-0.06937595310294717,0.10032652661361446,0.04567527760544273,-0.20509541985920832,0.5537719335648797,2011-09-26 13:18:02.403670366,3.109909326
49.03297021386953,8.436077021225474,115.83006008245168,-0.1117090143109072,-0.03826113667053347,3.4000610048429487,6.889346878652624,-5.622084073456845,-0.33327604742011907,-0.19442249751348684,0.21168076329423846,-1.7613200178792559,-0.03743652553960097,9.972446095715817,1.5476397509918116,0.8027746354920313,11.0375285773851,0.013098293584291524,0.08183674600664015,-0.19310253047563314,0.032123996911767726,0.020691913857576946,-0.1082270519659422,2011-09-26 13:18:02.503695584,3.209934544
49.034696283328714,8.439553259033598,115.79821743259014,-0.039735903960040134,0.028432031211497597,2.030947027704139,1.9305312133985315,-4.125195497222925,2.770276054595581,-1.5074304703551071,-0.2287392754666877,7.6586494525183095,4.04252962966759,10.006462434667693,-0.06997840611498052,0.30870271314787257,4.944862598833771,0.34815823338848423,-0.11339804467833046,-0.01985392858026088,0.01682894773747211,-0.04833477955631216,0.2847363182043045,2011-09-26 13:18:02.613669277,3.319908237
49.031865958605216,8.436201376021584,114.64868196560612,-0.01605125687419858,0.011335611259638716,1.387559636014037,0.68995149186027,-13.250575435361013,7.76182633027458,-0.14819290271195656,0.09068824642066578,-2.8009729264556027,-0.7731247441800023,10.7149737714242,1.622860469125765,-1.2851731014309138,9.267247308942332,-0.14496070511497855,0.05248479420961605,0.16077771089137394,0.0647265676492887,0.11975483648443222,-0.36495685724309246,2011-09-26 13:18:02.713862335,3.420101295
49.02998176445359,8.467611333546056,116.23554948638655,0.025068056743773465,0.001891685138310598,1.883255086662426,4.509458916235212,-7.449494418362036,9.470044575663724,0.15102935526825317,0.19751982105675814,0.9583444982885188,0.7728068679755651,10.05710454317156,0.2025265480677898,0.6826876378434248,11.576627852627388,-0.7751280073019468,0.42285100858956126,-0.500775853588488,-0.06588061348774234,-0.13587469944295832,-0.06317018609251598,2011-09-26 13:18:02.813738951,3.519977911
49.033360796671644,8.439283632476958,116.56419078358864,0.05071557175804356,0.014115275436058634,3.0935290620648237,0.8498064406519945,-38.04896342100361,6.070435848323262,0.7168725604886764,1.3880603407108092,0.11401873987918365,0.08095502925823803,13.834342364980422,0.6752301849070649,0.8603809588113159,10.471640940467381,-0.026858943783117303,0.23931948585161353,-0.27494551542824097,-0.017138305533504896,-0.11494893405079565,0.09729881990345049,2011-09-26 13:18:02.923757847,3.629996807
49.03114696223124,8.445650367609112,111.34161808023825,0.0604971939071503,0.029448940157572004,2.5464045794289554,4.633862694149918,-8.044949549555039,12.235664241195913,0.09269358373878439,-0.14991311784563977,-4.7713379150074795,-0.257296139847666,11.180974727519718,3.479514478883952,-2.024552095002452,9.119758697010282,0.0844841181795556,0.01838627574489668,-0.02239841510590904,-0.037509996446033804,0.14778463985715928,-0.1445633073226962,2011-09-26 13:18:03.023799275,3.730038235
49.03270247800149,8.448149440987565,116.35893209088316,-0.0630259445543267,-0.009095285085157084,2.5004749105014175,5.590564812579908,-5.077237098991554,-4.861036057240327,0.03133438414772484,0.11447645207333998,0.7375419379110935,-2.1656725003390034,9.55508267760254,1.4732655665853316,-2.2946101363539224,8.310994310644382,0.0025135833346189903,-0.5357742248603053,0.09585145273143678,-0.06925799723783987,-0.48052162624191525,-0.02182746602746054,2011-09-26 13:18:03.123703210,3.829942170
49.033168367475135,8.422889959419702,116.07048100307857,-0.0008205380742472867,0.01998001273520515,4.532666700245606,3.0636739003212594,10.835201513337699,9.691505523124704,-0.1349777913772484,0.07251600825952637,0.6019220804869555,-0.5891188904346314,9.944731706730437,-1.40981543870982,-2.6079533735135114,9.501713707287188,0.02515635578222132,-0.13188347175037252,-0.2013809144780082,0.0007635920187103861,0.009089507644186218,-0.19533685544805068,2011-09-26 13:18:03.233837510,3.940076470
49.03220742554868,8.430711899675545,115.58356391216137,-0.01874426985701401,0.020677020167272783,2.4843778507734835,2.0153026890519383,-11.463781404227257,10.860124915834204,0.2296958555050186,-0.08822123775640078,-4.282668670463668,-0.6058061208440768,7.491391061087064,-0.3784913563372909,0.04856410009788442,11.503327882440242,0.2690768024146208,0.07409656335584544,-0.09106130783588286,0.07415248858751687,0.0859921664772746,0.12072151304787163,2011-09-26 13:18:03.343788999,4.050027959
49.032556440171945,8.437420836814969,116.05803822297773,-0.032642415914869626,-0.02466785262388586,2.8625906854794927,4.1280079860972725,-6.444122273798517,0.4321623862101953,0.028740012301289274,0.061314628489193335,1.1888150181626986,-0.7234835999630469,10.385699851523523,2.9934478730075162,0.23081210269182964,11.983976461934617,0.33255465176813453,0.015943033136103846,-0.06120663498428504,0.09393070622240719,0.04570999096352532,0.00016218604739504094,2011-09-26 13:18:03.443788114,4.150027074
49.03212503500152,8.440803818355953,112.70404012162824,0.02956325284095851,-0.002434914498099308,3.0946871862433194,2.381671079432156,2.5409787911653723,8.705040113409783,-1.7325085011739065,0.310161744281482,0.5494571495635197,0.46881897498381087,10.100357308037994,-0.5321835185754651,-0.9066367566189385,9.974568621458097,0.005048966834451565,-0.1209157934231614,0.0623742133636036,0.057095012357892494,0.30327779255867354,-0.04910571579391025,2011-09-26 13:18:03.543834756,4.250073716
49.03489013004282,8.439510506239571,113.89248327221044,0.0341495355371349,-0.004438285347237336,0.9518747473605207,6.189215837939765,-6.698411272917688,-11.715679818778732,2.28450994088312,-0.17095768174675038,-0.9421560291436165,-0.0034447593201101523,11.490785422580883,1.2802626768850318,1.3350651914665788,8.65879874982806,-0.009282208303649713,0.008226635288373444,-0.06596795251304141,0.0670261371924875,0.07789888239816564,0.23754061852093036,2011-09-26 13:18:03.643788145,4.350027105
49.03262220664683,8.43294610962012,116.61416828154076,0.008694203047291956,0.026659060945052625,2.7204187142205916,6.693496132005423,-10.357604463401145,10.875836707387268,0.1111611432643766,0.05471263250090144,2.295184894613148,-0.33401696281328697,10.680979282655002,2.3385053917353926,1.8828606275491158,11.229812603140724,0.012351372135149724,-0.034024237867272614,0.2124167619498267,0.01019640154354804,-0.11746381674874104,-0.11401306429103628,2011-09-26 13:18:03.753848180,4.460087140
49.033662649677304,8.44824110446002,117.08006758868369,0.006201012095326353,-0.03197725119638759,2.918384279201743,2.7192569736513823,-30.605854278311487,-20.87535831491914,2.0877979653863292,-0.13789123005671314,1.309375711390792,0.3238282136180509,13.42155967966728,0.09211710646389148,0.038657086027958976,9.353314896011913,0.16477299435942533,-0.04779527670790839,-0.04243911967085697,0.13734562665600475,-0.0486618663959162,0.09871628739851665,2011-09-26 13:18:03.853799048,4.560038008
49.03337973160837,8.42048956186756,114.43073816416495,0.017389021262885013,0.0035817798609512597,2.555910700368334,4.323924549242171,-1.3349665609918202,8.73522764050628,-0.25736058893460084,0.02290953560981275,-0.9981343384317126,-0.6820904432587707,9.670973881590278,1.5347711953456844,-1.0840047238967,14.855553466543146,0.056692604067766494,0.27202225971815003,-0.18891506785436663,0.0009346902657299139,-0.06662452348406392,-0.7373466315761253,2011-09-26 13:18:03.963804761,4.670043721
49.03562748504831,8.379126560561259,116.69434841869938,-0.002620927177469916,-0.01196291841788146,2.9096019908914563,1.6897803533657538,-7.242600150580397,6.121653694947793,0.49379470760672495,-0.3349697351826355,-0.21430614866498487,-1.0202612857660727,9.422221951910556,1.1388049811390717,0.08847189197241453,7.095532266961707,0.43365652189226483,-0.05688931400301494,0.23185517202407824,-0.0489420502459435,0.044931115338187354,-0.008392240790498988,2011-09-26 13:18:04.063841466,4.770080426
49.031096380623545,8.41566854310625,114.05725531554829,0.03212240802769877,0.23618298781933977,3.767555038089302,3.8854102099397525,-10.00703348300778,19.026858884474308,0.5409360454994527,0.13036605610455415,-2.090221794499704,-1.2212325996979203,11.118571243112665,4.440301418691005,0.1226838876028483,8.296567423155972,0.025860957052136056,-0.08504500785216783,0.4302093113740831,0.04396324851873263,-0.11428086507719538,0.0982019482775501,2011-09-26 13:18:04.163824904,4.870063864
49.03415196765411,8.443011028658077,113.12120260294842,0.0019899167939184635,0.01589573350429752,2.6039526739213024,3.3035945471185335,-2.2036901321783318,6.599322152297424,-0.9106692902835303,-0.04285481500205345,1.1220908897947146,-0.6502485123449326,13.357963489723485,-0.02988322070881036,1.177866531610316,8.109438406170751,0.03836658295043943,0.0233641836387277,-0.32175164039863224,-0.07687428303745605,-0.017580531610245732,-0.2831128421959105,2011-09-26 13:18:04.263857596,4.970096556
49.03142033440125,8.445503380560137,113.81079388302014,-0.035308557484810245,0.017105137499729087,2.290579470732013,5.193387526314776,-6.972776952065005,9.575732058580853,0.11722723569188971,-0.330626616576724,-0.30727457451956725,0.2579060845551778,10.045982510375739,1.1208640352799257,0.35608390916870136,7.830113264382932,-0.016268586162980807,-0.8715499286358426,0.3758875456073508,0.34335328706808893,0.22362809718183596,-0.09130381187459391,2011-09-26 13:18:04.373854609,5.080093569
49.03163554188551,8.44426929427141,113.70855548006969,-0.04918419480190554,0.006702505360870958,2.1007869566127857,4.712224138768386,-4.32250130642049,15.281220930928388,0.2514175141058188,-0.16862264326882992,-2.7739375984627106,0.12896027663213278,6.425355435058847,-0.7707390427695013,-9.834089271792198,16.22437485590713,-0.038059471862448825,0.010862169790340144,-0.07063137574926234,0.12083846027178018,-0.0021608708434073098,-0.07187645859095838,2011-09-26 13:18:04.473808813,5.180047773
49.03495599277069,8.450038513794754,105.6916422915318,-0.02470564705515238,0.11724520552454208,3.059362030039539,-11.843302625092468,-3.267536289182375,-15.831588647036357,0.34147017936810453,-0.01900399990256829,1.2825308667829822,0.5711313912357517,13.143701693477968,-0.4921244407750658,0.29710442171185625,10.539207810795137,0.17991885002349203,0.1276778961191879,0.04326040740104127,-0.013420556550424605,0.1514927995403297,-0.12118951869640926,2011-09-26 13:18:04.583859281,5.290098241
49.03172927742253,8.438635536441936,113.58487372891405,-0.004302489869028085,0.016140323034566733,2.911608680960008,3.3726971302496787,-8.006548058707702,9.190377051465658,1.6161550555051267,-0.08503704325441673,0.8083409418436758,0.8313806056131818,9.060205677225662,-0.4337882762917762,2.5546801587567494,8.316340589159443,-0.012621495958308575,0.010131828969221466,0.23831526698817135,0.045070923785743296,0.13898262222975402,1.1844782955012958,2011-09-26 13:18:04.683869212,5.390108172
49.03243878634898,8.4352016750056,114.6045828829417,-0.00874656200022808,-0.005814480360286669,3.240565404349815,4.08431489865177,-11.76083048107046,7.200685472593216,-0.01417893451958796,-0.13912283056767338,-1.7948061436152605,-1.2691859691775602,9.657195698191275,0.9836657489945753,-0.8651618622332955,10.0727230099055,0.04363325976706781,-0.03336664622754979,0.17632609204781102,-0.009669050310685058,0.04328930194449778,-0.05115682127822631,2011-09-26 13:18:04.783885407,5.490124367
49.03323522933295,8.436605591723913,116.12144566015922,-0.032494510019827075,0.005906611274442641,1.8318680172522084,2.7309428864824667,1.2746416696336373,2.8638877264386355,-0.10200863312609755,-0.22453146959120662,-0.751736282735653,-2.429963980656058,8.53742142509492,-0.2930745766008843,1.0094996425817997,11.36719722820435,-0.1044164038419484,-0.19691897939331138,-0.34880819815836345,0.07432608897382431,-0.22214132705736625,0.014913600462399111,2011-09-26 13:18:04.893875352,5.600114312
49.032933656051924,8.43204003339027,115.8556533567764,-0.027216528688274327,0.009333260215643232,2.5761628907189196,4.354567968312781,-4.341644847754035,4.64893919636507,0.41627679797876616,0.04798931735738918,-0.11443373895386466,2.5275298020651316,9.6482349334316,-1.108601563281294,-5.07948289434195,10.284565554386578,-0.09209918418034778,-0.14540167385515437,0.12348028036531095,-0.025575355034684055,0.022121551435147362,-0.07240265318862457,2011-09-26 13:18:04.994003896,5.700242856
49.032195347907,8.445076616754731,113.82183634886489,0.049042858496097054,0.06384692369593403,3.2595217393376896,3.321718097816139,-4.924087025516891,7.051694069760722,0.3658118277300034,0.006505826984018609,-0.7579153110145368,-1.3446864770154845,9.129275041646615,0.2782399926655886,-0.28403725604143176,9.647131472520934,-0.29060397983569736,-0.133030670645568,0.10183866426915414,-0.041012490891557014,-0.15896754413957964,-0.08033704638432795,2011-09-26 13:18:05.093978157,5.800217117
49.03161665833991,8.435085206598135,116.29811561128002,-0.10085395553362952,0.0013692262614046127,2.3445719980910664,-12.41167725866114,-1.269915283275374,31.436002304618828,0.2914092409125626,0.05780345303573345,-2.4293669837964367,0.6379285957601273,9.904231404181273,0.5191051454264373,-0.16319167335978357,10.930254482864017,-0.03657234343294616,-0.08070883455218761,0.0077258335824357816,0.020978461202147178,0.02072579422154632,-0.1466121533026639,2011-09-26 13:18:05.204001216,5.910240176
49.03222831442469,8.437887664179838,116.04566431467643,-0.05995624159065904,-0.011282480369620687,3.1752331456190532,5.586984144493801,-5.879534241135407,11.726365351062677,0.048049407940224095,-0.09922311697394041,-0.9565251748138871,2.047933851093598,10.695265179492557,-0.5657453942106939,-1.5133510480473134,9.604510156973515,0.19638838763025998,-0.08201573750566485,-0.12084246832286713,0.02631991711243217,0.06645318439167847,0.08299363983782967,2011-09-26 13:18:05.303844698,6.010083658
49.03291142308809,8.4412007165182,117.17098907607036,0.023081128851670706,-0.1784440500037248,3.4285242954692188,7.406063286927303,-6.803173213565211,10.662891859515128,0.15500206092242957,-0.29658452461143914,-5.060485083953359,1.1092696963311397,11.077269800418689,0.5178471154368818,0.6077070030355018,19.727295108031136,-0.017474774842710206,0.0977505993334616,0.23130185119215052,0.0482441623454887,0.016829823170204147,0.09688708596349982,2011-09-26 13:18:05.403814787,6.110053747
49.03214800500674,8.452652034633251,113.65406536038567,-0.009078992216637638,0.004654373868889349,2.943608616601833,13.967791887818835,18.8105192280365,10.405775783286344,-0.37680845588757966,0.13407985920696144,-0.6762470037555977,0.9922565944934618,10.02127479966693,-4.360116572422551,-1.5733706232561597,12.56440020057321,-0.043309109521412446,-0.19601895925037957,0.3790137542306541,-0.01669121407943442,-0.025671685098362707,-0.07228257849843966,2011-09-26 13:18:05.513837781,6.220076741
49.03262424520027,8.46192664923461,114.46506113824387,-0.12159559114587509,-0.003490544227826401,3.047335951633232,4.141528340374493,-2.5754595651312537,-7.227264251266356,0.15164307727099133,0.023457729799956622,-1.7594174701273269,-1.873321683215345,8.654088537319993,-1.2845274577781818,2.8721987677756373,9.39022822806117,-0.01021845198662226,0.11921624150319758,0.09152058176869785,-0.14640407017489324,0.5977189487941129,0.23211702236652088,2011-09-26 13:18:05.613806946,6.320045906
49.03162598923487,8.43336655073762,113.7117182649115,0.03970718741024078,0.030478487771795824,3.0249512591966727,2.859346299045009,-1.5915852577200456,7.368040177950133,0.25214780313505425,-0.08950686304777121,-1.4979903100809304,0.022906277120072094,9.80513798825331,0.023358557968081218,0.04238232148945631,10.718281070864524,-0.03756549590546614,-0.1778856981958476,0.048141946159871024,0.035554933333832535,0.02953031493907976,0.1343210980091449,2011-09-26 13:18:05.723961700,6.430200660
49.032508122944286,8.439641522780581,121.10971724842965,-0.024406177378069046,0.03151133934908837,2.8656124499637143,1.4774629016910747,-6.300299592964677,3.4122758004312024,0.3575385133868709,0.06207140519625311,-0.7752910280149308,0.7604737963010001,19.150842921972995,0.2095816542841349,-0.333934647619591,10.315336144588121,-0.10622833005103274,-0.2174563449675427,0.0002525125033610298,0.0995451195784789,-0.011477216608995415,-0.026161061842874214,2011-09-26 13:18:05.823879725,6.530118685
49.038765965855575,8.437161031218835,114.84892309058503,-0.06093435712426008,-0.03040546108614013,3.448168799915633,2.548608305086823,-36.16866260917709,12.499792494939062,-0.28572614696321486,-0.20481230179935056,-1.1173090517719029,0.9133587551009832,7.880903373781781,1.240044645099856,0.3040866716333941,11.593478473976788,-0.010476663450971483,0.08372664246698927,0.08310730498755652,-0.029493032226661203,0.019777875318269765,-0.09060347715872216,2011-09-26 13:18:05.923851020,6.630089980
49.03216216402397,8.443124560920872,114.16333392697541,-0.005723039386170206,-0.02967657420004842,1.8368713903156826,-10.546605331753058,-8.518388420213222,4.8412645059957775,0.0340196211663695,0.07325557269763133,2.0355393027874737,-0.3448191458902793,10.215022267017327,0.02427708863153008,0.3357851883351866,15.187600450746395,0.011020972252264727,-0.030734387293192778,0.02480797239604017,-0.045840717751593686,-0.09955740935259665,0.03160896236129243,2011-09-26 13:18:06.033827217,6.740066177
49.03345828959229,8.443773247970823,114.46726959792457,-0.04845879338454729,-0.005616935379674523,2.067067825661483,7.620072555887568,-9.147324101293568,-2.429281204087892,-0.2895796561979638,-0.21961767790344217,0.32172623131577677,1.3271509404659931,10.192045108212794,1.3052392801416242,2.1221744290381697,8.2311389201252,0.011317153956324813,0.03417018463170865,-0.015470824816235379,-0.04350206913703898,-0.08273414514456418,0.11181862712418628,2011-09-26 13:18:06.133878427,6.840117387
49.032259163317875,8.43480928391339,112.63206439197073,-0.03717071275299189,0.0008894889936215131,2.536807265811281,5.787331381600824,-8.017471186858986,0.5437294310407221,1.200537691469129,-0.7582324800511588,0.7943742587931699,0.8760184809914718,9.807062483345154,1.2624016675051841,-4.776879203433188,9.052258527507906,0.00325517010293672,0.13481614834191935,-0.13462063101801935,-0.013603251130890564,0.04264395025978861,0.03643639817695821,2011-09-26 13:18:06.234030462,6.940269422
49.03279552144605,8.445110004084963,117.29223369975622,-0.05013417345472299,0.03784762541563178,1.9328486501406341,4.767196099239316,-13.995191464163078,4.891824187906789,1.6262974406551605,0.1294065062759658,0.3684923739776838,15.94497506093541,9.684652620292846,-0.27290588200696414,-0.5824315305416927,9.208310554217318,0.07553769663793705,-0.04404424567324648,0.18459492390752053,0.05788146517240478,-0.10706100058504973,-0.022097622671757022,2011-09-26 13:18:06.343944930,7.050183890
49.03395350007482,8.440469435449993,116.79601052543518,0.022645799196607017,-0.010313539395815141,2.081919368539485,3.258466516717838,7.897324449535608,2.746467779474451,1.0208172929859314,-0.259655454522158,7.3696956364406745,0.9445373366515275,9.940699075543323,1.0592040361531825,1.7668718106013814,10.911465383875555,0.0044424092646760775,0.008573821560630118,0.006505436867412784,-0.014318556569355306,-0.2597659330274369,0.1333047985017426,2011-09-26 13:18:06.443922279,7.150161239
49.03252926762453,8.43198565133023,114.2839773640043,-0.16429487700114898,0.044715360090172254,3.3023101702173614,4.035948704627727,0.9223849436743965,7.279543115687916,0.39660112391910335,-0.2833264340758952,-0.4685915326751546,-6.523890790050149,10.148152125610373,-0.27972965616163104,0.3823540550223765,7.663343651667866,-0.07825955722524455,-0.13252251846970464,0.8034062466785008,-0.1931673192981893,-0.0635988282098284,0.1331251279610715,2011-09-26 13:18:06.543938412,7.250177372
49.032823872825674,8.432324362786973,114.43846375928838,-0.03690801586928758,0.020340254674630853,2.113914477261717,4.324517180227933,-8.201522259705177,15.58872310439084,0.28070226574789403,-0.05991270356594623,-6.373238297185093,0.13923006385022707,8.893609101315073,-0.27330294664963256,-2.346680954935964,9.252574288274127,-0.011973913347501499,0.020559612346107585,0.15751124101181196,0.06852621655957074,-0.04164154997650186,0.13823902231923435,2011-09-26 13:18:06.653896495,7.360135455
49.03322949993346,8.434075197873234,114.76462597339554,0.039918671939495914,0.007188648729951914,3.1177856710352385,1.7327075321221994,4.479220684472554,12.539019214720636,0.4346009669426557,-0.18660050762097505,0.03929046635528666,0.03279799618033946,10.061057914973084,0.9239394897166515,0.8391168278389232,11.710362070930469,0.35549708447974554,-0.05793240542433141,0.2591483734270107,0.11314269437610641,0.19757440258799205,0.27205606039125996,2011-09-26 13:18:06.753917146,7.460156106
49.028361507583384,8.459367367504077,115.1825512399569,0.025491686752032554,-0.0012596361000597957,0.15525143352793203,23.039562678622254,-37.34727127658377,10.97508682127945,0.2858889255981172,-0.1671440616641348,-0.0802003789357098,0.22809608874367804,10.84223998472089,0.7659357800278612,2.0350905432100532,10.257441867300278,-0.46138565534753295,-0.04046402398939784,0.05310802961428694,-0.0032590000374240445,0.061249089729557615,0.20782231806291446,2011-09-26 13:18:06.863938535,7.570177495
49.032555568178694,8.434424966616964,114.77216996471235,0.040135732548799666,0.024266884360283313,1.7221538904549178,4.146837789149856,-7.4164341183745925,26.891843133633724,0.2455385584057981,0.2418775373783814,1.6680659124521484,0.22371291030530155,9.255644716980767,-0.13411556802489755,-0.2505802923976157,11.854559193900112,0.2798373156856886,0.15241663689782176,0.31861919321304805,-0.24017022034489413,-0.060122299868366556,0.2484610145137073,2011-09-26 13:18:06.963923135,7.670162095
49.033801684724054,8.474102224307677,117.04556862337463,0.017348201831918184,0.03237637722408851,3.34714132545998,4.835507537158687,-15.911077768544281,2.877919682017719,0.041877007639498545,-0.0005388510131508484,-0.06417640943250734,1.4517585048994432,9.401035291115768,-0.550859141556981,1.945584899162048,10.003555695611428,0.01509671340133674,-0.5083238774060794,0.3854684259416258,0.026515023813523525,0.030769344046554802,0.1031937738403549,2011-09-26 13:18:07.063984820,7.770223780
49.03333779727444,8.431252801882694,114.30843332131357,-0.015717279719532545,0.03365936414260631,3.591317765884914,2.1315434807010316,-0.16283214029571447,13.53909041910702,-0.3373406604810306,-0.17837582915161315,5.888260228592775,2.39797179788147,3.099165807838494,0.93059814893571,-6.5595924851640826,10.320290082513253,0.022362468662168646,0.09250465980080741,0.3145996360908301,-0.019422496981139806,0.013953275751890553,0.256361885355632,2011-09-26 13:18:07.173929175,7.880168135
49.029753549070236,8.44240247881665,118.50140287894445,-0.008243298170588798,-0.055594907702599936,3.0586995822604814,1.5547686255772526,1.648135165942369,7.44970280660548,0.06766987184003398,-0.16835822942595538,0.44815754127589524,0.863221718701373,8.931708168680828,-0.03221891724792195,-0.4263563575528925,10.632986153888734,-0.017438793980430276,0.016011784637837666,0.20231672388802754,0.2659145015881942,0.08112411534972949,0.21000106574202204,2011-09-26 13:18:07.273981178,7.980220138
49.03089485571347,8.438378026996542,114.1298050394915,0.0325376076960677,0.05647636991882412,2.532387036841987,2.126961396197662,-4.303747329405688,82.27094079947945,-0.3103269351169985,-0.14245357900601738,-1.4515785993685018,-0.795607013546173,9.455505216377347,0.4531645874936123,-0.5865538189750771,8.768241413544406,-0.0304465706165142,-0.5653124263540379,-0.2472203032435561,0.03133584863066791,0.24138833550341976,0.1049411927257765,2011-09-26 13:18:07.373973062,8.080212022
49.0333934543073,8.44268731627005,117.12430505674654,0.012968809943859554,0.018865435666856688,4.688821392728062,-0.03208556412077046,-5.47447806102374,20.8673933313716,-0.285844749758752,-0.21638470285172956,-0.355485944398823,1.3442912009711636,9.348534551863365,0.5304450158341796,-0.9118457640281159,11.286418062691478,-0.018728481299908357,-0.00036431054541809053,0.27370812905344566,0.04251035790730694,-0.024606300183650315,-0.10926708760130556,2011-09-26 13:18:07.483957158,8.190196118
49.03191350867368,8.430102772479072,112.1904795190381,0.019427384312083,0.026251517574471354,2.8668617815124637,5.000916339431772,-9.074148366422705,11.992798592460858,-0.05914418954532519,0.0354418982232996,-0.22547228622779925,1.0374462668533577,10.37859549953118,1.52207564812372,0.9673730612068278,6.6538192622290575,0.022303596427749817,-0.01413380624450047,0.006647320750907876,0.1312211350264303,0.03108138409766118,-0.6428991773693317,2011-09-26 13:18:07.583952411,8.290191371
49.03299909485369,8.456094882596274,102.96051368568821,-0.3131722590629262,-0.057767720177563056,2.5094265294245086,0.38072353346482934,15.542643137970472,4.588858077597886,-0.07593300046846924,0.06740522458172597,2.538312068185697,-0.18032812783965135,7.686765417435567,1.252233070119483,0.20103001340564775,10.573650445820567,0.01821863490928462,-0.04481999896524373,0.08548750416324333,-0.1261697950925721,-0.024564180891278167,0.05182263136496324,2011-09-26 13:18:07.683957555,8.390196515
49.03320318709032,8.442606997044008,111.90298686287727,-0.029924373849523365,-0.02658996643416428,1.6358078839790722,-4.550960014990134,-20.27166325506343,6.963585765675302,-0.3870422121313284,-0.9296444596376828,-4.244725820805919,-1.7556107065442004,8.798408116996011,-0.10163232177323384,-0.31029347766393095,10.013778375868231,0.050127930845518226,-0.01102876236313604,0.3144224125364467,-0.02458783319746215,0.06061131309250068,0.0799139411554068,2011-09-26 13:18:07.794061162,8.500300122
49.03189415176527,8.444339315346419,112.84567363285028,0.06487590383205452,-0.009606566062009134,3.011246170835861,2.9610303392938775,-7.654446188879847,3.9084459814740278,0.27496805995630835,-0.3281873548557794,-0.5401297506273278,1.339164980608516,9.013706080660508,0.2668570040881357,0.5458382210522128,9.723187932064535,-0.09629781192550183,0.06756177648205645,0.6574537806441758,-0.11596627809329113,-0.010440402679193394,0.2856013969196272,2011-09-26 13:18:07.894142331,8.600381291
49.03202831425649,8.440230643353047,115.31142865766168,-0.04811887470441535,0.02297306529053806,3.22081232660887,-4.635659188466309,-7.540770067518901,9.312575194979841,0.7812841049543927,0.1251442438578696,-0.6638271553278294,6.507599201414862,10.017698201274639,-0.46457776820894586,-0.7007706108024817,10.455814351349197,-0.24388502492295216,0.3357466555196832,0.18301226910565277,0.38644243935838957,-0.06356036416420341,0.17724679579224933,2011-09-26 13:18:08.003931657,8.710170617
49.03165354838408,8.432981095241033,116.90661778850895,0.024571600554586365,0.021394137046145578,0.830454290331351,3.6231381361490005,-13.212817558899204,4.0072851802031915,0.2567372645135877,-0.4030920981504136,-0.008157296769159272,-9.406418352939287,10.138027986700301,1.3358328502632686,3.9137234132205134,20.715193545677906,-0.15203317365254201,-0.025023324554124822,-0.551807561750026,0.05738126791443937,0.07409330604010249,0.06796272815235138,2011-09-26 13:18:08.104024942,8.810263902
49.03126580277718,8.458168655236529,112.55099788270715,0.0046340600689173325,0.0756278807769614,2.6235435341668305,0.39393620141510555,2.0966605375510152,25.22793744768035,0.18287152673444737,0.09307754183829856,2.046067259689642,0.07199500832548777,9.789257027704004,0.6950969935649054,-0.3552158282122824,8.209104087575714,0.09826297794540187,-0.07238464773321233,0.04823247660072407,0.09668463604323971,-0.16008778074743912,0.19773705513130663,2011-09-26 13:18:08.204200459,8.910439419
49.032215532848326,8.434280548963558,114.7656215048599,-0.011126344736691805,0.02447264944452187,3.986294244623144,1.5787878287019739,2.48351004084532,5.239859032043717,-0.9235278286842218,-0.0700809912803703,0.2521194532792188,-7.873319302594114,9.756163458950516,-0.2451044833898764,2.1913426973597177,7.630833012796527,0.09798636809988732,0.05647302487711774,-0.18591922424225657,-0.04905531489810066,-0.19167301073155188,0.10377697651344886,2011-09-26 13:18:08.313998338,9.020237298
49.02876817433529,8.436902736998263,113.7754061136247,0.09588410824663274,-0.006317306196961145,5.93938744197918,2.2298791434247867,-8.636887259516945,51.03638362533401,0.38541598800444077,0.1473766045886028,0.8700315842207684,0.6448759416456954,6.359689772689657,-0.2547490792754739,-1.061554596045122,11.259812926965676,-0.03255633317079243,0.5788906541218191,-0.12851041781015363,-0.14365153947940051,0.10976192451856497,0.16764143750716554,2011-09-26 13:18:08.413972294,9.120211254
49.03079891330933,8.441701536899979,114.32758686452455,0.013350181801916121,-0.024367819389774146,3.0919746308185867,5.366321721523726,-2.297344181619926,8.857039928782974,-0.12378232214456633,1.0000430011348065,-2.769447895557876,-0.6289415821889475,8.85088630114246,-0.08092826608251152,-8.212954734927612,11.424306123189464,-0.09290213885510791,0.7291735052683772,1.311427973733526,-0.05514927438648791,-0.05708888713892418,-1.1525231695971991,2011-09-26 13:18:08.513976808,9.220215768
49.02505453247209,8.433305100036904,113.51823817688948,0.04411135485694703,0.04413255190344519,2.5595899505266475,3.397031834340452,-16.588589162647086,16.774123748429528,0.2662984950558236,-0.12886657387850373,1.1243536381607113,-0.7643182522320103,10.230784586557519,0.08154248641096079,0.36010144391064525,10.312576845971357,-0.030138541770731626,0.02368481594308893,0.13737133353181652,0.023253497700785705,0.14772311194990628,0.011609063334388312,2011-09-26 13:18:08.624043380,9.330282340
49.03257499048445,8.404778974835262,114.67263197555326,0.04435955915787693,-0.0009525268324617232,2.8766435892918345,-0.46786480700359423,-4.912685654878619,4.701271434788669,-0.336663684229425,0.023560746525362233,-0.7896645706077552,-1.0353438162033735,6.051072566823375,-0.3982203914743439,0.03759810598691182,11.205921102213038,0.04747692372536193,0.0588753658375127,-0.01630987173814005,0.03589706111894361,0.06412907214433804,-0.0698860435826721,2011-09-26 13:18:08.724085724,9.430324684
49.03381952321711,8.445758756029772,112.72465022853152,0.13841500741354307,0.00895121173309938,3.16078543230008,4.998586272012395,-4.773170304119834,17.35766636123616,-0.3138563363099879,0.003179740484610699,0.79514615645222,-0.2670601743617779,9.144929984987629,1.3969476048016085,-1.0271163906932157,9.798873263511615,0.13165095512224204,-0.04421872603275135,-0.03892998998628761,-0.023596471529998175,-0.001999605442937773,-0.11708801653777288,2011-09-26 13:18:08.824058591,9.530297551
49.033479831501666,8.431138978123146,116.76522637261999,0.012883688429450701,-0.006865241205734299,3.041600428541793,0.05805873186941346,-1.5737948091056255,12.792299951763342,1.7012973621817102,-0.07113964477516536,-1.4701559715589516,0.6336342369001912,4.985091912714105,-1.516143129205968,1.178568501455027,8.096522354063206,-0.0460636839169901,-0.00010552448482782553,-1.180914880263084,-0.3935454612056226,0.10001078824397298,0.02435360074137119,2011-09-26 13:18:08.933995195,9.640234155
49.03257318060888,8.44078235837833,112.17549304128882,0.02879030804933361,0.02119504852237855,3.004304248483529,2.403894655874757,0.18601080215404764,11.207954527654085,0.38891654811605386,-0.3438027041549153,0.4442424490118932,-1.6490601368693543,9.436909934228808,-0.7564381582115349,1.6186191313022131,11.062648955038526,-0.02092430101609292,-0.0005628930473826205,-0.09854083296644915,-0.018518288107450792,0.08610753575895079,-0.00022474743072626452,2011-09-26 13:18:09.033943766,9.740182726
49.03286466130867,8.45299813242363,114.14218033979373,0.006131469289702525,0.0014870759754199575,4.1805806524152835,0.9010632723758945,-25.665725497141416,10.537102353759483,0.3579066907364911,0.04509704345724874,0.5227314985191884,4.223703666114528,14.926196237939731,1.51479121377409,1.9371613619207537,10.15053337834923,-0.024310029441993286,-0.1948456169791941,-1.56202472479783,-0.09894215140793303,0.04839797205952802,-0.06438078451004331,2011-09-26 13:18:09.144014546,9.850253506
49.032177515381214,8.441530784552373,114.24508008810152,0.05476716039899922,0.013237530494201316,3.188827473608627,2.1269324881620126,-14.63138864561204,14.312075468029004,0.01579248220398556,-0.021126974129015028,-1.4117064940093078,1.9813695630608537,10.175905362835975,0.20846872164690228,0.26812148874647057,10.298785800859505,0.201158312267723,0.07328329581769205,0.1361338795433258,0.06742912862309337,-0.5814041716755722,-0.15215315751643493,2011-09-26 13:18:09.244213231,9.950452191
49.03261391332156,8.440222634495912,113.58931863628354,0.03380313846914436,-0.00036911657011826256,3.2295478251248992,1.193182023142218,-14.084114166502575,7.086363592791312,0.1928793132553691,0.04807250123905364,-0.013937136328886796,-2.1712906419969227,8.033145758391552,0.3542179831083499,-1.4525954857499974,9.334943762902075,0.08763717863989122,-0.0037772784373337797,0.00483828405257737,-0.00786846039823969,0.03892807803159572,0.1658296932441562,2011-09-26 13:18:09.344041127,10.050280087
49.03296093956236,8.435614136369868,114.8445694710045,0.022335906581939027,-0.19680529260259835,2.172932005442295,1.3408427169574249,-11.895598265038373,31.969802866390825,0.2941183114764975,0.279189308678119,-0.17788706944502872,-6.5443884534251255,10.036677884628494,-1.4588749664044507,3.4804267405216422,11.072242853932407,0.1071071538565368,-0.07620324596488211,0.05115547287654507,-0.33001050825259615,-0.013845137768889314,0.06287000217285094,2011-09-26 13:18:09.453953534,10.160192494
49.03214931404719,8.44468892539288,114.41871037484026,-0.022583635777950896,0.006193665946454702,3.704772447620562,3.6893584166067335,-18.946447805697964,14.10224552448123,0.23918565015503224,-1.0034752836455039,-2.801204037835166,0.7668612623156335,9.785373757591634,-0.2453745636786498,0.04788264042802634,11.094148807576913,-0.3208299523802595,-0.060377494341964426,-0.041642341120982695,-0.020936033779178853,0.009254350408640524,-0.021729746114456407,2011-09-26 13:18:09.554071270,10.260310230
49.02896370243643,8.43169172966299,115.61437416044302,0.01633684851530702,0.014395168644628299,3.060528196389905,2.0008842391619233,-54.39928576729724,2.8294215785465973,-0.20480505415548395,-0.07557504207496774,-0.20003145096835803,1.525155626955388,9.865257291195679,-0.2794503865217626,-0.6978787186592603,11.638893735106691,0.04527227699361328,0.009313826436301824,-0.07936092100306773,-0.0019265592083280124,-0.09550322789723754,-0.7628412894187389,2011-09-26 13:18:09.664080363,10.370319323
49.03213618542394,8.44213882253992,112.58712485958135,0.016202130851821192,0.031732799259306096,3.125836570448774,-0.4610308844545792,20.19035094854748,9.094384223020098,0.5622808252857051,0.05305315831488676,-0.35688284430410794,0.2722037260298628,7.942755535713748,-3.8691335657713575,1.1330408580078615,10.289733312518448,0.07948529454058226,0.04346162259384839,-0.20678925360302505,-0.3094320338708905,0.08462147213721816,0.11767698888335078,2011-09-26 13:18:09.764108368,10.470347328
49.035385247848296,8.451118073761531,114.37187595228774,0.06497148216370593,0.03536566119091214,2.6052510295774245,4.278282537416443,-16.138102929625653,15.93201411798405,0.3744928466879889,-0.40013300031649623,-0.8095438004589262,0.570111555043714,10.569946998545461,0.6974313692658627,0.14073090827350931,10.56683902375277,-0.006230484876498677,0.017633005903583028,-0.1381496726013299,-0.30106472203351264,0.08952680717639644,0.10311831518957085,2011-09-26 13:18:09.863996931,10.570235891
49.0311565270622,8.43014962545692,114.47658074048262,0.03427658326759575,-0.04820176518402167,3.0732314039040265,-2.0348538079733873,-1.0442153449066547,10.043278983902239,-0.14275629640283632,-0.08501125377674006,-3.069136991589948,1.0232392029082658,10.982791205580925,1.1042807937886436,0.9461896179477413,-3.0584205429129625,0.008582639435858913,0.03307595315739546,0.029034121408500528,-0.006109556059248473,0.055510695843879784,-0.09396947945566986,2011-09-26 13:18:09.964015512,10.670254472
49.030233067919994,8.435891247608698,131.33110430565193,0.018562483312453998,-0.019303256082521224,4.888049711414395,2.6898097121543065,-46.382273225592954,-2.339223415512559,0.26821376829187715,-0.21523527215202465,-1.9892439544743952,-1.443110041843785,10.570578325172841,-0.7032400023395625,-1.8614764343065526,5.974977681522791,-0.04305078623339761,-0.5910594976182316,0.1532067893570642,-0.033421591153596,-0.09387751350013145,-0.03049557948372987,2011-09-26 13:18:10.074046453,10.780285413
49.03426586069629,8.407622394868026,116.49166122266278,-0.06876689141786893,-0.012145852600723914,2.485494241803206,5.558111467858213,-4.626842313776612,7.952749575375874,0.04336095272294545,-0.06378356629498572,1.6648701086175024,-0.37212253551384367,6.199613688002548,0.17498492838593283,-0.8281591880557543,7.220210615483444,-0.10869837019216597,0.005201787620821515,0.09377581763223036,-0.1064470968515171,-1.0012630423361548,0.13430335204626795,2011-09-26 13:18:10.174047807,10.880286767
49.033794026727136,8.446682445467465,113.09876630426095,0.008869692545738753,0.03593414980780603,3.581713524494633,4.119324289591264,-11.318015658819252,7.779778436193172,0.3099221603627303,-0.47906085328055453,-1.0262590242543974,0.35361844983664154,10.473841607360624,-0.3461770134288926,-1.227709324504842,11.111737447439035,-0.009204468690326094,0.05944558873204777,-0.20332025870278195,-0.0709979779165546,0.14686131772936445,-0.020267236329154958,2011-09-26 13:18:10.284126907,10.990365867
49.03219170500643,8.444961110541184,115.47141880425688,0.2789143873929758,-0.019747424947328313,2.9236022262800665,3.488813560585906,-1.471838838599715,10.479202412008588,0.2041446917015499,0.5908130348046841,1.4424972273667596,0.11615920474293676,6.774583712712383,-2.1321234870219845,-0.22087908970566153,9.159574026052155,-0.11221923854721161,0.04056454226614367,0.005601088770308302,0.010493657133954622,0.0699411822725183,-0.2686691791078854,2011-09-26 13:18:10.384106856,11.090345816
49.0333833067932,8.41595853935103,115.02665802363667,0.03215199102994197,0.042378996696319574,3.069683458354698,4.474962205821622,-65.13121613690016,5.86119836373328,-0.1477743284840069,0.29125432019257347,-0.6455628623878685,5.171831040068226,9.945249280242667,0.3511229110027625,-1.0796680534634437,10.97927575066621,0.03444106283006495,0.14920890735949185,0.0639937591779659,0.23717944542498026,0.015681270116100234,-0.039430650718239896,2011-09-26 13:18:10.484051376,11.190290336
49.032286244074285,8.442228317455198,114.59213023368409,-0.27243645539709344,0.0285841207135845,0.3879622098435802,0.24606422826763685,-7.962103101408364,3.627810990424293,-1.14168769472071,-0.38101497152782043,-1.4970933195729754,-0.07490173128535751,13.599572463879426,0.30273824163221386,0.14199685273011753,10.503085151345372,0.05572307503626886,-0.04186666942645663,0.05540251387546729,0.043307719237621875,-0.03253720277425043,-0.36503301912692776,2011-09-26 13:18:10.594198234,11.300437194
49.032648878937785,8.442030219968972,113.00617948024394,0.23485128607871,0.03989313705284714,3.2854556259999637,2.724768474077602,-18.553108531785497,16.044891218117186,-0.02688459933917625,-1.2258046755293583,-10.268599894108647,0.23536768851750278,7.923333440683364,0.9911404401539002,0.36183635486606874,8.437281344534153,0.054535105492361735,0.08434682548211009,0.05442596032169258,-0.5135034450579451,0.07421375231909813,-0.12164114722858882,2011-09-26 13:18:10.694284274,11.400523234
49.03275413470105,8.439716946550037,113.84736105167894,-0.12746401112395722,0.12291993229680827,2.918360268134301,1.1868901715766276,-5.943540168510075,7.790381720932863,0.6044386908011384,-0.040170917347167615,-8.108489301784218,-2.0312793994247675,8.921009441983756,-2.030514474866215,1.7030521835602574,9.702242425847293,-0.08921594734776665,-0.03277631840586283,0.04592794136947447,-0.09848226403163461,0.03568583087173964,-0.18855000961633042,2011-09-26 13:18:10.794284994,11.500523954
49.03195484465138,8.438862206705773,113.28761488716427,0.022997787772893217,0.005865704644581405,3.234663825872884,0.36978724668901486,-0.7849703026236936,11.18833136415015,-0.4666034846456838,-0.17889319197447048,2.666305712033316,12.460528005572293,9.735293643593375,-2.2165312860662856,0.21498391500701808,11.57114283245602,0.07936364852905395,0.1529129445056031,0.12467668287075827,0.016414911429235814,-0.11165486305897561,-0.09157953535576738,2011-09-26 13:18:10.904112544,11.610351504
49.033605395256025,8.434947534014658,112.9753324599127,-0.018737218297933747,-0.007028630767202318,1.3815887761560044,2.3737866304128286,-32.1291856455004,10.718023183310383,0.4234786416679042,0.2408165183199662,1.1093410642337194,-0.7937769877862775,7.934902945189808,-1.709784553902372,-0.14685381790094132,9.548083939991646,0.4277630797736,-0.012713063476764416,-0.11530476034043412,-0.038391385940243244,-0.07797193714963133,-0.14379118733571725,2011-09-26 13:18:11.004063905,11.710302865
49.03125453997702,8.424913160498203,113.7628664887924,0.002964838082504204,0.02521021158328551,3.3273739423788053,2.5173961291213693,17.032482531420015,16.7728990885421,0.5124674069972933,-0.21345876341959438,-7.558040453964294,1.5704399004923242,9.530624046905459,0.5675942233394053,-0.419283254124447,10.322286923147935,-0.039497018792254646,0.13269588799888243,-0.12420253968973093,-0.05909743759124711,0.03795156780159531,-0.06144378288075523,2011-09-26 13:18:11.104149389,11.810388349
49.03277167983064,8.433640093698122,117.02477558755386,0.012471483706884109,-0.008189690229466223,0.6064619744386146,1.8290104189898702,-6.235613233953738,1.308448313403904,-0.5606010765924903,0.07237605846130263,-0.3287305055374642,1.0801923052507816,8.3593772604212,0.9867669303138848,-5.723047867639948,11.928451666485378,0.06554344063318651,0.16360918523961857,-0.028836242332071563,-0.016762719299250013,-0.7721101295681796,-0.00959270980660209,2011-09-26 13:18:11.214302303,11.920541263
49.03338229261402,8.463145872430927,111.20768509833528,-0.008689646817768206,0.0194931390200031,3.3180083986978155,6.163307891518033,-5.105449988378196,6.815948647838379,1.5673207299214582,-0.14957032124758862,-0.8406484700920589,-6.502898603669181,8.061474159109043,0.3350134416691329,1.6900025742809575,7.955834940557416,0.016996234435810595,-0.06985557002408344,0.14864362828089628,0.036946404317927034,-0.14270249624103476,0.07753976564904062,2011-09-26 13:18:11.314143700,12.020382660
49.03294382341045,8.446712113136012,115.29830344066711,-0.026151336771446515,-0.04864658408341705,3.174676618950658,3.8137664617982523,-0.17574702931265662,8.360542939834858,-0.16166864459031205,-0.1837946481296941,0.10744496519710348,-0.49326508091739896,8.804526363292315,-7.997754952781863,-0.7659950796471693,8.066283277236053,0.002124337271952624,-0.0641699091723541,0.08908501536455793,-0.10383488352059317,-0.0854161902640091,-0.034041828197565016,2011-09-26 13:18:11.424124644,12.130363604
49.03290542988393,8.441425183065302,114.76440535874737,0.13126240226707458,0.03975462884746959,3.0651552744217003,4.380674368781296,23.960161548395646,9.337091737618461,0.39579834364095284,-0.09148476720514395,-0.40853024739573024,0.48392081128876185,6.73030012942025,0.95821964755745,0.7552281010755043,10.384476769240553,0.11480469240818256,-0.12530103199581452,0.2811815662602067,0.2854589249577867,-0.016515648921868457,0.1290810705129668,2011-09-26 13:18:11.524116399,12.230355359
49.0327422073777,8.437189114210133,109.42294351580504,-0.006967000697527773,-0.002976892620923246,3.2786283398842153,0.9081696822002319,-13.394741423025854,18.13240852123942,0.43862479833733925,-0.5193188331156111,-0.17714421230293675,2.2218222279578885,8.662690770213459,0.47498364793351744,-1.9946784814931808,8.526810181086436,0.07016525770986529,-0.15148202613728373,0.2508888148514278,0.04399122152357867,0.04259065357791907,0.0530648886230331,2011-09-26 13:18:11.624130662,12.330369622
49.03290497145648,8.434552498037023,112.27359258888993,-0.0025919318189673232,-0.1341562732187095,3.0159970366655204,-0.608619295837767,-9.424145412428352,8.351042640190594,-1.0916350036124516,0.07021176571680939,0.8640113928626239,2.9709353403634964,19.544759378185887,2.4399569483870422,-0.898949219434094,9.124976660680558,0.0684700949435742,-0.0280709652765277,-0.04152702376024785,0.027682591723398226,-0.1663033809754579,0.15740546481171433,2011-09-26 13:18:11.734214871,12.440453831
