lat,lon,alt,roll,pitch,yaw,vn,ve,vf,vl,vu,ax,ay,az,af,al,au,wx,wy,wz,wf,wl,wu,timestamp,rel_time
49.03533078479674,8.444261243243808,113.7396313552982,-0.03816432267357324,0.037157241690294884,2.473437500533087,5.530490539153519,1.2155460390769721,2.6002572591647066,0.374339831815399,-0.29582483046757857,1.78985151992848,0.22073352093240184,0.10989336576342446,0.40462128971652456,-1.0126791045991215,4.796239537726627,-0.0344102607076757,-0.8315011938140995,0.13137710570999372,-0.001272928940503962,-0.7060928361238574,0.04647615882204345,2011-09-26 13:17:59.293761040,0.000000000
49.031986845008404,8.436888072064527,117.1406489167006,0.07986933919845188,-0.027883366273986382,2.7841818294548015,3.055181377191074,-4.585169766148889,5.0224808381570645,0.18941127677898537,0.07458303247340971,1.449787757856266,-1.2585023692029713,19.557248604375808,-0.39515352057266306,-0.8441286281344268,9.739359871738944,0.07134371704039946,0.026186810378454748,0.5562753827728013,-0.015829874645918292,0.01832228591513473,0.15291710222673696,2011-09-26 13:17:59.393600894,0.099839854
49.03405521483427,8.435838600217966,111.82465751516092,0.03128130079089728,0.025042900049032014,4.145726355608174,-0.9384048176447211,-9.37184049238244,10.533326937444501,1.1240456948124644,-0.2370512542696827,-0.305271559449083,-3.7838096961393903,10.328175853607872,1.6921129689973022,1.3732343554234698,10.045757377593436,-0.021678568913300222,-0.02387643272300416,0.2814021469089811,-0.13803443367763832,0.011977075790375616,0.011259725857678954,2011-09-26 13:17:59.503620820,0.209859780
49.032727288100354,8.440603677208879,111.43957777930083,-0.1131535799152636,0.009773783292140844,2.402815941566495,2.2563312342088904,3.4822454952166937,10.370401097544143,0.13307562370656986,0.1702976945246882,1.717149542701979,3.0233178319150946,8.372541888228348,1.2287564345887447,1.8938261869324649,9.413910480356021,0.0012549323026101109,0.20366323775868345,0.4033350081276432,0.05627240104164117,-0.050985081896593475,0.3221725286166789,2011-09-26 13:17:59.603627580,0.309866540
49.04142559864976,8.440059887587894,116.0675314473902,0.0022561869271486394,0.0662626709454677,3.2177833508913993,4.00222927937318,-5.177612110490921,3.668760454778165,0.041270192031858444,-0.2927740285421721,1.2883952957933609,1.5876127552813746,9.910195547127834,1.375886181997246,2.828338010815145,10.311728731448047,-0.04877290964784768,0.23499622892549044,0.06981865466415994,0.2703676511545861,0.008703857979972106,0.048794987062717315,2011-09-26 13:17:59.713670484,0.419909444
49.03383780560363,8.427951882090083,116.25059151218358,0.09575667355103129,-0.005008222087052438,1.5692425306523923,3.312691912000958,0.19007754662867393,4.575354582132491,-0.12175978245562619,-0.1169753092716654,-2.262544358341836,2.7952366437222906,12.278364567209872,1.3089377581509996,0.3485696964567794,11.457629063495704,-0.04193897889268572,0.013805383886696748,0.24143491947745552,-0.0022765995308885595,0.1793099932982421,0.08412909702233218,2011-09-26 13:17:59.813642393,0.519881353
49.033640777379425,8.444333182368206,112.48964680306604,0.05112730585984951,0.06646326226280486,2.1901035598823464,4.123171323909032,-13.621635827047646,12.391660836910042,-0.293414186512392,-0.23852553104628674,0.7123244319569528,1.1954082741343717,10.7464159642754,1.2996563046199423,-2.2371499564472646,10.371624653534546,0.4126251778322284,-0.17480557814969142,0.07771166162486043,-0.05844764532979509,-0.1294717108120742,-0.041982419255936376,2011-09-26 13:17:59.913621630,0.619860590
49.03274489081236,8.437994212095402,113.88200728124464,-0.01286559065958211,0.037604157449424094,2.8209099752346467,4.744252525915385,0.000415689156032073,4.583830970135277,1.375739376535443,0.03109219413796003,0.24263504940810868,0.6346320597707776,10.040009778657618,1.3524146328637923,0.34311095347346815,10.727239317004571,-0.4754039948248931,0.2122546983508525,0.060761809678742035,0.08104370179817383,-0.6095190526461336,0.039466515574669875,2011-09-26 13:18:00.023639310,0.729878270
49.03358088795736,8.438108379736457,113.50671573872484,0.24370291599989344,0.003945724146918832,3.106541249103373,4.242947613843535,-32.2568426822702,7.812047189543621,0.18597677456178308,-0.06982261308779375,-0.7901715545465565,1.6448706567687896,7.468615649754382,-0.4190641771814316,1.7696128559535174,9.513753027985729,-0.11227882408510087,0.00534286141965285,0.0925524470003044,-0.06110141333785377,-0.05774862111177696,-0.03810753270440288,2011-09-26 13:18:00.123631319,0.829870279
49.03260340854712,8.445443058306855,119.92606761415409,0.1928946714726823,0.0389653909525762,2.1928734513051547,1.3260080078210463,-14.124159546474832,3.442125436627305,0.22025709028479146,-0.132094178279517,-0.507784840504605,2.5040901886660034,-0.08723958686262279,-0.3361594088936315,2.200591472555417,6.294626802048375,0.026697824435916673,-0.0016205366484820932,0.08110830849787853,-0.08684315750324757,0.10752890196880041,0.3401043238670629,2011-09-26 13:18:00.233769345,0.940008305
49.02823449787293,8.443355398412123,114.39030051679231,0.014185580205732445,0.03461226276348547,0.23033752810286634,5.0981434861932,4.918779047505467,0.9922618628503761,0.15194151829570002,-0.3969147846660992,-0.7669881701384382,-7.1195742593918485,11.083272855746818,-0.78139518133223,0.9316947132405129,10.744339992812442,-0.05661956211747127,-0.009874854469904992,0.034900249903816426,-0.041729593690732036,-0.2627936960788201,0.2402467228039525,2011-09-26 13:18:00.333612586,1.039851546
49.03107484731143,8.433868169355257,115.3837339658489,-0.056832424886436174,0.046430128237854175,2.6258359655956616,-0.5416271365017811,2.2793281198962787,4.721114746546315,0.828405493939041,-0.1772475740639043,-3.064176963009797,12.204533412289154,11.884964966332817,1.274796702636962,1.2839321586766486,11.478679903895292,-0.04229281416864547,-0.0252710865221111,0.13683868192314957,-0.12561551366486234,0.08519637716921692,-0.0786342114097949,2011-09-26 13:18:00.433652902,1.139891862
49.03155911684788,8.405543399200724,115.02524809174909,-0.0006337975495762111,0.029756835219599816,2.496898870808392,5.429273710646559,-7.363728972096068,2.110633382373417,-0.0750673342127191,-0.14571356929524892,0.04666886526693231,7.427413430876806,10.791192133724062,-0.6915613925598689,1.4394898995422438,9.48480390870576,-0.037295029965382004,0.07194472822685405,-0.11181844080936885,-0.04090631973477613,-0.09100033859223225,0.6179887448633893,2011-09-26 13:18:00.533595411,1.239834371
49.03211131212527,8.437072149467019,115.03796046463948,0.04180342590185103,-0.06476109776564795,2.400946661652184,2.935295415336075,-9.525340029444347,6.6688378396407675,-0.5293689588895051,-0.2807891053734022,-0.47648694151462234,-1.5876636328354583,10.21212088407901,0.5715445699100978,-0.21957454372151886,9.311573337653948,-0.030238084019393652,0.06912484578780571,0.10721888138613442,0.004589869343545459,0.07627676399712735,-0.06022126648059334,2011-09-26 13:18:00.643681971,1.349920931
49.03266882805003,8.440170502028272,115.50853075412974,0.025063605555977406,0.05154353279871634,2.5343103751162475,1.3246592304295928,-0.015794134490557,19.119170745120165,-0.06224182108594031,-0.08597363730447627,-0.2728182990833133,0.31893211446430536,10.182633888850777,0.14148386831537896,-0.950725608377147,11.701336818070374,-0.02585217572773003,-0.092900857530573,0.823102038480912,-0.06387528810852669,-0.11395269575221371,-0.06063312892385989,2011-09-26 13:18:00.743676333,1.449915293
49.03254315285725,8.437478463845034,113.97640599139581,-0.01735921000671948,0.001589046840913308,2.5221270039583437,2.8180899419806154,1.4570256807113022,5.388964602058559,2.628890789203102,0.07525205867238607,-1.7399634567843245,-0.05838384031868804,10.615400469340354,-0.3522408581457782,0.8396812427900485,9.719704926443706,0.0673987072032281,0.2589652604552193,0.10048243278776078,-0.024020759029778835,0.10482218570929468,-0.33676930511058145,2011-09-26 13:18:00.853667564,1.559906524
49.03110684461852,8.43805427181858,116.97103461094353,-0.054925489874081024,0.07262687105992956,2.4870030609139175,4.17958694521925,-5.5657116000977425,5.797942505364384,-0.1793759201222068,-0.01841730201873238,0.6070924234300155,-0.4085487232835021,8.652217438394574,0.5245290985413318,0.8568549686728313,8.355562582751007,-0.02343898690990024,0.036754425883769454,0.03421407021715061,-0.08482210440590557,-0.058918880147332486,0.13597677805860053,2011-09-26 13:18:00.953642273,1.659881233
49.03273215621959,8.444654289778363,115.52615234004541,-0.040826783155271384,0.13261814802355243,0.9059698202403819,3.9466948991853252,-11.141336240431492,6.183882602168606,0.010318919512732807,0.10876017578749861,0.3887127772885548,-0.7472639748634635,14.411476753631463,-9.598420930762526,1.4691225852667613,8.741296972255212,0.00010602805633002504,-0.13507884498270464,-0.22137497983992713,-0.06909570550230862,0.1300831466837232,0.04591775645526299,2011-09-26 13:18:01.053659923,1.759898883
49.03179048780506,8.44202069754285,116.03329640538698,-0.09212542035052809,0.03568138155282502,2.671963353685784,0.7788388855796153,-12.630211937394677,4.6790960337756005,0.7680937108754398,-0.05248908762240381,-2.4964983589353764,0.6989621531213821,9.055930154041626,-1.6612920094600803,-2.4870473157825437,8.316481817185204,0.0023609822699114658,-0.08830654869984758,0.12194153292390603,0.03272708232197644,0.1394074318569214,-0.12748553942233698,2011-09-26 13:18:01.163694578,1.869933538
49.03283059181836,8.439490592845603,111.83948991827704,0.010636784443178166,0.03133410700211697,2.8939752308697746,3.853007293439949,10.146083196351665,7.062916919061729,0.11505043712182186,-0.2101472108874428,-4.307637326305351,-15.753175601119612,9.535705974018498,-1.7730490211037122,1.072125988204335,11.033584158565048,0.22005181575736002,-0.22221855417859127,-0.19091713996768572,0.019832945400496772,0.11941594717788168,-0.9816097918443617,2011-09-26 13:18:01.263948336,1.970187296
49.03190261964983,8.410821434064381,116.78514586483443,-0.03395306789148795,0.018156566903037442,2.331962173920323,4.600228078615213,-7.837911586490811,8.663112286252224,0.08033919820040539,0.2953330146490398,-2.45686720965009,1.398705312863107,9.925268687678496,-0.03844339381950962,0.7148382954880232,8.050351047425945,-0.05819440809277596,-0.23135659560600905,0.1458214073792109,0.014829718786972744,-1.365103200740973,-0.04573467529398122,2011-09-26 13:18:01.363700511,2.069939471
49.03059046275215,8.439722015611652,112.79284869643219,-0.012006041285351206,0.013790450733935929,3.388515489911109,4.869169859319486,-3.836430865497403,1.0526268974423698,0.014829769642158763,-0.19575100991949415,-5.8143086155950865,-0.9928199859171539,5.097433027775974,-0.8587127688566476,1.0727480944592138,11.339017324544896,0.3085310702687057,-0.25666973679222144,-1.5885022275249752,-0.18781771618673354,-0.22963369785718757,0.14318079717235566,2011-09-26 13:18:01.473655315,2.179894275
49.03236063353703,8.44500419813303,115.87768320612084,-0.01085155064221562,0.011416121731386102,2.7461801004775652,1.7494993256888998,-4.37708780602483,11.491794497683998,0.47608032926509797,1.3745470414202772,4.042279587300281,-0.3476781057252773,7.908320791261349,1.3902393647202949,0.25805111903920525,9.734110492753159,-0.09015629814917021,-0.1857477681320253,-0.04810801192124026,0.038649854597407676,-0.18233358565825944,-0.03557453257671367,2011-09-26 13:18:01.573726175,2.279965135
49.03312018818259,8.445134280976315,114.5892610869102,-0.17246988756282292,0.022575599699457733,2.7930017324523173,1.0852871555044206,-12.490520223572583,-2.8523876847080913,0.18921888094546835,-0.30280484894834503,0.7044430899503904,0.7279743802354259,26.593413950929108,4.419376049004567,-0.13411861750090204,10.860624478488536,-0.26551817091311913,-0.10525670349297403,0.07175102456519802,-0.08837701317703918,-0.21448127042225362,0.526286956541311,2011-09-26 13:18:01.673740857,2.379979817
49.026815733466236,8.442492346986597,119.44135168979054,-0.026161393428214937,0.02119466827525199,2.508802173637373,0.9843119141056778,-9.945351348943445,1.8571842994785683,-1.1978217393067796,-0.28807183221784893,-2.0726877285897625,-0.2652985873049759,13.097620870368583,-4.823376256541697,0.9789594878158229,12.147205021445602,-0.21308461930697492,-0.5223789386342582,0.11892670644003485,0.10532794741243767,-0.8572669083829978,-0.06482922230530483,2011-09-26 13:18:01.783763073,2.490002033
49.03256137293893,8.438823782664139,115.36757971258845,-0.024863720289386423,-0.0270186278377047,2.182369324924523,3.7782832240427484,-14.847964203566054,5.044169089250893,0.9966463204238092,0.3859256349444574,1.6892364480974909,0.3172972560126086,12.79680966775667,0.4612287866221369,-0.2823408670677887,11.87330296602562,0.029994210390668154,0.12784521295727724,-0.09956009990567803,-0.029531241297750435,0.19528111573281468,-0.06367694852154242,2011-09-26 13:18:01.883662231,2.589901191
49.032418810975386,8.437761038318728,116.5857246871707,0.0012692544474725226,0.0029645424467247983,3.28469373925333,4.9355627213047715,2.318849859532837,7.341316595124339,0.10972646284074225,-0.6775924375609241,1.2319293084565797,2.8107837787470284,9.487593985641801,-0.5586447393887075,-1.1258999765040443,8.919109009310187,0.05239836578332456,0.1362439723767807,-0.06013422890520892,0.023824639926196343,0.124837075294149,-0.2111986316858833,2011-09-26 13:18:01.993810233,2.700049193
49.032779776791976,8.435350476821743,113.2373346478149,-0.03836290912010154,-0.06901484189407994,3.124473603758256,4.767656481436901,-9.243176381360275,6.64149735881309,-0.667829533706439,0.002551816332721238,0.9686616335023623,0.1297463999066306,10.810643530782357,0.8765296826085588,0.7598743450201259,8.835383790224832,-0.017869234225623126,0.41990688877686155,0.06599824548370083,-0.04079951211904073,0.034667318282906256,-0.02700012515853694,2011-09-26 13:18:02.093724349,2.799963309
49.03342291262758,8.442516723264752,115.40726839386647,-0.042490046548451135,-0.004852129866481838,3.4831299384942174,3.8253732016384316,16.070045685940432,3.640874924450734,-0.44681546301042063,0.293036705404334,1.0793586680740406,0.2909952676718951,6.98827295120892,0.2015056074858527,-1.75294868229415,6.956167665729856,-0.1399467759854512,-0.5184516761664213,-0.035004021651032,0.00348966238215017,0.004357488053733949,-0.04467009496340889,2011-09-26 13:18:02.193810715,2.900049675
49.0386139908605,8.440713980725572,116.36255463608988,-0.008140670295891068,-0.022927827348754152,2.410072395364003,4.796020808372202,3.1442257463683583,4.5745966088172665,-0.9159181654757745,0.3261295878026792,0.33609547547474317,3.4024504873848325,7.7140250707501075,9.105213467376148,1.1738704152467396,9.6963309838424,-0.07525385686122973,-0.0854422989026674,-0.03313220099408393,0.009218425311069457,-0.037286234468200334,-0.061035353812039075,2011-09-26 13:18:02.303750233,3.009989193
49.033586006617895,8.442808224002084,113.89685496342328,-0.030273523065193618,0.004582920058191847,2.227395592030843,3.4547632974665703,2.9732353164847134,4.43402946906635,0.14771132211933713,-0.10190639885847233,1.3097780547634055,-0.7148771124883369,12.095862743027393,0.6577050445578485,0.1499922907059192,7.683041992570143,-0.018331905631556865,0.07659619160131544,-0.1660307802038395,-0.02698521416033467,-0.19825595744615923,-0.044092297844262426,2011-09-26 13:18:02.403670366,3.109909326
49.03238902608266,8.438491811414746,115.75156059709444,-0.01877637381667189,0.010400083630083188,1.867338864022076,3.4861325426564687,1.5956640119034837,5.120710048995565,-0.2520610759218819,0.027711776360259156,0.21965877752343604,3.278104244632931,8.433346645381867,1.1655867033629836,-0.08840842494205164,6.971083992384619,0.08180433690712526,-0.007690869638634364,-0.13530016361882674,-0.06701816039311985,0.0022663898883884953,0.01211104758780423,2011-09-26 13:18:02.503695584,3.209934544
49.033122725050454,8.44063612225046,114.92501128188049,0.013444485824272184,0.005791984573969379,4.358367359922655,15.895461122299407,41.445182087233235,6.68193448766065,0.24360706429896584,-0.3307919527024521,0.40112688121586987,1.9485230380830754,10.984758848988081,0.6316055912516088,-0.7083126732196277,15.419038723103952,-0.0006955545850416325,-0.09952900519791077,0.48998191385925033,0.10101995076986639,-0.15065824740602765,-0.024910346990855165,2011-09-26 13:18:02.613669277,3.319908237
49.03181322212574,8.433460897413555,116.00367315528204,-0.00827623384108077,-0.003390490100485072,4.14493341097092,12.151331760827464,-4.071598752096531,15.389059567338855,0.17892890572505754,-0.33371649026479877,0.6781482256472611,3.230464737848048,10.029651034767971,0.3476607124239963,0.9589142898433756,8.765182707733054,-0.4114863095200818,0.035052950076156705,-0.12298414372578845,-0.04792854475413896,-0.13277168812276982,-0.27733814990354233,2011-09-26 13:18:02.713862335,3.420101295
49.03361817970415,8.440248601568797,115.15415172758411,-0.041498291924251245,-0.026474997946445637,2.371875309185856,2.9893498819881166,-3.694085521555417,4.519457976578249,-0.8576590723743575,0.03647638029286831,1.828895849896291,0.9864161725245962,5.7075976872767855,0.7510466968945885,0.33134890618267937,15.541596155199546,-0.03774782988198683,0.9528130749718482,0.22076379735685944,-0.02456488071306255,0.16128876650473725,-0.2194073979408032,2011-09-26 13:18:02.813738951,3.519977911
49.03186448399799,8.450507742655907,113.03197300804052,-0.018463063316061724,-0.20941061005930653,5.094689797522085,4.879145170661445,-7.237361197146685,0.957157412224424,0.06209772712984038,0.4317895953319607,1.9465841985782029,0.957134617330117,8.855872085956051,1.4453699630624262,1.55357831802199,8.839251961840763,0.04543305958307324,0.07090029199647598,-0.011830778208790044,0.06842363284089623,0.14783443051796202,0.10405209822969513,2011-09-26 13:18:02.923757847,3.629996807
49.03209868216635,8.445615408116474,115.36653329737432,-0.028077781779481434,0.0017822976410191522,1.7994291937248672,2.9906467439664426,-4.459843082784749,5.583877108156193,0.33415836416992944,0.048687338639643404,-0.15502560514555574,-0.8496965113115311,6.370945929643896,0.4656556429133971,-0.18281306233201305,3.5424585207018504,0.08814699580054848,-0.06734724186473096,0.15799626898525157,-0.28724087276438864,-0.14115822528329408,0.19168160335176437,2011-09-26 13:18:03.023799275,3.730038235
49.03157455635788,8.430525460843976,118.48248015824042,-0.01231716046480448,-0.011044727432428628,2.0697252089308544,3.100285308958841,-7.857240692652097,11.954356928157484,0.033409033750537505,-0.06609806175418836,-0.895364967441269,-0.26283663778010125,8.954047478335072,6.3054864415327785,1.0764227401399098,10.4081553652044,0.0893601140096098,0.06005774711521004,0.006436279093828087,0.016363732372038222,0.1536265464444185,-0.36861157864844596,2011-09-26 13:18:03.123703210,3.829942170
49.0331102391129,8.440764387283508,99.89684242156513,0.0016491419685145535,0.21200666550608704,2.1205990064791385,4.147915791175008,-2.1986198591001913,2.169284641115325,1.2213002922674283,-0.05108869690754642,2.0621328096939235,0.05044565289373951,18.027795896009394,3.5625272785874276,-0.8953481657307193,10.50026370631449,0.0729868145218834,-0.04804675305196312,-0.21309791913534448,0.05357583555498091,-0.009564934262156691,-0.05790232822977105,2011-09-26 13:18:03.233837510,3.940076470
49.03303218244281,8.441243389698926,115.58895154525412,0.03518263398505303,0.019561783304913257,-0.47036891235876155,5.3491452545843705,-6.866975030346931,8.428489195744294,-0.08141790367617172,-0.028062585952129526,0.8472849120592639,0.7097920227830848,10.054070440487939,1.5649800933891953,-1.1914748905214623,11.868231655080073,0.11648268291421246,-0.11870378492723999,0.49366439511806565,-0.06696209731157503,0.07587270446138422,0.07232634391819556,2011-09-26 13:18:03.343788999,4.050027959
49.0338123736005,8.443033105490388,115.1823741510562,-0.025206730414459443,-0.03782758112556704,2.2147947058879045,7.142212175407661,-4.804837499832589,7.312709019314862,0.08728044699686155,-0.07359245610700141,0.8210618953030426,1.1546027320992176,4.69184425023227,-0.07548753572547096,1.2544324370159377,9.864606336181415,-0.06103177851489076,1.1508155680059915,0.0632102925068876,0.0038570289912029584,0.09965544209284252,0.016872326560385776,2011-09-26 13:18:03.443788114,4.150027074
49.03243106326794,8.44199282501876,114.44871942504106,-0.008749284112700418,0.013963882827388203,2.690056127717491,2.509337500869137,1.3981868335767285,6.463100411778011,-0.06823159589657582,-0.21535555795145958,2.3559946865977226,-1.8368433753473732,7.513498756015054,0.37041753671660926,-0.4311560522772696,9.41272395021163,0.06759730695956839,0.07414858930171042,-0.08585447535845425,0.015623329105042697,-0.04675921195568933,0.1010245700806183,2011-09-26 13:18:03.543834756,4.250073716
49.0323311198993,8.452357683780042,116.85591267458841,-0.021200152531548395,0.025431063705972357,2.5644739814369277,1.121881034189944,-3.9509096582610437,4.3511815966713465,-0.3960319036065851,-0.21875486742211536,0.5005546102375218,-0.6342932022341278,10.551665782095702,0.3095142360823908,1.9143216815641007,9.180981031334825,0.025951580612663314,0.015028947501083077,0.1981907403684404,0.1030003722134243,0.12872494504208815,0.03845068973984018,2011-09-26 13:18:03.643788145,4.350027105
49.03272634844128,8.443191666232904,112.25686826995933,0.04881453305562641,-0.03732198766108448,2.338383501578065,4.478933701544262,-1.2577447322112874,2.790516650503822,0.4225077008479199,-0.3133552906708537,0.9204181943991055,0.27765213558424656,9.792136742319634,1.3857648566775964,0.09169098869842507,9.84766601162025,-0.03339137750187333,0.13246117496015405,0.003266045638214983,-0.05322570299403427,0.0060004271007737964,0.06599709727764894,2011-09-26 13:18:03.753848180,4.460087140
49.03254229693384,8.440825540690009,113.86729447633046,0.01034170047285799,0.02275451113499361,2.3066557303304935,4.050124526937503,-5.573737525590809,-16.29340731784487,0.8949250725925846,0.22533080790384352,0.15562961684687804,-0.46532963584987286,9.720970606808617,0.019115356476478107,5.686682124210524,20.53037884673311,-0.0075087283107216456,0.09731869389350131,-0.03075339205903873,-0.08907528257786701,0.22516633315910892,0.2382749286700713,2011-09-26 13:18:03.853799048,4.560038008
49.03219829231688,8.434793589711902,116.48853232725136,0.02900684878933714,0.02784013136473809,3.059700008646738,1.9444914820341372,-7.571523162825597,7.406081018807234,0.014542865225130326,-0.17146445870669919,1.1451585770801882,-0.7909297673080067,10.721915238182044,5.830593304524008,-1.2990031913254358,8.200905786453792,-0.11450204674353862,-0.3127498803319463,1.1586633587846504,-0.08297375464096565,-0.016485336993687875,-0.09988976784848087,2011-09-26 13:18:03.963804761,4.670043721
49.035125830213644,8.440829540509014,116.63717048509733,-0.012045493765924236,0.08703445781747433,2.4890295583429696,5.066259337843002,-0.6295389381063039,13.21408451474771,-0.7883016235090022,-0.027171302716246994,6.9192220278493926,3.431746515468005,11.762048398351764,1.1783552491986884,4.237129282824718,10.56357294034026,0.012393924630770938,-0.10179815950348425,0.01559236292480053,-0.038592304513168,0.04041870420305341,0.0925797195341091,2011-09-26 13:18:04.063841466,4.770080426
49.03197821646718,8.437543352709573,112.20733409787243,-0.023113958332194845,0.05417554816130857,2.7424767768319684,3.434785756702882,-9.943442640855089,8.784580954948638,0.3399226777741846,0.11020764773645153,-7.771621509892849,-0.951617020428615,9.100476709422079,0.5287842457009435,-0.05213647355579401,7.605964819646223,-0.016003814267413187,0.09584686482927961,0.12540526080529119,0.07146807258290494,0.031667916493247905,0.8826921795544499,2011-09-26 13:18:04.163824904,4.870063864
49.03271714867928,8.429802307675658,116.16687731467192,0.003802121230550572,0.023527275563852684,3.0499113161500064,4.032645035493908,-6.521855843588315,8.166781300151044,-0.34638409112909163,-0.06617208700939708,0.6841714542130759,0.028966734611961253,10.691501078729381,-0.2029291795902893,1.2157304385428978,9.677091996163549,0.06130630634454855,0.008133557933929923,-0.1017595442311747,0.09064200747771013,-0.06686510863807082,0.20603092541939214,2011-09-26 13:18:04.263857596,4.970096556
49.03272731933686,8.443655820885251,100.77822255695389,0.0073261117653916534,0.025541062462253225,1.2686013632115998,5.385985629143984,-7.059030058862489,2.687521523812626,0.9158292840363718,-0.18004319570886945,5.207397847242143,-1.0621493202711394,9.385042643027983,0.5440194409261314,4.874009365648383,8.938951030370584,-0.017775590248052163,0.03593681665716272,0.07346345167706089,0.28711243672563597,0.08912992543146675,0.21903588665035212,2011-09-26 13:18:04.373854609,5.080093569
49.02434063438899,8.449934693660062,112.77316349740846,0.047302126670446365,0.03171706765817236,2.2194381943803347,-12.493883503879992,7.405891865104491,7.2737397964934924,-0.012710091278105615,-0.043471618459916775,1.0146856807960716,-1.1657037705768862,9.990200563335263,0.8192446694996185,-7.093336220130769,11.380619433547293,-0.17173191426166942,-0.11283463754361926,0.1345824668044871,-0.0038554300659430028,-0.04803869629659477,-0.15733585736702704,2011-09-26 13:18:04.473808813,5.180047773
49.032853772581035,8.424346118453242,115.32938020555635,0.015191425566900446,0.04507855625522517,4.621237997164638,25.21262708306059,4.966110118291811,6.125780045915966,0.8175221394778388,0.653795102837551,0.49721566770578,0.13569353116915692,9.637183845920614,-0.16681705564130114,1.1720300829359738,9.493877963762815,0.023316550384400204,0.06748881452031001,-0.0543489282325807,-7.781126154880226e-05,0.002061277266166719,0.24565113031110147,2011-09-26 13:18:04.583859281,5.290098241
49.03198289264179,8.466082816095224,115.44524266498792,-0.07798881039948377,-0.0038708677212136514,2.707847740195094,6.2431352675164895,-3.6721999466720123,0.7798763063417606,1.3716363973746812,-0.08848435491357623,-0.4612240443370693,-4.309131238377502,11.417370913449785,-5.419175218856009,8.205347990261624e-05,8.915173411574694,0.3839527154152195,-0.027522158686023535,-0.1169621743504502,0.388993050618633,-0.2462226030601808,0.40093138130955025,2011-09-26 13:18:04.683869212,5.390108172
49.03270197605303,8.469519570481838,115.209801392343,-0.023620070812200286,-0.03635391314814228,3.0258786691451536,6.834140424821745,-8.555279399889105,8.3640202859948,0.19064825537199453,-0.873355605834149,-0.7845127650642693,-0.03426914557953392,10.056080518706155,-7.304666517513876,0.04453605544287703,8.472736305324473,-0.042165424753462986,0.8457243826701152,0.018378992577380147,-0.06859361483766746,0.004622869258087783,0.026311240234330856,2011-09-26 13:18:04.783885407,5.490124367
49.03129140698851,8.435231935166042,113.28358156356798,-0.022282373609765854,0.01331318038456375,2.741893227692194,2.68212328223757,-6.382859560171273,2.696541587609932,0.1934056048079184,-0.06376730278979775,8.449472997788869,-2.3893466007338695,9.970513181543748,-0.10130410540014767,0.7111482949695691,8.56292046133278,-0.10025736067143368,-0.025630275078359837,-0.07939034122246236,-0.01769333312889953,0.15002930707530754,-0.2117208193914313,2011-09-26 13:18:04.893875352,5.600114312
49.03247746382604,8.442762150340082,111.38213045019467,0.0335265202172662,-0.012761791957052784,3.03234994459246,3.7756194667444243,9.907019805444236,4.288549950628994,-1.8899628281771996,0.028080302431143622,1.9032855026472397,0.20195371670432927,6.796114041814704,-1.8576347139617861,0.09479480998054879,11.04183663570156,0.07969461981012593,0.08701108529576662,0.36972536638519704,0.02974756729789474,-0.015913595714753564,-0.016999005482024127,2011-09-26 13:18:04.994003896,5.700242856
49.033182260608456,8.470425497669154,116.42425126857913,0.036254913191541546,0.02153714073393624,2.850453129739796,1.0732143119129183,-12.08069245663877,5.750848148498166,-0.2012283408552311,-0.035373207302489204,0.046484558541592176,-0.21970336911822916,13.024354018629259,0.3863645352596389,-1.6458553870194987,8.815051299102102,-0.12484941675636393,-0.18597271042736557,0.21723961539079267,-0.028126993744413915,-0.29620368704644046,0.1735789845894089,2011-09-26 13:18:05.093978157,5.800217117
49.03297056543334,8.434823439225028,117.35600158921582,0.032122156661499875,0.023786373587017292,1.983636797557736,1.6902023531653247,-4.099380977098989,8.438856396957686,-0.3169255947826546,0.14068958488756758,0.9785437805465238,1.2147823998675258,9.338533930825328,-0.3560963752468426,-1.5221433128467052,8.475070761186391,-0.03308751154369328,-0.0339914939899491,0.005929127150523031,-0.029380499722485152,0.8539384239439264,0.37271044409395315,2011-09-26 13:18:05.204001216,5.910240176
49.03275740032409,8.43636805939491,117.33779617567062,-0.017178884847675602,0.12100259622202077,2.297482999542595,4.163184999122603,-4.884487286742999,4.377242437066709,-0.38826437239599276,0.17340679474404808,1.150524882431949,0.19258841279118877,11.377297090245541,-4.631672098238431,3.5330134028306013,4.867526135816447,-0.023877970890483522,0.08152700243491504,-0.04650394587697641,0.0026285879015162973,-0.055968430876630205,0.16407671340224134,2011-09-26 13:18:05.303844698,6.010083658
49.03197855614606,8.436880942204798,121.14996228648096,0.026691055945523748,0.013590433782055131,1.8605191470436429,1.5102376264912345,-9.9490522373471,6.1850289219103995,-0.20990377754785117,-0.003912429862433023,1.3778299686209419,2.2936761903063183,9.063483740391282,-5.392018436091627,-0.7405250573220761,8.665447746174465,0.3627229641779361,0.1563909602819358,-0.01090247288695384,0.037434894360585516,0.022781805445578937,0.09246571883137604,2011-09-26 13:18:05.403814787,6.110053747
49.02621161938533,8.438468370945571,105.96283784692673,0.011371332676904424,-0.008944598412934532,2.719953578974403,5.944648614663334,-10.207289851657835,2.1412025727592754,-0.6711751888301623,-1.8974903707128339,0.8535468080476692,0.14004425052354802,9.750723130545737,0.08926601625776995,1.29868811678292,11.252590006180217,-0.4490932479789837,-0.05851318678138859,0.05191281335575562,-0.014115454051847505,-0.7900626113634943,0.026728688506154438,2011-09-26 13:18:05.513837781,6.220076741
49.0339997702495,8.440398896025785,114.38738214341593,-0.009831422256228135,-0.019333091967698276,2.696650076734164,2.0091660937717446,-10.817120642893375,1.7198179523498425,-0.007126333058242895,0.026332724001152157,-0.8169796652649252,2.2631730982659586,11.521353558146668,-0.37271156355222224,1.2109170399747615,8.437991041710898,-0.07562928801986532,0.055556785881919354,0.09417237338205683,0.015530482381907552,-0.18536243609305644,0.1838430183921428,2011-09-26 13:18:05.613806946,6.320045906
49.03407981049911,8.424193881640111,114.75924770685582,-0.07356197508898793,-0.00023075768364671026,2.9935814347556686,7.729175907134774,-19.89250822659686,5.506444397588232,2.9640034023035176,0.08506641851750177,5.210497710528688,2.280759951941008,9.410240485297885,-1.1016887803191522,0.7039007389126368,8.621306947762925,0.2933114291123758,-0.0989290104378223,-0.45026976319042517,-0.07139391211624822,-0.485331237813856,0.01741196280652979,2011-09-26 13:18:05.723961700,6.430200660
49.031677476021784,8.431549731455716,115.61391873755525,-0.004494180461778937,-0.0019218824605372609,3.177586055508268,5.590980033284037,-14.151375072640416,1.571968534539387,0.5720802524589989,-0.7447769598465765,1.6515965080033395,-0.5412656180060882,10.51149514548088,-1.5806789161220067,1.774989673207426,8.286765067022223,0.008068316329493508,0.07546123530041139,0.13005979424613862,0.011007540490249157,0.02784677532192277,-0.12193085484680831,2011-09-26 13:18:05.823879725,6.530118685
49.03373126531438,8.397862354859548,114.54977446470149,-0.04067792337517828,0.05014266511916793,2.4226540613393213,2.07190589472579,-10.390408496707133,23.04424729791131,-0.4109244438238814,-0.027893624087197817,-7.512344965836127,3.2530518850857537,8.561686415604516,-0.7285607872911646,1.616009662255224,10.331348009559623,0.013320914688453532,0.057203230578588116,0.22177042419734258,-0.000918632065676253,0.5424746129061695,0.9410686032548019,2011-09-26 13:18:05.923851020,6.630089980
49.03335789646557,8.449728365215833,106.52943009728494,0.09939111894882663,0.01822936129159626,1.7956203201676533,3.126323255009628,-2.8636135432129466,3.646903168899054,1.1633531020247965,0.1642050677488979,-0.5801830977332342,2.4066969797803637,8.786070228501776,0.15990299967021776,6.802533610728063,10.867515578489433,0.07280829839748332,0.14864119241318743,0.2011018483182886,-0.0066660629839005135,0.0007108899011913829,0.15765212379005983,2011-09-26 13:18:06.033827217,6.740066177
49.03416134783139,8.445525763886703,113.59923445712208,-0.01885144054678889,0.019376727843127377,4.556096179586136,2.19688928281957,-6.1424135258539305,4.158944416386214,-0.17722904839193662,-0.11710161632620264,-0.5692343635493715,-1.6045947619931602,8.454659916514036,-0.6490001882608817,1.9494835497757053,13.905610054584034,0.16145976454173552,0.07938236915825544,0.06486128186051963,-0.09650899012817479,-0.16165732111540654,0.02260110145384414,2011-09-26 13:18:06.133878427,6.840117387
49.031975196994395,8.441268224493573,113.96742647034009,-0.004579100986136519,0.01100920298062262,2.7190899342859853,2.585814460671154,-5.613248332233619,1.6480771185935446,0.32736586447052907,-0.18947710628587594,-4.575433653401822,7.885878020183072,8.77324671133724,0.06945198340034678,-0.27231285389015203,10.9579492590197,0.005981048389881529,0.4084322508632116,0.1225193448017792,0.055846695150231246,-0.06111506139936365,0.5012757609421643,2011-09-26 13:18:06.234030462,6.940269422
49.0325534203103,8.439813762050095,121.48168707424864,0.011541450137347094,0.022753975809472592,3.363244872256576,3.5316897096421864,-2.0542648541405066,1.2366251834184885,0.6177183315143178,-0.1853549723125024,5.615213130313262,0.24233176043074006,7.727543258545959,0.28500561961006704,8.872404846458226,10.461391441926272,0.07155180392826363,-0.08075212346933351,0.11287550961654154,0.07990864255287833,0.035301395874855174,0.03482665329695203,2011-09-26 13:18:06.343944930,7.050183890
49.03297446577256,8.437046418923769,115.16987008182,-0.2640704379112391,-0.012807226941733418,2.7183515309619217,0.8727443750572639,-11.810138265927426,4.414048863251619,-0.020803860703525565,0.03468631570467015,1.5336612264525171,-1.5390434745528518,16.150334922364756,-0.4254071620308291,0.8128796330086632,10.444797053276295,-0.08600272602031035,-1.0358846675778979,0.30638824016089333,-0.06217227270697413,0.07567643725647923,-0.7423555016877377,2011-09-26 13:18:06.443922279,7.150161239
49.03208432355056,8.443033222740052,116.06674695062772,0.017217072115570647,-0.011381447554627153,2.793734051524658,3.0315139948515237,-0.3258281811442254,10.110680405574172,0.8247848996824296,-0.21535252611585007,1.1617692753174458,2.7948441086757225,7.308137601545255,-1.651911002345536,0.3645401628184797,10.707641999339828,-0.07100739248014112,-0.02428304372496195,0.27092878762073946,-0.04447652559979485,-0.13077347036049344,0.10347960764915784,2011-09-26 13:18:06.543938412,7.250177372
49.03138275498148,8.439975446075996,116.1420797655066,-0.005282631709555838,0.03944598110717415,2.6767892191717375,9.054767326487251,-1.479112311005344,5.5665096884456355,0.6054370202788932,-0.26561776267370363,-0.6095861501192612,1.398892316834902,8.572516771127557,-0.6271930966313009,1.215053782372971,8.80013512243413,0.07029242220853693,0.12652619264722254,0.23692803133930262,0.08513376908072005,0.09976747884566041,0.11165245775013845,2011-09-26 13:18:06.653896495,7.360135455
49.03199683938181,8.428096051525658,111.5590659246829,0.036384250061789136,-0.013173050504223214,2.3925166683105457,3.1091680373586588,-7.571361004303435,5.225060831815432,0.6000164972646593,-1.9413357182223219,1.3890485375177106,-1.0692761772515096,9.217966788294618,2.689220470490597,-0.46823313670860833,9.92946339912657,-0.6252688026841517,-0.14382588448193315,0.12876327801510656,0.032901927302452574,-0.029634505002338656,0.04345201310174483,2011-09-26 13:18:06.753917146,7.460156106
49.03377621338716,8.427171367142828,116.7780121679745,0.20216496196810668,0.053939400651751575,2.8374039822437607,6.48420985385385,-9.293224921280318,9.898034066738209,0.3963498304241511,-0.42604076969648813,2.158699398291203,0.27851366114348,11.02236805640623,-0.13819750835749217,0.011533202282799526,10.37465241222527,-0.12408915595668238,0.16760628963118712,0.024999260024325218,-0.032480893604138264,0.11309917175008052,0.16981805025763005,2011-09-26 13:18:06.863938535,7.570177495
49.0341619069349,8.434112164456945,116.04155388366132,0.05360841871689165,-0.01805371683957842,2.7748966966696265,10.886903653152451,-4.46860749170078,-12.8062756941213,0.07297465680260838,-1.1206642063918362,-0.557547380486371,5.094460613453931,6.535289527697138,-1.196143403784573,2.8603537375816517,9.638959527839615,0.05235095060858824,0.06840825184445055,0.0808807937922177,0.1449602025585539,0.18529235644275768,0.0821584416724861,2011-09-26 13:18:06.963923135,7.670162095
49.0314578921525,8.44415786485551,115.14913140579856,0.01786345069275099,0.04429775608280781,2.4814654656850545,2.535939239941826,-4.851731057357713,6.421551922384585,0.09648675767218515,0.16837190260296045,0.09393219456234991,-2.3398473211144886,2.0518271235926164,-1.6797140588708854,0.6668659756495197,10.139061553126261,-0.033111740435222616,0.1401092803172157,-0.032327448282325505,0.49422339308908675,0.542956610964204,0.056311414963773225,2011-09-26 13:18:07.063984820,7.770223780
49.03346588014981,8.403505052957742,115.46371087072573,0.03205342194544487,0.046314606547751894,4.481739287534158,3.0128073004762057,-15.56634607614075,10.958535785772924,0.18714527611606102,-0.8633325561311292,0.7350532298846413,1.3420897813120953,8.52437034531614,3.3819801465915122,-3.1302203755803273,7.323253095339962,0.3325964915437534,0.1822395140433916,0.04479576570056462,-0.027120187471126544,0.03224133187355999,-0.005820822213001758,2011-09-26 13:18:07.173929175,7.880168135
49.032615929031174,8.436554925637592,114.40111366917588,0.015059178933608917,0.000175723345932733,2.6028496174608913,-8.90199754392607,-10.277959664401369,3.3585525901593494,0.34852077552593785,-0.09043300639052364,-1.1352825849408497,0.8246431082769089,7.674475444606662,-0.12011757708169304,2.846175243717082,9.971320342648065,0.0036841030423750308,-0.0644455174405831,0.6788619890715119,0.05630775710523532,0.17172344674623485,0.336870310423476,2011-09-26 13:18:07.273981178,7.980220138
49.03403248933879,8.44145955108183,112.82369862282634,0.0743051662332169,0.03805240452481422,3.246075352434831,1.3341293513227048,-16.50947926963211,3.373636982916265,-0.3326011016995779,-0.5606439318400215,3.032672660413143,0.3413333147870423,8.44536305937248,0.7402008428902167,1.8767764950283148,8.969786185871333,0.09770818121173938,-0.09899534598371704,0.07825670611356741,0.09247217018636586,-0.12885622326779772,0.13164514570987088,2011-09-26 13:18:07.373973062,8.080212022
49.03289673735704,8.43013241774204,114.09977877821741,-0.027272603600960756,0.029742383523089756,2.647141313753334,-19.93287252310935,-12.625005029116089,10.382415838693007,2.456510013935949,-0.20124834355789284,-0.2472846020419336,2.1004831678810785,11.394760001984965,-0.6345780109205312,0.49897768532471176,4.493911059239794,0.003889985559664841,-0.019943241674887445,-0.9641180368832477,-0.3781254069791311,0.1208333004030697,0.08226986881726647,2011-09-26 13:18:07.483957158,8.190196118
49.03286069634673,8.437118433918124,112.87717090396545,-0.024483374097073227,0.008674470520095477,3.0143441354418186,3.5980470121953325,-5.813330164591074,11.068686578325307,0.0040282711858536935,-0.2735561792837653,-3.560093338462311,-0.2282954093840166,10.689156541146813,-0.12176762564602212,-1.2361963194471,9.946399147057113,0.1274277675368943,-0.1837595624711449,0.1304388462754329,0.2865503635306566,0.11520316235918765,0.23598272249615848,2011-09-26 13:18:07.583952411,8.290191371
49.03410541634014,8.434513915853943,115.11008438217638,-0.37550617398821795,0.03962693074660316,2.8737902486917823,3.2760034640986273,-3.0737483363263074,3.941041342308211,-0.18831437443619292,-0.10620486348637484,-1.1370893366614543,2.17942758528034,10.346165323029787,-0.11108877503693215,0.9174374946013689,11.880494493243509,-0.02198490843833256,0.06608631054339975,-0.03368374647395987,-0.14599303720197915,0.1464142773539825,0.054704136233907304,2011-09-26 13:18:07.683957555,8.390196515
49.0320474746551,8.429809128943232,112.76103926486346,0.027882390376667718,0.02602341813188367,2.9378246466892257,4.088835081804957,-9.31114736690621,5.838045196227859,-0.17632246773883897,0.13761964526097326,-5.170262116898927,0.7783583414238316,12.288598255261117,-0.31435114859464863,-0.8722766639652464,8.357692086937956,-0.021844978618086337,-0.1462631280325357,-0.024597393805280574,0.05095277831925926,0.026408872778269834,0.18835694744605438,2011-09-26 13:18:07.794061162,8.500300122
49.031947777320525,8.441627069005172,113.54055965947883,0.08558863307966688,0.010232980716261542,3.2339639153859387,3.800709400895535,-3.1931178621507463,3.513740597994206,-0.42510846257527596,0.7682402007856786,1.3044669073696962,-0.38818968460864967,10.121644270415189,0.595444073220535,0.4955091203334552,9.233993195144896,0.05440384037187683,-0.004627806029237075,-0.02262655935370335,0.10998715765425529,0.38537707020502476,0.1348799078808994,2011-09-26 13:18:07.894142331,8.600381291
49.03234227986259,8.449471673831201,112.4502383872399,0.11837699542562163,0.017189360759211902,2.52923309387198,-1.0121443243519037,-6.571925529898781,6.151559177607835,2.021385245624131,-0.0209459556735814,-0.6309698671723567,0.49175375480440087,10.250606399271168,2.0064897843768468,0.6404171653232749,10.593625503241025,0.022404541887211533,0.23779237686664412,-0.18980333943232075,0.07708677643809594,0.05067197686004046,0.08456118683967859,2011-09-26 13:18:08.003931657,8.710170617
49.03259161188072,8.431345505720708,104.47375832506751,0.00606482495609683,0.009100890204669239,2.284945184599904,1.9441998597677121,-6.649182519064229,22.938229381355363,0.12974766251111902,-0.45054882927280615,-1.8329354915763456,0.9343776803097479,10.705708348151706,0.9354359209221599,-0.40689593288741,5.47628780104862,0.013319345425616781,0.1487419715578968,-0.19286667895795462,-0.10933900152517413,-0.28125229043464156,-0.07222805048500947,2011-09-26 13:18:08.104024942,8.810263902
49.033342538781916,8.441639901419046,112.69756473558898,0.02618680022690038,0.03006208220598367,2.4719547975224008,1.4146594092147855,1.0957110074778988,11.587811537002302,2.3475599274785846,0.14230188871080712,0.6419763187379904,0.7694184970849904,8.793875119565952,-0.3498293125662886,-1.0511961668158267,4.97927830779126,-0.08115834611643458,0.0625820780314511,0.162651594137372,0.013100572887722078,-0.02177385063129845,0.20897675490192408,2011-09-26 13:18:08.204200459,8.910439419
49.03258564971612,8.434716960081245,125.20797484035462,0.08151127751695586,-0.018861768227652197,2.511191207099764,4.257095979972215,-3.4997524669002216,9.339154481518648,-0.07352837679014426,-0.12134682013456716,-0.029243509033388737,-3.4374228274114476,12.495132143349378,6.49857399406748,1.4635873609027334,9.70896524167871,0.0292677806138142,0.07148791137783392,-0.12726449384004906,0.037076199936868774,0.02936615150923082,-0.20944998358287964,2011-09-26 13:18:08.313998338,9.020237298
49.03338048589115,8.434895742827829,116.27849034242034,-0.014740932496523994,-0.0013990293283448405,2.914124379684486,1.098114370780518,-10.900708741694217,10.047315408883764,-0.0386714217863241,0.4607782512122245,-0.47983000638359696,2.185670870098305,9.423617056604757,0.8313231351053721,-0.8316737062689383,8.674786529437123,-0.004215911378275594,-0.47348556417226983,0.0904852090738892,0.06749908921320891,-0.021194327860405534,0.04705665266983265,2011-09-26 13:18:08.413972294,9.120211254
49.033055090107844,8.436131936647792,115.80179413280828,-0.030297838306276918,-0.00533097580336764,2.7624118684746373,-0.3443209018674709,-10.48722001147072,13.215782060160933,-2.778769792736509,-0.21064430361962289,-0.32175151486165854,0.9068290540843652,8.430189298775081,0.4452850094641425,7.261527935335208,7.784317474679298,-0.06728179773135853,0.12182830324040228,0.16794246871901436,0.08221427531798171,0.01151393703508003,0.21864754890667,2011-09-26 13:18:08.513976808,9.220215768
49.03297674854457,8.437347773098221,113.59217424393943,0.027671646093473095,-0.04421056830040067,3.2538460536128597,0.7035159552722972,-4.126538098852573,11.492261190311382,-0.1343710045336889,-0.21742233965380076,-0.6771729171225309,0.4031570398050293,10.42705207168675,0.21000861137517063,0.9857003476399798,9.373227383994442,0.05972124843048555,0.03352646746709857,0.08079724990054814,0.01180831531027033,0.02264964874629625,-0.015370811211023832,2011-09-26 13:18:08.624043380,9.330282340
49.032452904699184,8.444447610338877,113.74190045637505,0.03878965085275736,0.02626743686140356,3.6729164093402202,-18.495220657740113,-8.0685365251061,4.980097986177951,0.5088000205916071,-0.13089377043999043,1.7061433373312547,1.9587475829393663,13.314786773730185,1.5819577625951853,1.659542353731783,9.971998758890374,0.02816125887023537,0.06964851575767361,-0.21931458916607988,-0.07252165011634162,-0.19422724953371423,0.21958291413466463,2011-09-26 13:18:08.724085724,9.430324684
49.03340755167241,8.435070426657735,99.25214132965196,0.024814644148075854,0.019508653722076795,2.8607279516331467,2.6415624734781353,-1.32625392584184,4.130203979204509,0.35917085746946076,-0.40250080263125104,3.234304336339028,-0.923432932503842,8.71927082182576,-0.11441572454431448,-0.17906880389058205,26.675311955112573,0.10726894620196595,0.6037431643861135,0.15827011484162942,0.04751100169322804,-0.13467530462652189,-0.01622747662637143,2011-09-26 13:18:08.824058591,9.530297551
49.033014067993975,8.440275463461026,113.78122118421034,-0.02136900309695027,0.010001895622597564,4.06767796716575,0.44148624484174914,8.297207464074747,7.823936480664517,0.033271579630999706,-0.1897515366921788,-1.1122673642560132,-12.708202863939608,7.5494782504988445,0.5105603121318558,0.3503288346140583,10.892913471715751,0.0228553201716232,0.021811386081334018,0.010233840997437692,-0.01562964551631689,0.08960336447452802,0.16302714368916235,2011-09-26 13:18:08.933995195,9.640234155
49.03167807619887,8.434233261569668,111.27287633071178,-0.4310718807640407,0.013065102553606172,0.1451678616561809,4.404693611427458,-2.0635069190093533,4.564502548977326,-0.14620912574288192,1.211780151694677,-0.5814375485784308,0.8163971597271178,10.550264907968693,1.628064052619538,-1.1179962320192867,7.251568932781665,0.08946621058780586,-0.06719892695443243,-0.01291898463224038,-0.018133887487389144,0.0705931418548117,0.31111972087318296,2011-09-26 13:18:09.033943766,9.740182726
49.03259170216628,8.441043568262785,113.3747185807268,-0.017034827235362114,0.026854736615574755,3.2871619467117794,5.167440965533227,-21.415422913043255,8.911562400465462,0.5406068757426508,0.49040340388549253,0.008612046996331835,0.7022973370314944,11.568220578478533,0.2593284638576105,0.42835980929278755,9.753567709418087,-0.09384583431234544,-0.056478017562639225,-0.10100990858916106,-0.03735046751851666,0.20911499192780214,0.20786402512077692,2011-09-26 13:18:09.144014546,9.850253506
49.03341189965971,8.44114889995628,111.55530026072222,0.033818626449483226,0.011295488975603112,2.7268041596616928,3.4791761351735015,-0.38968638756270035,9.120735121694814,0.5178538620013896,-0.23082975485515742,5.711557907726497,-0.23144998254875415,9.548543065529403,1.0990199137132663,0.46610880163783286,10.046408048694595,0.12136734922599965,0.13725752042736653,-0.028384758777298257,-0.05247900091174271,-0.4564975407973776,-0.9711924021017906,2011-09-26 13:18:09.244213231,9.950452191
49.03396430517707,8.444742772029826,114.80834068134644,0.010579865033754951,0.02858221911472915,3.04109343488573,5.824097707327654,-11.547447572525172,8.818790721046827,0.3266539995524161,-0.1583799768682988,0.7627233492369285,-1.6134151492732651,8.668883720437796,1.4393124348692992,1.997579162762712,20.7717311536602,-0.11350696338946965,0.011498506946324684,-0.3097761493601074,0.002685033439586273,-0.046150637930788954,0.029702566146647586,2011-09-26 13:18:09.344041127,10.050280087
49.03271902623284,8.443174646650464,112.1796558785518,0.03279442712871585,-0.002143153871837165,2.3905007544900476,5.606427475092295,-4.2450694446241,42.194322188281006,1.118057242688261,-0.5321347691520546,-0.3060062492657255,-0.11802551045985724,7.687201554398024,0.8791072658498197,-0.9409244740044469,9.13063877605015,0.12802068615502904,-0.03630258452043714,-0.09407348970661866,0.12520014433648766,-0.1265209662388029,-0.0586189412017651,2011-09-26 13:18:09.453953534,10.160192494
49.03223284054515,8.412451728904282,113.72377762935525,-0.004162436096820947,0.002783966957649474,3.34376376745631,0.008001251499928808,-6.5414959843998535,2.007883507242684,0.21227775195813398,-1.8969176018783198,-1.0201527778739803,-3.3649140073109143,12.152404249581153,0.4083536157792106,-0.2849298202382252,9.55342798035012,-0.04811549239451018,-0.05266317051950927,-0.002092630582449283,-0.0199133302385919,-0.20898186413128814,-0.056743589309004666,2011-09-26 13:18:09.554071270,10.260310230
49.03332340081595,8.45446198355652,111.14956999964261,-0.015103504053751712,0.047421929409859245,2.8103612476991042,1.840476048490641,-4.620847960614645,9.643794779835222,-0.8046609543832903,-0.10107731108078255,-0.7207463032282231,1.0969360350422128,12.114993527996255,-2.0454242208073965,-2.4328228065267052,8.217029493130912,0.05692800293795758,0.01452109683756447,-1.151603866794104,0.028152667817364446,0.04460566426722156,0.0004279694537186931,2011-09-26 13:18:09.664080363,10.370319323
49.03224903212339,8.441219663707525,113.6226332986396,0.08009140166499941,-0.030412357900557258,3.279541319887209,1.0249209073838441,-2.4522852393420544,12.345685600287583,-4.307475128870163,0.03965944085332278,-1.6887011287954747,1.6512972312026166,11.514116485320859,-3.2817679853236257,-8.739850385376345,10.361600651944777,-0.011653427910259058,0.06785478605883721,-0.11214192604512892,-0.012224931425147067,0.021657015697834382,0.036379862531227006,2011-09-26 13:18:09.764108368,10.470347328
49.03286694746758,8.441023774065014,113.91328040773396,0.04255935852844327,-0.02973800027219462,3.5256968692621324,3.4326140650222143,-8.177816191657532,-6.911218000852484,-0.2618826643903629,-0.10592192110112951,0.11757768035242494,0.03115536990344052,8.203237051278851,0.8075004445439437,-4.091676127920451,8.98252800743783,0.1004524767007997,0.5238194704100917,-0.09383579891133156,0.38793289334477665,-1.0465671712864602,-0.20938348444912747,2011-09-26 13:18:09.863996931,10.570235891
49.033990408266895,8.442109441284904,115.10899113645357,-0.027987312415352402,-0.005264089646409176,2.539209337754188,2.4884741784941857,2.057681358782359,11.563135577936979,0.18858822615331652,-0.12653619384200615,-0.5249815659817306,2.868082040204057,9.855710296740423,-0.4376583670699824,-0.05877856648775052,1.8307974122363788,0.02955974216672457,-0.0314338534667086,0.08530836355716194,0.30729819848923623,-0.01630784839446699,0.03911209482796697,2011-09-26 13:18:09.964015512,10.670254472
49.03281344076577,8.438182351739602,114.61650365709832,0.011612927250778199,0.048007304189426774,3.498898753620794,0.4490596508400373,-6.320692978238345,40.547618671130955,-0.6708976443829161,-0.3732848637868986,-0.9905791338536257,0.8806312853663075,9.585225231649504,-0.7214946161917176,1.3968487599894666,9.672915521622928,-0.5592570866441098,-0.010676146797073878,0.004015229834227387,0.07940729349272545,0.011566120690422683,-0.08306382164316273,2011-09-26 13:18:10.074046453,10.780285413
49.03289155507973,8.432679197379244,124.1439583085619,-0.04232930185481028,-0.020529732770289296,2.813979890636332,4.192617130316275,-11.434119676744565,1.7078350487708658,0.3978603895903446,-0.23325346152821796,-2.9642364430831996,0.5910158173996639,11.354437563487833,0.7762969054198255,-0.2858589339240732,13.22375365472395,0.00969560704324959,-0.12416618341509664,0.11027074056369386,-0.020233450196492753,0.09497882890014227,-0.1357892980228898,2011-09-26 13:18:10.174047807,10.880286767
49.0327787675773,8.437661850722527,116.3757701988868,-0.004390517767970392,-0.11181296213120448,0.6629835422058803,12.86174327441088,-10.088910116129966,8.02380471770341,0.15867744514821333,-0.12146005043333208,-0.7700313628111086,2.4359926428685896,9.698570738030076,-0.5647496242681886,-0.5406542191703999,11.27711869453455,0.0021443991095135354,-0.03777308021618316,0.11669735986170793,-0.02881671798764092,0.1270825034433957,0.0045249527858036084,2011-09-26 13:18:10.284126907,10.990365867
49.03340087888996,8.43178947973006,113.77562063559414,0.09018097003504134,0.03532614331699964,6.742229058931651,4.00405317493145,-5.127457010485218,9.145201796543127,0.10641224625917547,0.071089783584657,-6.821058684383174,-0.258295327870364,9.483811375156968,-5.319019774812968,-0.33819773219088956,10.504008267849752,-0.1221143963598364,-0.04576354399385635,0.06987516578092795,-0.0984724191116928,-0.08730824270204393,-0.027138756826465327,2011-09-26 13:18:10.384106856,11.090345816
49.034259790554806,8.440111928829534,115.60202193379662,-0.02906435636889752,0.002619842788594456,3.49490574666235,3.183142686617241,-7.545620934811343,5.6323655147498695,0.744624507888829,-0.24542107504100913,-0.5074589378173897,-1.311396226118554,10.39145634149396,-0.8346961771548428,0.0326280167780756,8.466549109823582,0.0607841761054336,0.0572035963595217,-0.04406562318906267,0.12126858148175308,0.28370981182635685,-0.019826527785814296,2011-09-26 13:18:10.484051376,11.190290336
49.033490318901755,8.447275389534301,114.10770691753713,0.04440789606573181,0.030760814178391643,-1.1979937953323496,13.667782204268317,-5.32831108375301,12.541233225892547,-1.8203919030443827,-0.14849106804473977,0.27693715649706124,4.195996524549089,11.180486695142882,0.6448747659614286,-0.8601807693773686,8.66410016799761,-0.034310589667087596,0.06077574938683529,-0.01274859130733426,0.029381604125086253,-0.010727172382452025,0.007728807769872528,2011-09-26 13:18:10.594198234,11.300437194
49.032540820267855,8.405759306835371,111.89903048784633,0.04277586908030432,0.04823315093202774,3.7612881640232705,3.200726551164161,2.5770003017602985,-0.19664446480759068,-0.11508856962337219,-0.029212546936352085,1.1618136419839182,1.622734455374826,10.130895544753104,-0.5610774818744881,0.21333273971879238,9.194028248975954,0.10065734927705003,-0.10662125782936878,-0.03420599333203364,0.18771180628902892,-0.08180118493193549,0.0213661829076346,2011-09-26 13:18:10.694284274,11.400523234
49.033268293861546,8.429670794124462,121.849011428343,-0.12037370162218779,-0.00197807708837275,2.465763685499689,1.7513978354708322,-10.290463264296454,8.386313511741022,0.11450822556444142,0.3826654981287023,-0.6680152043670302,-0.6994721361298016,9.601753869583222,0.4154393245761303,0.054517363039773184,8.183097590500362,0.04581259726029881,0.007799784275312756,-0.09474649039051704,0.06308606409111382,-0.21310432255264491,0.13532875503451394,2011-09-26 13:18:10.794284994,11.500523954
49.03275189510561,8.441063583451424,114.2293557151342,0.045656314296721,-0.0009215133138477261,2.31121474101647,1.112841372925951,-25.45635916412254,-16.467277850530223,-1.4110459738862766,-0.3352410736922641,0.8854055000481877,0.0873132826377003,6.462158074857107,2.1798059022727836,1.2947775168807563,8.383374265715128,-0.008040538852313636,0.12069224735523748,0.09194038885749693,0.11795910587903703,-0.21568832875781968,-0.12690285398540455,2011-09-26 13:18:10.904112544,11.610351504
49.032495312169736,8.4382812565173,119.76042106275963,0.02752666758838164,-0.16715328905375357,1.9688047544072413,1.2273244895364699,-11.738563012885477,8.535513795324668,0.2557692808339008,-0.1229126072789148,0.17981323149571576,-0.8802572883556299,9.630590347349314,0.4468206167608403,1.0013420031204703,9.394277206594952,0.02712147894289675,-0.055226094956824276,0.051869728598418735,-0.08939578576889542,0.01803860907488769,0.13159383711781053,2011-09-26 13:18:11.004063905,11.710302865
49.031332164658274,8.439380861095618,113.64230355239891,-0.18025981861078821,-0.0049058453990183555,2.3833811405401395,1.5173049730595656,-6.20493246813688,4.739543497776566,0.18278949742647596,-0.06027728695402786,2.045636072190926,0.5453043624421219,10.407054796748396,-0.06505086729763215,0.46792339973577357,7.704660171728376,-0.17408492586369606,0.09376273037965514,-0.053735203905831336,-0.04132744002599196,-0.1704334435032766,-0.1867178056409738,2011-09-26 13:18:11.104149389,11.810388349
49.03348031471822,8.431763918701998,113.51410365769304,-0.010554498330451492,0.19125026210882198,2.9476641063302926,-0.296021055972171,24.99065333843452,13.585635851405318,0.2364255509437957,-0.14741987061574363,0.6260989328902757,-6.039473604465445,21.335879010308595,5.000939681616547,1.410332036861154,9.504272856682924,0.5344877015227666,0.04837480158699104,-1.0338309533155965,0.005933395173705727,0.03726494451708421,0.07174743228561434,2011-09-26 13:18:11.214302303,11.920541263
49.03319095816428,8.435204390175757,111.05995881204886,0.003154774982373737,-0.013718975398881929,2.938672730641054,3.2603859486677305,-6.442648065359317,10.104031137467143,0.039915190322579494,-0.4475774914552232,-1.2005284804862442,-0.9582332477665106,9.850970087819222,3.9707036951144055,0.10554294239277093,10.139619848583976,0.1310552805130956,0.17215598277414107,0.15446314954420606,0.01336353612516438,0.047423782865241036,-0.04370481224525967,2011-09-26 13:18:11.314143700,12.020382660
49.032168205336,8.430682923025726,114.59205192420083,0.10509686897072898,-0.021584561240926545,2.8702946415330612,3.2814949005427705,-29.99006998335855,3.9479325987829386,0.24986262915291974,0.8744971878067351,-0.44303424820887566,-1.1012628060363847,11.470428090256345,0.3127678539607137,-5.83381442584545,8.509376017935557,-0.10395362423980795,-0.12568347857326848,-0.06457906415645401,0.1435118559761387,-0.03908900706014689,0.03785296749059151,2011-09-26 13:18:11.424124644,12.130363604
49.03346931178985,8.443549094052393,114.94461905629976,0.07668542144167168,-0.08743649313730721,2.7551297060463606,1.6526462737348262,-10.16202735309188,6.0085222710771085,-1.697374399297558,-0.2497502691926718,1.7636247857135423,0.4862082737980674,7.753886430092423,1.0606324817201809,1.2022161971284593,12.21257575860907,0.1247828569287959,0.015132301217347516,0.2779328749898532,0.016992580510022705,0.018136318053309584,-0.20027955158705796,2011-09-26 13:18:11.524116399,12.230355359
49.032553911050925,8.443973374855595,130.31756904902213,0.0477041926864593,-0.0058471802807999905,2.7284481733534953,-9.012353606131871,-9.232801044956348,5.3449537459804155,0.5364488067533378,0.4996723316132421,0.3225528596765951,-0.018701499262564036,9.95578006338826,1.9356439493049695,0.9874393700785813,9.897325550691285,0.0985143241005319,-0.161752129826639,0.07481796912229355,0.017443842352809682,0.011514305196242233,0.23916276524931895,2011-09-26 13:18:11.624130662,12.330369622
49.03210934286553,8.444284792013063,114.21201583904556,0.03141306810413874,-0.03272514958859838,2.1571238975840883,1.5477904624332957,12.38341216525808,9.019084432211299,-0.8328646470106527,-0.18068371827923574,-0.13774848281844798,-0.7982997247945605,9.360778240464008,0.15022942222512192,7.280731704404875,18.05379991386178,0.0736135569952875,-0.042690442853915614,-0.033161515854328985,0.0020283784645145526,0.09590442107682409,0.10794056078204267,2011-09-26 13:18:11.734214871,12.440453831
49.03985210868859,8.438711230612846,112.53613838525567,0.013975676934648601,0.005559794151583279,2.4523495046204316,6.209307540450135,3.7961183142081696,-4.208386954772455,0.45025867615738435,-0.2614067951138423,-0.23319478637825458,-1.4722792467275072,12.976712641315565,-0.16188208350480887,1.2409407000651145,8.11343816511719,0.027944949018824196,-0.04950890591232567,0.11498501143028284,0.02877944387525814,-0.05714453813308826,-0.009545916620325653,2011-09-26 13:18:11.834162113,12.540401073
