lat,lon,alt,roll,pitch,yaw,vn,ve,vf,vl,vu,ax,ay,az,af,al,au,wx,wy,wz,wf,wl,wu,timestamp,rel_time
49.015026610861,8.434354309633,116.45338439941,0.029969,0.015036,-2.6021539803847,-6.948299628877,-11.366848791637,13.32184014222,-0.11325164746642,-0.05583450726097,-0.46226638089958,0.10067496036089,9.9857157556037,-0.31224519733385,-0.18711679296718,9.990327284678,0.020750132629496,-0.00022189283850114,-0.012884450415945,0.020554310284123,0.00014827733357083,-0.01319237878445,2011-09-26 13:02:25.594360375,0.000000000
49.015025986508,8.4343527579072,116.4528427124,0.030167,0.015179,-2.6023489803847,-6.9454196845454,-11.364726472891,13.318522845677,-0.11372037867336,-0.054344331171824,-0.48007642376464,0.15299871630675,9.9580983922631,-0.33021174729608,-0.13600095488631,9.9645362217245,0.020651112735072,0.001867891087274,-0.013923282853553,0.020440175947071,0.0022712276925715,-0.014167046087572,2011-09-26 13:02:25.604340603,0.009980228
49.015025366154,8.4343512057574,116.45178985596,0.03034,0.015281,-2.6024219803847,-6.9427167318636,-11.362562501958,13.315262012212,-0.11423044059027,-0.053152681496051,-0.47448496019994,0.17225890886074,9.9296436334236,-0.32469320225618,-0.11785940595364,9.9365656791996,0.020104945824811,0.0030637074241829,-0.01310529042552,0.019906631021152,0.0034444053067077,-0.013305974408119,2011-09-26 13:02:25.614370994,0.020010619
49.015024744075,8.43434965455,116.45138549805,0.030477,0.015302,-2.6025479803847,-6.9397442220841,-11.360498126664,13.311948490927,-0.11445151384443,-0.051674779271643,-0.48023221616995,0.14591007253163,9.9583470884101,-0.32968141735612,-0.14695175335075,9.9645096094978,0.019180203951089,0.0028591513105555,-0.013027996861692,0.018982627186187,0.0032401729966259,-0.013221705971331,2011-09-26 13:02:25.624388028,0.030027653
49.015024121401,8.4343481031955,116.45091247559,0.030707,0.015523,-2.6027369803847,-6.9364975887715,-11.358113407664,13.308218484244,-0.11472160088852,-0.050433562380897,-0.52134238374446,0.13977356165189,9.9337850251486,-0.37055849760911,-0.15427374304282,9.9403934149777,0.019793673358426,0.0056492786139722,-0.014007797332438,0.019581325473157,0.0060617097169258,-0.014126076063875,2011-09-26 13:02:25.634362664,0.040002289
49.015023502055,8.4343465522126,116.44986724854,0.030912,0.015648,-2.6028259803847,-6.9331829504557,-11.355531396515,13.304285280664,-0.11493693562824,-0.049963528023762,-0.54130102618279,0.1445175274041,9.8579172713763,-0.39099234487788,-0.14914375284833,9.8650162003718,0.019871122354662,0.0066093868218763,-0.013418627732573,0.019667480301878,0.0070058212490381,-0.013510069276623,2011-09-26 13:02:25.644358648,0.049998273
49.015022881268,8.4343450020731,116.4493560791,0.031046,0.015551,-2.6030099803847,-6.9295855078874,-11.353231687038,13.300448604662,-0.1148708290777,-0.049848998820198,-0.53177587225537,0.10608489829349,9.8215546806699,-0.38159503091894,-0.18829034486738,9.827313882895,0.018934954001463,0.0040729787985949,-0.014105833572687,0.018718899501592,0.0044945033141158,-0.014261676779295,2011-09-26 13:02:25.654590759,0.060230384
49.015022259474,8.434343451109,116.44898223877,0.031277,0.015547,-2.6030789803847,-6.9255826817043,-11.351351933982,13.29676597242,-0.11410235259375,-0.049976648997168,-0.51641949141707,0.051457163549464,9.7989864785694,-0.3662352639956,-0.24410791015403,9.8027878675922,0.019577710901243,0.0033735319788057,-0.013017458536784,0.019377634536299,0.0037640029791276,-0.013206213860532,2011-09-26 13:02:25.664516652,0.070156277
49.015021644617,8.4343418996498,116.44805908203,0.031521,0.015725,-2.6032369803847,-6.9216102794486,-11.349214143885,13.292877237338,-0.11355128245178,-0.050760151647593,-0.53599156770451,0.068998589017045,9.733618506784,-0.38623689205508,-0.22650755485096,9.7383002638901,0.020263554266057,0.0054565021819848,-0.013505339756266,0.020055968287316,0.0058640307202906,-0.013639645088935,2011-09-26 13:02:25.674415208,0.080054833
49.015021025123,8.4343403508826,116.44744110107,0.031793,0.01567,-2.6033749803847,-6.9175137375313,-11.346827022302,13.288711015547,-0.11303155571678,-0.051891128900454,-0.56381783254883,0.071938800664488,9.6966707307664,-0.41421873447008,-0.22448497536514,9.7018746507753,0.021334021126148,0.0037380268546871,-0.013510538792826,0.021124811783851,0.0041494416370622,-0.013716429157858,2011-09-26 13:02:25.684539857,0.090179482
49.01502040514,8.4343387998276,116.4469833374,0.032032,0.015471,-2.6035619803847,-6.9128466769016,-11.344977968957,13.284713925447,-0.11185205093413,-0.052732459565386,-0.54871015766651,-0.0029620194351853,9.7287751211514,-0.39858782451043,-0.30250013042246,9.7312797130524,0.021753417957226,9.4822826484024e-05,-0.014192957973902,0.021531741826096,0.00053286650393035,-0.014520956082363,2011-09-26 13:02:25.694588689,0.100228314
49.015019791475,8.4343372493165,116.44605255127,0.032523,0.01546,-2.6037419803847,-6.9084146753664,-11.342821273613,13.280572906764,-0.11110789028679,-0.053522590630578,-0.56178863401653,0.037577283480092,9.7331888529787,-0.41153669847004,-0.26464781306728,9.7371470865219,0.025826905263642,-0.00016990059748858,-0.014741514277817,0.025596107278129,0.00028963398113079,-0.015140139310553,2011-09-26 13:02:25.704604388,0.110244013
49.015019172077,8.4343357035849,116.44535827637,0.03291,0.015449,-2.6039109803847,-6.9050374740614,-11.339233082571,13.275742673268,-0.11204520802863,-0.055034202035991,-0.62918533891405,0.20075069095808,9.6534955250319,-0.48005565785578,-0.1016490292532,9.6638448455866,0.027790869474096,-0.00039641550786529,-0.015054787136144,0.027554888091094,7.7391636920736e-05,-0.015490428848447,2011-09-26 13:02:25.714416198,0.120055823
49.015018554017,8.4343341528188,116.44477844238,0.033013,0.015197,-2.6041119803847,-6.9014618529522,-11.335763120186,13.270911674503,-0.11285079915252,-0.056754071730593,-0.62894753807694,0.17876808731437,9.6327511962771,-0.48049463962678,-0.12538634104217,9.6423046081332,0.025203239052981,-0.0042249531816855,-0.015673569065723,0.024956825877345,-0.0037251374669762,-0.016194306814206,2011-09-26 13:02:25.724425631,0.130065256
49.015017936544,8.434332602663,116.44366455078,0.033093,0.014774,-2.6043299803847,-6.8971175750094,-11.333398652158,13.266636138812,-0.1125480776276,-0.057300960971004,-0.5769954073654,0.061727874217212,9.7571985168355,-0.42767773337721,-0.24867934121439,9.7619297815049,0.022696253195034,-0.010110210204433,-0.016249033705864,0.022440265602287,-0.0095849685536033,-0.016924223618184,2011-09-26 13:02:25.734410433,0.140050058
49.015017319122,8.4343310564484,116.4430847168,0.033469,0.014788,-2.6045229803847,-6.892974938758,-11.330698854334,13.262175602692,-0.11264050461215,-0.057555816825353,-0.59417109626059,0.09938869308463,9.7841087393102,-0.44518829534989,-0.21435961383977,9.790236438576,0.024960315215779,-0.0084841786737678,-0.016705178649985,0.02469939659326,-0.0079409601219339,-0.017357312367669,2011-09-26 13:02:25.744412009,0.150051634
49.015016699495,8.4343295108473,116.44227600098,0.033649,0.01473,-2.6046969803847,-6.8898436979443,-11.327369026184,13.257691260889,-0.11392904998361,-0.05882244430155,-0.5936204318215,0.21655538912194,9.6777424284137,-0.44687085646046,-0.096001493982692,9.6877803469861,0.023959767933412,-0.0081805518727026,-0.016779401852487,0.023699228786679,-0.0076314695395101,-0.017404981794971,2011-09-26 13:02:25.754619556,0.160259181
49.015016082234,8.4343279623152,116.4411239624,0.033743,0.014256,-2.6048469803847,-6.8867471432526,-11.324568672256,13.253680167878,-0.1149328702563,-0.059839077656318,-0.54669736704828,0.19548708075365,9.7068360641516,-0.40085354593117,-0.12014840264555,9.7153605136339,0.0218178027434,-0.014189469091797,-0.016146491574614,0.021565874789133,-0.013655070331651,-0.016941762963476,2011-09-26 13:02:25.764390414,0.170030039
49.01501546574,8.4343264168392,116.44058227539,0.033929,0.014022,-2.6050819803847,-6.8831400717647,-11.321948371418,13.249561791193,-0.11553717159573,-0.05987821600787,-0.55775276199104,0.1476540186406,9.8050806545289,-0.41200445280159,-0.17335019868594,9.811956196314,0.02138763233189,-0.015707548728028,-0.017119017838422,0.021123910966451,-0.015136061205158,-0.017956253792074,2011-09-26 13:02:25.774408558,0.180048183
49.015014847657,8.434324872315,116.43980407715,0.034157,0.014118,-2.6052269803847,-6.879609061,-11.318536115705,13.244802348288,-0.11654435041364,-0.06072148360669,-0.61918484769238,0.19230091584451,9.7215035563496,-0.4756799177339,-0.12796449511201,9.7307296972712,0.021629487482107,-0.011980416418823,-0.016765165162659,0.021374403506471,-0.011419842826083,-0.017477193805004,2011-09-26 13:02:25.784378986,0.190018611
49.015014231279,8.4343233257598,116.43860626221,0.034288,0.013768,-2.6054909803847,-6.87651770185,-11.315005698349,13.240164325547,-0.11816830107192,-0.062533261065686,-0.60510212053852,0.23416577846783,9.6253080228971,-0.46434127438111,-0.084793516796357,9.6357292754713,0.020419064359791,-0.015631353956,-0.01791339038826,0.020149077963064,-0.015026091863743,-0.018730864695328,2011-09-26 13:02:25.794374243,0.200013868
49.015013615347,8.4343217816764,116.43788909912,0.03432,0.013244,-2.6056749803847,-6.8732150465725,-11.312019843597,13.235886678807,-0.11932533723079,-0.063998271905833,-0.56713680245774,0.19125591169766,9.6611718194626,-0.42790448581808,-0.13062686766338,9.6694610186892,0.017855704705822,-0.0212516508626,-0.017705881830021,0.017589734713896,-0.020647407971918,-0.018678953909741,2011-09-26 13:02:25.804374788,0.210014413
49.015012999213,8.4343202373229,116.43724060059,0.03435,0.013159,-2.6058359803847,-6.8694027895866,-11.309076867057,13.231386316599,-0.11997044616751,-0.065483531119958,-0.58798128208908,0.14759752494301,9.6602760465432,-0.45058528357036,-0.17573264202652,9.6672218264232,0.015657348999949,-0.01942290323321,-0.017419999555518,0.015399451270592,-0.018827101606162,-0.018298492250155,2011-09-26 13:02:25.814371032,0.220010657
49.015012388438,8.4343186927193,116.43637084961,0.034493,0.012758,-2.6060559803847,-6.8655323711486,-11.305885336999,13.226641993984,-0.120764894541,-0.066761001451964,-0.60971908977572,0.15880289620156,9.6799296395617,-0.4741829165192,-0.16669723183997,9.687392842246,0.015426746649957,-0.022636967748228,-0.01789249962219,0.015165325015709,-0.022020484529196,-0.018875449589221,2011-09-26 13:02:25.824416683,0.230056308
49.015011773566,8.4343171496698,116.43578338623,0.034511,0.012137,-2.6062469803847,-6.8618375154764,-11.303157536449,13.222386187323,-0.12147766304399,-0.06669185123417,-0.55879122630936,0.15557746177132,9.8146851936274,-0.42432748515362,-0.17585919763114,9.8211697588507,0.013414234652463,-0.028650922585994,-0.017749624678862,0.013157242676247,-0.028033633960822,-0.01891173418625,2011-09-26 13:02:25.834384193,0.240023818
49.015011158103,8.4343156058138,116.4349899292,0.034599,0.011904,-2.6064539803847,-6.8581268881549,-11.300838905982,13.218474134564,-0.12200300933294,-0.065733073549044,-0.52339254236296,0.13779084250563,9.9049124145833,-0.39050505000444,-0.19798137030566,9.910146918946,0.012762599454594,-0.027962284198095,-0.018063180977032,0.012507169520748,-0.027332482850001,-0.019190011279856,2011-09-26 13:02:25.844385101,0.250024726
49.015010547946,8.4343140618929,116.4342880249,0.034738,0.011752,-2.6065759803847,-6.8545828549317,-11.298178070084,13.214354164767,-0.12270734469924,-0.064648112516688,-0.54070366100851,0.17298221612978,9.9154255523958,-0.41014695947712,-0.16442414479708,9.9219349195538,0.012877709536405,-0.026118441568381,-0.017104203830477,0.012638935600605,-0.025520895717502,-0.018166312444669,2011-09-26 13:02:25.854414240,0.260053865
49.015009933698,8.4343125201672,116.43371582031,0.034796,0.011342,-2.6068469803847,-6.8513304266919,-11.295526359572,13.210389102825,-0.12383450060478,-0.063605895639185,-0.52190811185724,0.19716488371031,9.9096917195365,-0.39411757963168,-0.14120352298808,9.9166831789857,0.011858053105944,-0.028490175333124,-0.018378573255906,0.011609028981437,-0.027844864522789,-0.019507929202683,2011-09-26 13:02:25.864383065,0.270022690
49.0150093195,8.434310976403,116.43315124512,0.034747,0.011018,-2.6069849803847,-6.8477258626881,-11.293437405636,13.20673008013,-0.12425871120042,-0.062240011293307,-0.48893689507865,0.14075515115377,9.944777961606,-0.3635685939617,-0.19970010892963,9.9492770568657,0.0093758451400523,-0.029153149033155,-0.01752078726752,0.0091414177223633,-0.028535683816642,-0.018643210996108,2011-09-26 13:02:25.874402875,0.280042500
49.015008710555,8.4343094327114,116.43251037598,0.034853,0.01081,-2.6072199803847,-6.8434019832849,-11.291676794791,13.202986580594,-0.1239921152502,-0.060734009599311,-0.49428636081685,0.065116878480702,9.9606812673651,-0.37145208801779,-0.27677142179974,9.9624526394793,0.0095309683690444,-0.028029176678182,-0.018302169177392,0.0092935564104926,-0.027383550865456,-0.019384046999379,2011-09-26 13:02:25.884371006,0.290010631
49.015008098299,8.4343078912555,116.43207550049,0.035042,0.010518,-2.6073789803847,-6.8389916857922,-11.289760275572,13.199065942867,-0.12366115090563,-0.058808908159414,-0.51074340669433,0.067454346708597,10.00220407726,-0.39018331236501,-0.27695849894127,10.00405910849,0.010951323113688,-0.028281300176455,-0.017785843800783,0.010724293334243,-0.027651689720869,-0.018890048155775,2011-09-26 13:02:25.894388553,0.300028178
49.01500748372,8.434306349448,116.43155670166,0.035195,0.010132,-2.6076199803847,-6.8351379329233,-11.287696234236,13.195301055864,-0.12398718690641,-0.056242571935502,-0.49158189569018,0.12513619470231,10.065293465671,-0.37324820408097,-0.22266991918129,10.06878952878,0.011636624646635,-0.029970105149986,-0.018518467230666,0.011406983405052,-0.029311607421351,-0.019687035270477,2011-09-26 13:02:25.904377264,0.310016889
49.015006875378,8.4343048069014,116.4310836792,0.035361,0.009919,-2.6077299803847,-6.8313972429848,-11.285611799101,13.191578112897,-0.12424931811621,-0.053236186145177,-0.48630461133665,0.13969576549696,10.108974445821,-0.37030688463818,-0.21088124932369,10.112755917878,0.012345130949639,-0.028723589377488,-0.017281197146066,0.012133405441261,-0.028107372975573,-0.018412640349385,2011-09-26 13:02:25.914355517,0.319995142
49.015006263898,8.4343032669557,116.4309387207,0.03552,0.009661,-2.6079969803847,-6.8274826565371,-11.283180029236,13.187466411153,-0.12470248109045,-0.0490607582234,-0.52320391963615,0.14769140067242,10.224823278947,-0.40883234920151,-0.20828069884382,10.229021106474,0.012905361307194,-0.028433550970865,-0.018533517574156,0.012686785682855,-0.027770704357604,-0.019658642424688,2011-09-26 13:02:25.924362702,0.330002327
49.015005651317,8.4343017253827,116.43053436279,0.035646,0.009495,-2.6081629803847,-6.8237052580566,-11.28085802485,13.183519875765,-0.12515764124782,-0.04456664448989,-0.50460333169073,0.15588269057155,10.256349787105,-0.39252214495689,-0.202495957124,10.260503053164,0.012888057111114,-0.026750018325235,-0.018153489938033,0.012678534634999,-0.026099426518606,-0.019218425740682,2011-09-26 13:02:25.934355371,0.339994996
49.015005044816,8.434300180502,116.430519104,0.035759,0.009447,-2.6083719803847,-6.8201044693481,-11.278779321123,13.179872608983,-0.12567464367536,-0.040566647816407,-0.47196283193712,0.15948528698582,10.20585231904,-0.36263527265205,-0.19835025870955,10.2097364093,0.012565848544447,-0.02361801557645,-0.018631466447328,0.012357165108632,-0.022950009484309,-0.019581169358724,2011-09-26 13:02:25.944405768,0.350045393
49.015004434721,8.434298640426,116.43037414551,0.035721,0.009292,-2.6085239803847,-6.8159487989459,-11.276937422954,13.176148427761,-0.12550916817579,-0.036911650643946,-0.47796840714655,0.099067493937948,10.174194471184,-0.37112711182853,-0.25861168811785,10.175885185264,0.01013197126278,-0.022473813239983,-0.018014746480229,0.0099335933399885,-0.021826694199904,-0.018901064251451,2011-09-26 13:02:25.954387496,0.360027121
49.015003823272,8.4342971002335,116.43032836914,0.035752,0.00903,-2.6087069803847,-6.811441479104,-11.275641809511,13.172716663769,-0.12475264293164,-0.032919903047354,-0.44519814607457,0.042957369847256,10.209865300506,-0.34030092211055,-0.31686915378551,10.209117821189,0.0090951755733632,-0.023140741253985,-0.017909034508194,0.0089018002187228,-0.022495299354602,-0.018809330937153,2011-09-26 13:02:25.964389445,0.370029070
49.015003218176,8.4342955552501,116.43044281006,0.035946,0.008899,-2.6088209803847,-6.8070102572384,-11.274600538085,13.169544522059,-0.12378720035331,-0.028551917590251,-0.41879842416338,0.041223764370167,10.24767050543,-0.31567681685756,-0.32102919478541,10.246487911256,0.010558399237359,-0.021736630065887,-0.016950679331965,0.010377889845178,-0.021124567882119,-0.017814189683391,2011-09-26 13:02:25.974355315,0.379994940
49.015002608949,8.434294016158,116.43053436279,0.036024,0.008906,-2.6090109803847,-6.8027637186526,-11.272965457372,13.165954945288,-0.12330869335618,-0.023879129951713,-0.45940366053888,0.087375199714642,10.275199929616,-0.35780359089849,-0.27692761201709,10.275923481736,0.010156639351755,-0.018473135556004,-0.01724757743217,0.0099778886088995,-0.01785061662089,-0.017990025152203,2011-09-26 13:02:25.984385465,0.390025090
49.015001998907,8.4342924764286,116.43047332764,0.03619,0.008765,-2.6092049803847,-6.7986591608547,-11.270825638766,13.162002802336,-0.12323870263908,-0.018827260458956,-0.49363311145804,0.12709891975745,10.311814940173,-0.3934313194815,-0.23968461844673,10.314151641493,0.011148643448992,-0.017932665222604,-0.017493940817345,0.01097108228054,-0.017299541643825,-0.018225806422292,2011-09-26 13:02:25.994374894,0.400014519
49.0150013941,8.4342909335956,116.43073272705,0.036248,0.008745,-2.6094269803847,-6.7953352867265,-11.268346792951,13.158154333985,-0.12409382565363,-0.014383171390113,-0.48263314473934,0.21246408179383,10.247072699147,-0.38447444164102,-0.15307938450553,10.252364464272,0.010283346931643,-0.015700265439213,-0.018267349694743,0.010102552850027,-0.01503868425848,-0.018910710179956,2011-09-26 13:02:26.004544077,0.410183702
49.015000785305,8.4342893959519,116.43078613281,0.036251,0.008751,-2.6096029803847,-6.7920599937175,-11.265774774008,13.15425070252,-0.12501554048071,-0.010980695681596,-0.48490817302844,0.21821446952475,10.143396794275,-0.38892333369272,-0.14447245261674,10.148915059733,0.0087993448918965,-0.013363225623331,-0.018156747240532,0.0086226666306739,-0.01270556866558,-0.018702939743485,2011-09-26 13:02:26.014411401,0.420051026
49.015000177089,8.4342878563009,116.43104553223,0.036273,0.008561,-2.6098259803847,-6.7881359946599,-11.263768557907,13.150505309777,-0.12516441673603,-0.0074885913293565,-0.46833194707417,0.13401729909604,10.156642275134,-0.37362851913962,-0.22989069249525,10.158881512831,0.007837943158112,-0.014331741779831,-0.018667235154452,0.0076591627732476,-0.013653496587097,-0.019240134159195,2011-09-26 13:02:26.024399364,0.430038989
49.01499957374,8.434286313569,116.43138885498,0.036347,0.008326,-2.6100879803847,-6.7836905954609,-11.262288274221,13.146948084035,-0.12473603425155,-0.003305302629953,-0.44854215501305,0.067429704231635,10.227210933864,-0.35479329060408,-0.29978811027917,10.226737188736,0.0077092516843952,-0.015891480512857,-0.019746149881284,0.0075238548896041,-0.015171563079082,-0.020373929734638,2011-09-26 13:02:26.034388396,0.440028021
49.014998965944,8.4342847769242,116.43161773682,0.036544,0.008425,-2.6102769803847,-6.7799870061418,-11.260040033088,13.143105419851,-0.12531031530499,0.00040049276453997,-0.47454583176109,0.16762524859689,10.175939293784,-0.38233784595405,-0.19875929152176,10.179310056273,0.0095258639317359,-0.012129258435928,-0.019655227399091,0.0093444237219776,-0.011413354510074,-0.020161505929163,2011-09-26 13:02:26.044382688,0.450022313
49.014998357141,8.4342832400747,116.43165588379,0.036557,0.008382,-2.6104929803847,-6.7769889552205,-11.256869028125,13.138824480373,-0.12699108956368,0.003145418849859,-0.51746895699693,0.27238146130736,10.075373399717,-0.42710522569921,-0.091244463683082,10.082939800299,0.0083159843419755,-0.011073369670539,-0.019919943289228,0.008134605515939,-0.010346909733501,-0.02037776024542,2011-09-26 13:02:26.054393330,0.460032955
49.0149977539,8.434281699995,116.43199920654,0.036485,0.008158,-2.6107419803847,-6.7737656119374,-11.253633673906,13.134373108245,-0.1286008560423,0.0057636060223801,-0.53320861344739,0.25741424211125,10.062237389759,-0.44417482939762,-0.10633363029409,10.06932795018,0.0059360866906792,-0.012952364219958,-0.020605451795844,0.005750950820683,-0.01219851947587,-0.02111191443916,2011-09-26 13:02:26.064383257,0.470022882
49.014997147797,8.4342801643975,116.43227386475,0.036453,0.008009,-2.6110049803847,-6.7699157701468,-11.25071862282,13.129879921905,-0.1296124234787,0.0085140651190231,-0.53556232143028,0.18671710579457,10.078281781295,-0.44768180760855,-0.17803963367537,10.082736617917,0.0045821736870773,-0.013397509586964,-0.021380134026467,0.0043931881514983,-0.012614277251239,-0.021891250950339,2011-09-26 13:02:26.074347616,0.479987241
49.014996539591,8.4342786287044,116.43243408203,0.036494,0.00796,-2.6112009803847,-6.7659234046248,-11.247790829397,13.125304295283,-0.13046408889011,0.01080695535117,-0.54287297321574,0.17393453992538,10.033929514101,-0.45649481416977,-0.18965787074055,10.037945760012,0.0045338476340157,-0.01222488314892,-0.021063613922497,0.0043499537819082,-0.01145311586808,-0.021531671325272,2011-09-26 13:02:26.084353552,0.489993177
49.014995937677,8.4342770896285,116.43281555176,0.036529,0.007738,-2.6114449803847,-6.7618398939311,-11.245002204988,13.120802276903,-0.13122385389686,0.012830912048494,-0.53407202723338,0.16033935893657,10.007135086986,-0.44921358506947,-0.20271115506936,10.010536803123,0.0043217704889134,-0.013889150676582,-0.021513071834122,0.0041365506502207,-0.013099011094048,-0.022039772602577,2011-09-26 13:02:26.094418706,0.500058331
49.01499533222,8.4342755551789,116.43312072754,0.036524,0.007516,-2.6116049803847,-6.7579789098414,-11.242301874239,13.116490401192,-0.13201426617621,0.01501627524122,-0.51373622314837,0.17459845509609,10.023209823938,-0.43019919510004,-0.18941991658571,10.026894782821,0.0036075049155764,-0.015233278075095,-0.020555611059004,0.0034320832114834,-0.014476500747446,-0.021126387654133,2011-09-26 13:02:26.104387910,0.510027535
49.01499472615,8.4342740201103,116.43332672119,0.036462,0.007504,-2.6118299803847,-6.7540520733652,-11.239586593104,13.112132284211,-0.13278362306186,0.016753833955037,-0.51587578967611,0.16718868683167,9.9791083503473,-0.43391814280409,-0.19543953517864,9.9825084017121,0.0021693791782399,-0.01326178636383,-0.020833769400153,0.0019950025340441,-0.012495777406368,-0.021321297612377,2011-09-26 13:02:26.114383253,0.520022878
49.014994125004,8.4342724823022,116.4337310791,0.036444,0.007439,-2.6120519803847,-6.7502492623604,-11.236648604138,13.107644666148,-0.13379031060757,0.018320758861781,-0.5283294212247,0.19024538380692,9.9593520977952,-0.44766906526209,-0.17184044835713,9.9636425551766,0.0015049723015039,-0.012399018409256,-0.02106570399013,0.0013315002915696,-0.011624847361239,-0.021516303213525,2011-09-26 13:02:26.124402839,0.530042464
49.014993520676,8.4342709494689,116.43404388428,0.036306,0.007165,-2.6123329803847,-6.7464318730064,-11.233626313517,13.103075700288,-0.13495751818609,0.020012645032514,-0.53492500804099,0.19296857623588,9.9726642831259,-0.45556138550484,-0.16953390821257,9.9770289904702,-0.00075477354372167,-0.014814165647867,-0.021951348391611,-0.00093225101317444,-0.01400645941467,-0.022472184598775,2011-09-26 13:02:26.134367954,0.540007579
49.014992915582,8.4342694149191,116.4342956543,0.03631,0.007048,-2.6126079803847,-6.7426620920554,-11.23057736649,13.098506826797,-0.13627807012745,0.021390748277637,-0.53196625683484,0.1963482898005,9.941304640657,-0.45418179890398,-0.16496589170963,9.9457310591756,-0.00055755751216342,-0.014500040800687,-0.022716146132869,-0.00073748179188339,-0.013664937417788,-0.023225936320834,2011-09-26 13:02:26.144382655,0.550022280
49.014992315036,8.4342678787089,116.43470001221,0.036198,0.006837,-2.6128529803847,-6.7392927782471,-11.227400761516,13.094029594282,-0.13803358973226,0.022427136035992,-0.52180131830962,0.23600104633043,9.9056039445585,-0.44572117999654,-0.12383578004475,9.9113558592296,-0.0022049238853389,-0.015653534680584,-0.022929724212939,-0.002383383002455,-0.014810472048595,-0.023469210429704,2011-09-26 13:02:26.154476358,0.560115983
49.014991711727,8.4342663471863,116.4349899292,0.036024,0.006698,-2.6130989803847,-6.73563386151,-11.224250647289,13.089428956082,-0.13954838288311,0.023353065630593,-0.53291612056317,0.20847588938086,9.8956883528747,-0.45836484026528,-0.15054774547619,9.9004691406613,-0.0044676853025381,-0.015525504478497,-0.023096265580998,-0.0046439900543242,-0.014677586468909,-0.023614991535284,2011-09-26 13:02:26.164555277,0.570194902
49.014991107977,8.4342648138193,116.43529510498,0.035908,0.006461,-2.6133139803847,-6.7315187822835,-11.221558050195,13.084994068263,-0.1403968162132,0.024200105786004,-0.5135037024787,0.14508950597373,9.8917300999435,-0.44058270013338,-0.21320648246309,9.8940467295347,-0.0055135325071574,-0.016873178806722,-0.022715825743848,-0.0056841212349994,-0.016039362066511,-0.023275588099693,2011-09-26 13:02:26.174598199,0.580237824
49.014990512403,8.4342632775865,116.43618011475,0.035844,0.006255,-2.6135759803847,-6.727135964941,-11.219329342666,13.080824586629,-0.14083653705105,0.024935089918103,-0.48576814710689,0.10045108007767,9.879095584952,-0.41459354213458,-0.25680553068146,9.8795795829361,-0.0057395026310838,-0.017592701985714,-0.023139451882271,-0.0059091584223248,-0.016744580909721,-0.023722611456975,2011-09-26 13:02:26.184619888,0.590259513
49.014989910902,8.434261746056,116.43653106689,0.035878,0.006036,-2.6138769803847,-6.7224505701998,-11.217179941266,13.076570238893,-0.14109883808984,0.025994826430388,-0.49184792504086,0.069018418066022,9.9133412472092,-0.4222063207417,-0.28902249495389,9.912638860078,-0.0043505772364212,-0.018397796687857,-0.02405003409993,-0.0045219694979127,-0.017517511665607,-0.024669542337949,2011-09-26 13:02:26.194559123,0.600198748
49.014989307539,8.4342602147985,116.43683624268,0.035939,0.005877,-2.6141899803847,-6.7179429846699,-11.214932950076,13.072320096225,-0.14169232656335,0.02752560246583,-0.49121073628473,0.090255655356119,9.9605850601278,-0.42299655523309,-0.26922688159753,9.9605357250705,-0.002746990650958,-0.018206127184678,-0.025050528984941,-0.0029202963458167,-0.017290655400481,-0.0256719147948,2011-09-26 13:02:26.204491061,0.610130686
49.014988712926,8.4342586799579,116.43780517578,0.036,0.005793,-2.6144299803847,-6.7135565369694,-11.212288007565,13.067787770494,-0.14255664174618,0.029321762095955,-0.51724912584202,0.1238923070527,9.9845423011086,-0.45046727502502,-0.23633623190353,9.9857669034676,-0.0015024420533143,-0.016868708106976,-0.0248644496372,-0.0016707325883983,-0.015961107970112,-0.025445230573598,2011-09-26 13:02:26.214578043,0.620217668
49.014988112463,8.4342571502827,116.4381942749,0.035972,0.005712,-2.6146759803847,-6.709018056424,-11.20948480643,13.063042747414,-0.14335152286457,0.030788497781562,-0.53696675696572,0.1164384609948,9.9522109559423,-0.47183369107386,-0.24246320030737,9.9532360890854,-0.0016880757453172,-0.01569890189093,-0.02475728219162,-0.0018520736998724,-0.014796281167425,-0.025295124387837,2011-09-26 13:02:26.224670852,0.630310477
49.014987511268,8.4342556182445,116.43852233887,0.035864,0.005585,-2.6149569803847,-6.7041103479604,-11.207147085466,13.058514311998,-0.14364629847602,0.031825223114328,-0.51331674342086,0.057242691845577,9.912039312551,-0.44985325991371,-0.29988391663292,9.910775406089,-0.0030383643835196,-0.015403566607291,-0.025185189862877,-0.0032012653483123,-0.014486515725189,-0.025704517434529,2011-09-26 13:02:26.234527888,0.640167513
49.014986918856,8.4342540840347,116.43912506104,0.035824,0.005423,-2.6152019803847,-6.6991587957663,-11.204950022646,13.054086286952,-0.14380691343692,0.032856439647178,-0.50068423190773,0.04915128806874,9.9122884156683,-0.43868014271042,-0.30766751121469,9.9106049107765,-0.0032801097259917,-0.015662531616197,-0.025029911383445,-0.0034386964833514,-0.014751645062948,-0.025557208554611,2011-09-26 13:02:26.244343368,0.649982993
49.014986319786,8.4342525544697,116.43957519531,0.035765,0.005238,-2.6155239803847,-6.6943049764014,-11.202827519249,13.049770974953,-0.14414299234821,0.034227973700102,-0.48901659712157,0.053283594858429,9.9462201533181,-0.42834940733005,-0.30439866511892,9.9445394442812,-0.0036460932670929,-0.016266651873767,-0.025991424675928,-0.0038061199180497,-0.015321877757749,-0.026537660515094,2011-09-26 13:02:26.254609516,0.660249141
49.014985719795,8.4342510244643,116.43997192383,0.03566,0.005078,-2.6156519803847,-6.6894742299412,-11.200903391362,13.045642428515,-0.14412926783457,0.036158777645086,-0.46933410755334,0.045921055629665,10.00414713032,-0.40990103840387,-0.31336556075759,10.002008229659,-0.004668179277029,-0.016295654092702,-0.023919710974539,-0.0048139002626812,-0.015425889413425,-0.024462883779654,2011-09-26 13:02:26.264382012,0.670021637
49.014985128444,8.4342494910691,116.44071960449,0.035565,0.005031,-2.6159039803847,-6.68493309545,-11.198742882657,13.041455256294,-0.14449702620615,0.038984960998323,-0.47351399142034,0.089087897285215,10.091065060772,-0.41500415510819,-0.27278633807385,10.090378026139,-0.0054904523854746,-0.014697305978797,-0.024291754328358,-0.005634357372975,-0.013816663306394,-0.024773318553328,2011-09-26 13:02:26.274369566,0.680009191
49.01498453028,8.4342479628757,116.44130706787,0.03541,0.005186,-2.6161369803847,-6.6805631311325,-11.196336450259,13.037142059782,-0.14510930726375,0.041672216848575,-0.48480689270729,0.11250471269243,10.077165301656,-0.42729282727443,-0.24820684779224,10.077350014562,-0.0069768845276534,-0.010307210081977,-0.024226991179105,-0.0071173204281977,-0.0094333279242633,-0.024544678160842,2011-09-26 13:02:26.284346132,0.689985757
49.014983931405,8.4342464328435,116.44172668457,0.035204,0.005178,-2.6164119803847,-6.6763836614626,-11.19417098272,13.033132675315,-0.14582435001613,0.043851384321289,-0.45438585880119,0.11407900578857,10.027610506408,-0.39792935845081,-0.2439955738259,10.027710461387,-0.0090083518485054,-0.0090341285696808,-0.024692442502239,-0.0091489448184315,-0.0081468705954141,-0.024953552241909,2011-09-26 13:02:26.294329220,0.699968845
49.014983340777,8.4342449003891,116.4425201416,0.034996,0.005187,-2.6166439803847,-6.6720811122432,-11.192165335312,13.029200771166,-0.14631857868075,0.046288676673095,-0.44567297998101,0.097012154920283,10.053768930447,-0.3897513765203,-0.26089471325484,10.053206233919,-0.01086109907123,-0.0076760092842287,-0.024675576126903,-0.010999672122974,-0.0067928379270372,-0.024878488257226,2011-09-26 13:02:26.304370469,0.710010094
49.014982744471,8.4342433720771,116.44316864014,0.034862,0.005278,-2.6168989803847,-6.6672239454067,-11.190385535015,13.025186837098,-0.14623518517232,0.048735375172131,-0.45293703298386,0.03486533168224,10.05596359088,-0.39744512158875,-0.32196660654279,10.053278894111,-0.011237434210545,-0.0052976078915944,-0.024838239707868,-0.011375349352964,-0.0044129783017649,-0.024954962001263,2011-09-26 13:02:26.314349907,0.719989532
49.014982145972,8.4342418438638,116.44375610352,0.0348,0.005275,-2.6171679803847,-6.6623903535957,-11.188827704763,13.021377084376,-0.14610122400155,0.051505068896311,-0.43265147803628,0.025255531929904,10.089509052248,-0.37735472304692,-0.33169764567132,10.086371026867,-0.010459319078963,-0.0046949667078552,-0.025137003751687,-0.01059778584801,-0.0038028909748978,-0.025235618191901,2011-09-26 13:02:26.324368777,0.730008402
49.014981556126,8.4342403127326,116.44423675537,0.034764,0.00541,-2.6174009803847,-6.6578618005564,-11.186888549048,13.017391023093,-0.14638590864743,0.054699308561865,-0.44972875633084,0.073337202140419,10.133742694411,-0.39429375371831,-0.28424392480265,10.132357744424,-0.0094964212171189,-0.0020872217016769,-0.025087953188934,-0.0096338722311933,-0.0012007592679963,-0.025100035057376,2011-09-26 13:02:26.334418362,0.740057987
49.014980960421,8.4342387863477,116.44500732422,0.034689,0.005681,-2.6176599803847,-6.6534725304729,-11.184475266691,13.013064518045,-0.14704789560542,0.057699412277585,-0.48389444288121,0.10579162181936,10.112481290249,-0.42825497435038,-0.25015992536754,10.112462641193,-0.009183458034551,0.0021438615535746,-0.025338760210594,-0.0093222911989103,0.0030342112636803,-0.025204353779136,2011-09-26 13:02:26.344405870,0.750045495
49.014980364266,8.4342372580861,116.44568634033,0.034559,0.005795,-2.6179469803847,-6.648946650902,-11.181913976687,13.008541223326,-0.14773628971671,0.060699500435947,-0.50486527644903,0.10007787854645,10.111929096712,-0.44878634553806,-0.25487907271231,10.111875419899,-0.0097319393293684,0.0033807823205384,-0.025904446179005,-0.0098748917406267,0.0042875208270604,-0.025722510504484,2011-09-26 13:02:26.354428764,0.760068389
49.014979775622,8.4342357283291,116.44627380371,0.034464,0.005906,-2.6182479803847,-6.6440496532667,-11.179586880184,13.004034796392,-0.14807310896368,0.064029575370555,-0.50341548498168,0.057391196764485,10.148884732205,-0.44658181471016,-0.2978434455316,10.147374482067,-0.0097616484299631,0.0043676649724577,-0.026739279252154,-0.0099106905243744,0.005300160636784,-0.026521473438375,2011-09-26 13:02:26.364375933,0.770015558
49.014979181583,8.434234202183,116.44709777832,0.034397,0.006215,-2.6185309803847,-6.6391522052767,-11.177428848157,12.999674797859,-0.14836353196743,0.066830139064972,-0.48941816223443,0.044702517249812,10.094977022374,-0.43198842218991,-0.30774397055461,10.093038370129,-0.0092859011654687,0.008200515226589,-0.027112887364331,-0.0094388419908525,0.0091412657153041,-0.026764590478261,2011-09-26 13:02:26.374429916,0.780069541
49.01497858597,8.4342326764083,116.44785308838,0.034299,0.00647,-2.6188039803847,-6.6342093744852,-11.175294520933,12.995313202002,-0.14861568956766,0.068895618205226,-0.49105043789926,0.03532713966234,10.022575469018,-0.43291099515434,-0.31369495040186,10.020443407787,-0.0093360159906484,0.010643937942601,-0.027260954259681,-0.009492425272475,0.011585957218563,-0.026827028489992,2011-09-26 13:02:26.384417986,0.790057611
49.014977998838,8.4342311470761,116.44840240479,0.034194,0.00664,-2.6190879803847,-6.6286279683124,-11.173570342793,12.990988674627,-0.14814178609728,0.070276275474442,-0.48643787221437,-0.041326931287011,9.9583041486654,-0.42748395399918,-0.38715350613022,9.9536380160762,-0.0095721135920511,0.011448847251211,-0.027668811120729,-0.009734322665284,0.012401900274347,-0.02720428102271,2011-09-26 13:02:26.394439921,0.800079546
49.014977406879,8.4342296217684,116.44911193848,0.034169,0.006999,-2.6193209803847,-6.6228637730655,-11.171669791374,12.986421853241,-0.14752512403785,0.070909834153276,-0.51335719138222,-0.053262891593959,9.8823285263656,-0.45333115132118,-0.39563925190941,9.8775796216783,-0.0084842965532434,0.014986020163529,-0.02719498945262,-0.0086466259829767,0.015918646048709,-0.026615965576122,2011-09-26 13:02:26.404399130,0.810038755
49.01497681306,8.4342280968638,116.44986724854,0.03413,0.007226,-2.6196079803847,-6.6169742071057,-11.169094322668,12.98120800092,-0.14717940619715,0.070653359030284,-0.57817861267488,-0.035553457854865,9.7923542474107,-0.51709502442146,-0.37409155805725,9.7888269572466,-0.0077741520702569,0.015994617139,-0.027516741034727,-0.0079430972630015,0.016935629617518,-0.026906708432165,2011-09-26 13:02:26.414391733,0.820031358
49.014976227459,8.4342265692244,116.4503326416,0.034119,0.007301,-2.6198169803847,-6.6109930760399,-11.166590174268,12.976012586864,-0.14660332045626,0.070375355175742,-0.57851182077365,-0.045325439176636,9.7921211102991,-0.51587615333448,-0.38317215782693,9.7883494282743,-0.0068225292597184,0.01461242456815,-0.026708729879518,-0.0069900950197267,0.015524929332049,-0.026151924392009,2011-09-26 13:02:26.424424701,0.830064326
49.014975637282,8.4342250448085,116.45108032227,0.034127,0.00743,-2.6201849803847,-6.6048891146339,-11.164386648128,12.971015343924,-0.14598119321487,0.070634051899381,-0.5603900476576,-0.07115162330014,9.8449029437542,-0.4958573049281,-0.41021990178908,9.8401660128619,-0.0056476498707606,0.014162060882927,-0.02826442039759,-0.0058309446745839,0.015126453441348,-0.027729450355165,2011-09-26 13:02:26.434404427,0.840044052
49.014975045482,8.4342235210022,116.45168304443,0.034142,0.007729,-2.6204369803847,-6.5991307474388,-11.161598650909,12.965684919204,-0.145902851746,0.070793944114473,-0.59499654050896,-0.014398879805119,9.8325125021911,-0.52881679355403,-0.35261972552062,9.8300790687972,-0.0045455023901465,0.016371251750488,-0.027950257337952,-0.0047304894900956,0.017322458325995,-0.027347177591998,2011-09-26 13:02:26.444416148,0.850055773
49.014974460942,8.4342219948614,116.45213317871,0.034112,0.007987,-2.6207609803847,-6.593786135323,-11.158508853272,12.960298434218,-0.14643286532205,0.070164852497302,-0.60233205943262,0.034485952165649,9.7528006268624,-0.53492688429744,-0.30061158846925,9.7522410255702,-0.0043481770316246,0.017622063987915,-0.028878718737259,-0.0045452681718896,0.018603086967002,-0.028232681290271,2011-09-26 13:02:26.454592724,0.860232349
49.014973872139,8.4342204721302,116.45275115967,0.034001,0.008082,-2.6210529803847,-6.5881032150245,-11.155732525281,12.955016184171,-0.14653529427803,0.069300124622707,-0.59307225051773,-0.013256940659199,9.7308855328331,-0.52414755456223,-0.3470514168363,9.7287382330536,-0.0053399504768809,0.016241754389728,-0.02896741092667,-0.0055427827007618,0.017225166397736,-0.028359359606717,2011-09-26 13:02:26.464416631,0.870056256
49.014973282503,8.4342189480164,116.45350646973,0.034021,0.008204,-2.6213849803847,-6.5818627327709,-11.153402646489,12.949844014805,-0.14602763548622,0.068565105929301,-0.58352141294007,-0.084933399560319,9.7454077029081,-0.51286647158093,-0.418758630652,9.7408257685565,-0.0042014579053487,0.015458491231269,-0.02965629928767,-0.0044146899566002,0.016464663594449,-0.029082918235835,2011-09-26 13:02:26.474415665,0.880055290
49.014972699643,8.4342174226882,116.45391845703,0.034113,0.008428,-2.6216769803847,-6.5759883228552,-11.150717249516,12.944546296186,-0.14601761211504,0.067685340039906,-0.59757320099906,-0.033463389626271,9.7306615474719,-0.52531313637073,-0.36659152369042,9.7280506487723,-0.0022302392195464,0.016346717546578,-0.029826354394519,-0.0024495138638414,0.017357618583827,-0.029238056086679,2011-09-26 13:02:26.484389726,0.890029351
49.014972111985,8.4342159026914,116.45448303223,0.034115,0.008609,-2.6220599803847,-6.5704550744269,-11.147204662088,12.938698908498,-0.14689294611122,0.06648753903392,-0.6542772208492,0.03487111881767,9.6950723153511,-0.58058013388854,-0.29689531412299,9.695391055352,-0.0018117033366145,0.016404209914592,-0.031172401235341,-0.0020474276266342,0.017460526407335,-0.03058387703175,2011-09-26 13:02:26.494397492,0.900037117
49.01497152434,8.4342143789458,116.45510101318,0.034064,0.00869,-2.6223819803847,-6.5645218132629,-11.143603962775,12.932576924427,-0.14749757779716,0.064854408178832,-0.68230063772182,0.0019354509950192,9.6520564680484,-0.60740509919327,-0.32811329804663,9.6516082832976,-0.0022764478361223,0.014986078427403,-0.03135354105004,-0.002518659454413,0.016048759522362,-0.030808390924821,2011-09-26 13:02:26.504405142,0.910044767
49.014970943053,8.4342128558329,116.45541381836,0.034044,0.00876,-2.6226609803847,-6.5582335412735,-11.140093368359,12.926358628063,-0.14769337394505,0.062941246952007,-0.69356554206355,-0.032764866654234,9.6258429978412,-0.61746443794357,-0.36167379690074,9.6244078254749,-0.002264980660704,0.013641166663292,-0.030985509892534,-0.0025085307430784,0.014691474592906,-0.030485828800215,2011-09-26 13:02:26.514386553,0.920026178
49.014970357637,8.4342113373689,116.4557723999,0.034011,0.00903,-2.6229659803847,-6.5519885100824,-11.136179363105,12.91981235371,-0.14812890749082,0.060085059909206,-0.72697571075401,-0.014470136656099,9.529296548165,-0.65012087157981,-0.33986567192675,9.528938639321,-0.0023782335615984,0.015490491663799,-0.031049183408654,-0.0026265561889562,0.016541212499849,-0.030484988312989,2011-09-26 13:02:26.524434514,0.930074139
49.01496977082,8.4342098172576,116.45624542236,0.033869,0.009104,-2.6232569803847,-6.5455102335701,-11.132042458639,12.912958103642,-0.14844642848275,0.056307300922825,-0.75816435414091,-0.028754616157684,9.4373620659403,-0.68066791742856,-0.35062115706144,9.4369549134287,-0.0041154985273586,0.014114917914229,-0.030783805897356,-0.0043661550180251,0.015156211157481,-0.030250375493939,2011-09-26 13:02:26.534419093,0.940058718
49.014969198073,8.4342082929211,116.45620727539,0.033771,0.008834,-2.6235509803847,-6.5382186985346,-11.128556089843,12.906267449719,-0.14771842236252,0.052781205784401,-0.74298970101978,-0.12548142373403,9.4675027560492,-0.66437975882897,-0.4478253463124,9.4637350919133,-0.0051481737482548,0.0078201802270944,-0.030742735012752,-0.0054028186397084,0.0088621850417191,-0.030413001366129,2011-09-26 13:02:26.544456454,0.950096079
49.014968615288,8.434206774984,116.45652770996,0.033724,0.008753,-2.6238269803847,-6.5308508937544,-11.125232676367,12.899682482127,-0.14679389971484,0.049679024916741,-0.73345124586681,-0.14055921017393,9.5090823426418,-0.65385203015632,-0.46381746492312,9.5047417640194,-0.0050389476860166,0.0052926531930303,-0.03022032476084,-0.0052915404042812,0.0063169987532655,-0.029977435191225,2011-09-26 13:02:26.554479274,0.960118899
49.014968029677,8.4342052582853,116.4567565918,0.033661,0.008866,-2.6241449803847,-6.5240032596912,-11.121057774912,12.892615767621,-0.14678097066599,0.04644217117923,-0.78232855898679,-0.056025328647838,9.4920149912456,-0.70215648069805,-0.3782601092885,9.4910158549249,-0.0051936055331141,0.0060182552140757,-0.030506776046714,-0.0054505250949867,0.0070502867322566,-0.030238191851352,2011-09-26 13:02:26.564408777,0.970048402
49.014967457975,8.4342037364152,116.45666503906,0.033513,0.00866,-2.6243899803847,-6.5175827707375,-11.116669108675,12.885576807745,-0.14713612738768,0.043405845502346,-0.77956427513877,-0.002216529350662,9.5122927425587,-0.69890198250324,-0.32452798272298,9.5130921046896,-0.006807064703147,0.0019235169319644,-0.029790259639707,-0.0070596869083482,0.0029318552695139,-0.029645881964391,2011-09-26 13:02:26.574405774,0.980045399
49.014966876361,8.4342022205999,116.45693969727,0.033265,0.008464,-2.6247149803847,-6.5111653551269,-11.112683742374,12.878890229285,-0.14735565791766,0.040899968676994,-0.74451463386795,-0.024339049948063,9.5665638311749,-0.66342600073249,-0.34755156696009,9.5663171350183,-0.0094655049976749,-0.0014670106078303,-0.030075220693751,-0.0097211861719528,-0.00045011088765374,-0.030021722110564,2011-09-26 13:02:26.584402579,0.990042204
49.014966293778,8.4342007038193,116.45718383789,0.033149,0.008542,-2.6249769803847,-6.5046305518579,-11.108726181018,12.872171663366,-0.14738939988514,0.038424973375445,-0.74814243878776,-0.037263192455853,9.5684292564987,-0.66695090573347,-0.35960614399589,9.5678133992956,-0.0097556792480237,-0.00021945901665575,-0.029526937589688,-0.010006487909054,0.0007756866887739,-0.029430482348576,2011-09-26 13:02:26.594414700,1.000054325
49.014965723268,8.434199183736,116.45706176758,0.032993,0.008373,-2.6252759803847,-6.4983859690792,-11.104447253865,12.865317814109,-0.14784535243337,0.035871227369128,-0.7601810729696,0.0056462864125247,9.5602648680239,-0.67921114065194,-0.31544130126172,9.5611861851626,-0.01078832736082,-0.0028370401641574,-0.029776396951235,-0.011041310594053,-0.0018353941123704,-0.029758230210441,2011-09-26 13:02:26.604387585,1.010027210
49.014965143353,8.4341976701696,116.4573059082,0.03276,0.00817,-2.6256279803847,-6.4920580737173,-11.100195165785,12.858445801173,-0.14832636038366,0.033910543263759,-0.76228391202416,-0.004125656549354,9.6197751378203,-0.68126236156907,-0.32596526388021,9.6203635082001,-0.012635078256697,-0.0056334841395338,-0.03047443740855,-0.012893031421232,-0.0046111974377327,-0.030533273925323,2011-09-26 13:02:26.614406477,1.020046102
49.014964562447,8.434196154246,116.45755004883,0.032633,0.007991,-2.6258969803847,-6.4852843626597,-11.096310890918,12.851675608654,-0.14817205109692,0.032363961774195,-0.75235632522053,-0.062831808066951,9.6616438671473,-0.67164126780166,-0.3848099101515,9.6602048839776,-0.012614816518193,-0.0076234615186037,-0.029846771797267,-0.012866251383783,-0.0066243430458628,-0.029972069657815,2011-09-26 13:02:26.624408115,1.030047740
49.014963995409,8.4341946348047,116.45774841309,0.032555,0.007882,-2.6262159803847,-6.4786267082608,-11.09206425728,12.844647971418,-0.14833666277186,0.030854367508066,-0.77679787643745,-0.029287036856908,9.6645322870752,-0.69674007996092,-0.3502471089634,9.6643618406807,-0.012078594040464,-0.0082424422908132,-0.030420256027677,-0.012332510261427,-0.0072278677116309,-0.030570604704757,2011-09-26 13:02:26.634398021,1.040037646
49.0149634173,8.4341931234837,116.45795440674,0.032462,0.007762,-2.6265459803847,-6.4720977020216,-11.087524618688,12.837429094837,-0.14881138080448,0.029436212381856,-0.79538319497184,-0.007358981328372,9.6718324440139,-0.71602257343098,-0.32747245934106,9.6724938740924,-0.011630304934394,-0.0089830759471912,-0.030742717623526,-0.011884491592014,-0.0079610807346764,-0.03092137379579,2011-09-26 13:02:26.644455569,1.050095194
49.014962838321,8.4341916091797,116.45820617676,0.03234,0.0075,-2.6267689803847,-6.4652430467184,-11.083320925885,12.830345095638,-0.14867696048637,0.028290780524577,-0.78176571572606,-0.054930134129116,9.7008975774118,-0.70322512632452,-0.37485082244025,9.6998632343209,-0.011687259194235,-0.011669114555113,-0.029339809979997,-0.011928296273765,-0.010694564734922,-0.029606805697132,2011-09-26 13:02:26.654501614,1.060141239
49.014962272914,8.4341900913109,116.45844268799,0.032348,0.007221,-2.6270469803847,-6.4580665897106,-11.079567787002,12.823496372974,-0.14800944173964,0.027917163445891,-0.75720085836715,-0.098725614009749,9.7791079408,-0.67938469733472,-0.42022297113276,9.77637311303,-0.0100091703151,-0.014228247371846,-0.029276838482997,-0.010246364365591,-0.013257324353093,-0.029640236566988,2011-09-26 13:02:26.664588944,1.070228569
49.014961696787,8.4341885810795,116.4587020874,0.032368,0.007149,-2.6272989803847,-6.451201601254,-11.075567618952,12.816587908511,-0.14765772658892,0.027584588929007,-0.76096572961208,-0.062901771908286,9.78131174968,-0.68431734125411,-0.38372808819969,9.7796990988719,-0.0081762947678348,-0.013291010266069,-0.028623312710548,-0.0084049038526401,-0.012344128255736,-0.028971254268721,2011-09-26 13:02:26.674630874,1.080270499
49.014961119137,8.4341870702904,116.45882415771,0.032332,0.007085,-2.6276329803847,-6.4445563610659,-11.071102476109,12.809382682416,-0.14781715054752,0.026581900589656,-0.79005587017027,-0.025536506122043,9.713479987228,-0.71498551179168,-0.34348985897285,9.7132604395427,-0.0074568505526596,-0.012426858726158,-0.029285815803965,-0.0076865088546533,-0.011461209226865,-0.02961177128359,2011-09-26 13:02:26.684621983,1.090261608
49.014960558433,8.4341855521871,116.4591293335,0.032122,0.006811,-2.6279119803847,-6.437182906906,-11.067127104693,12.802247530986,-0.14707309893371,0.025714615501208,-0.78049248964473,-0.10791103020374,9.7284229891438,-0.70667871057482,-0.42540123876722,9.7254163930826,-0.0097043229697606,-0.014806329917235,-0.029274443433371,-0.0099302094626236,-0.013842620420184,-0.029662501201055,2011-09-26 13:02:26.694552333,1.100191958
49.014959985007,8.4341840429135,116.4593963623,0.032123,0.006564,-2.6282019803847,-6.4295504708701,-11.063448038989,12.79524463483,-0.1459541032001,0.025412423176027,-0.76676861619802,-0.14686437567318,9.7864095407722,-0.69408228244347,-0.46543284632664,9.7819459819181,-0.0082081745242965,-0.016420880429649,-0.029108776918365,-0.0084287091804681,-0.015464036232065,-0.029559804870429,2011-09-26 13:02:26.704515119,1.110154744
49.014959408673,8.4341825337702,116.45961761475,0.032072,0.006507,-2.6284879803847,-6.4223729002396,-11.05952583314,12.78825477154,-0.14533927768757,0.025425559699623,-0.76554332376832,-0.0972947193222,9.8160931096564,-0.69401168902403,-0.41611631855856,9.8131207315172,-0.0077254483456521,-0.014961248365202,-0.02899346038061,-0.007940743179618,-0.014011100034816,-0.029401865659032,2011-09-26 13:02:26.714471436,1.120111061
49.014958847882,8.4341810192715,116.45959472656,0.031955,0.006317,-2.6288249803847,-6.4158969652037,-11.055186958169,12.781246389802,-0.14562739134432,0.025706725744679,-0.76432182520307,-0.01146551142387,9.842179143208,-0.69404216296363,-0.33037665607875,9.8418512793707,-0.0084776310938043,-0.015697561110422,-0.029843441323519,-0.0086940202088429,-0.014722307659392,-0.030270980013646,2011-09-26 13:02:26.724449899,1.130089524
49.014958275647,8.4341795120103,116.45995330811,0.031701,0.006193,-2.6291089803847,-6.4092524204231,-11.051153914444,12.774423245927,-0.14559070133091,0.026575716882977,-0.74624355142261,-0.042850684710289,9.9030822717268,-0.67699526346802,-0.36263209102291,9.9015505543865,-0.010985986429734,-0.015352926943858,-0.029551925124991,-0.011196143750783,-0.014390305151752,-0.029953447835142,2011-09-26 13:02:26.734460251,1.140099876
49.014957702949,8.4341780028572,116.46022796631,0.031541,0.006027,-2.6293839803847,-6.4021795573597,-11.047335827277,12.767579157618,-0.14503388304349,0.028199359350531,-0.74640201870922,-0.092298082003746,9.9791649309677,-0.67814286417793,-0.41332901135,9.9759715121988,-0.011723088465274,-0.01566298790228,-0.029161636356242,-0.011926527392667,-0.014715976382658,-0.029568873796271,2011-09-26 13:02:26.744472409,1.150112034
49.014957143584,8.4341764901862,116.46033477783,0.031452,0.006033,-2.6297119803847,-6.3956576237557,-11.043025453186,12.760576298903,-0.14526386830805,0.029849455447951,-0.76150671590283,-0.015783369703184,9.9811351913226,-0.69443422770254,-0.33582455557275,9.9803895478159,-0.011463125195483,-0.013361539716938,-0.029920390902806,-0.011666982005363,-0.012395139685771,-0.030256379739005,2011-09-26 13:02:26.754563037,1.160202662
49.014956572218,8.4341749858641,116.46073150635,0.031221,0.006009,-2.6300369803847,-6.3897839801924,-11.038296635208,12.753526413767,-0.14631309753758,0.031327037130758,-0.76506070851741,0.056064135752293,9.9600549126242,-0.69916848553711,-0.26208225168567,9.9615517070634,-0.01318165641616,-0.011871808759397,-0.030283332267385,-0.013384104420479,-0.010898689531255,-0.030561872662216,2011-09-26 13:02:26.764482408,1.170122033
49.014956000988,8.4341734778974,116.46114349365,0.03095,0.005851,-2.6303059803847,-6.3836513831635,-11.034067139927,12.746786852727,-0.1468264754851,0.033047981561145,-0.7336866022398,0.0048895153894495,9.9862666757306,-0.66879403171395,-0.31255773089607,9.9859494286851,-0.015240907953736,-0.012593037445488,-0.029693332427277,-0.015436487543047,-0.011642377515274,-0.029981937022164,2011-09-26 13:02:26.774471125,1.180110750
49.014955442907,8.4341719666236,116.46136474609,0.030712,0.005809,-2.6306049803847,-6.377118675689,-11.030397068938,12.740340473872,-0.14671811844589,0.035530784326973,-0.70329861190383,-0.052018911918968,10.066881674371,-0.63898315298531,-0.37029554061156,10.064578809058,-0.016680771760676,-0.011448081828664,-0.029916332563186,-0.016874239986416,-0.01049605259093,-0.030160563570321,2011-09-26 13:02:26.784461075,1.190100700
49.014954873484,8.4341704632804,116.46192169189,0.030677,0.005944,-2.6309509803847,-6.3710108743356,-11.026347508597,12.73377074495,-0.14725566774171,0.038121166677927,-0.71454882011825,-0.00029607513112277,10.073874423215,-0.65085770951202,-0.31738235096567,10.073217464503,-0.014673655996574,-0.0078813695543647,-0.030668382678708,-0.014868886805079,-0.0069123079637987,-0.030813751849787,2011-09-26 13:02:26.794457162,1.200096787
49.014954302466,8.4341689591409,116.46229553223,0.030525,0.006043,-2.6312909803847,-6.3652642431853,-11.021990382307,12.727109188979,-0.14832273860412,0.040682991676238,-0.72361649710052,0.043098336138546,10.069753259733,-0.66036667375446,-0.27243800371617,10.070490846055,-0.014728607597088,-0.00536716412121,-0.031213125276902,-0.014925343489764,-0.0043870555468766,-0.031279913198704,2011-09-26 13:02:26.804420454,1.210060079
49.014953745169,8.4341674503316,116.46263885498,0.030412,0.006009,-2.6315629803847,-6.3593446067075,-11.017686824961,12.720411569452,-0.14913712019145,0.043685542924802,-0.72568402253544,0.028908585717764,10.115780270773,-0.6625725199641,-0.2866224085054,10.116089155193,-0.014358316457525,-0.0051845895030285,-0.030791156485366,-0.014551208855114,-0.0042216742148759,-0.030853757206807,2011-09-26 13:02:26.814405344,1.220044969
49.014953177845,8.4341659489592,116.4633102417,0.030302,0.006283,-2.6319759803847,-6.3530829157014,-11.013248801217,12.713427972572,-0.1499218322901,0.046717711486082,-0.75552141915512,0.0015772978600992,10.119023230157,-0.69232873792611,-0.31268396396462,10.118732424198,-0.013824568988896,-0.00048290107757425,-0.032469483012561,-0.014027294218269,0.00052455801925252,-0.032390615727391,2011-09-26 13:02:26.824408826,1.230048451
49.014952608615,8.4341644463731,116.46382141113,0.030204,0.00647,-2.6322979803847,-6.3468454783462,-11.008426481035,12.7061214988,-0.15091404707401,0.04934005476317,-0.78727320628185,0.017090703181084,10.076584745634,-0.72401179876365,-0.29459521227687,10.077048039601,-0.013187883640562,0.0022400340840619,-0.032507060560677,-0.013391392185563,0.0032433841004657,-0.032348342939829,2011-09-26 13:02:26.834437645,1.240077270
49.014952053185,8.4341629414458,116.46437072754,0.030088,0.006516,-2.6326259803847,-6.3408836565942,-11.003352508879,12.698730173424,-0.15227928177394,0.051764046548694,-0.79525722533958,0.056572097703922,10.055362033789,-0.73176800777403,-0.25321228865719,10.057136033765,-0.013083201094478,0.0024920289714526,-0.032749001476576,-0.013289361881989,0.0034985775016611,-0.032581770102305,2011-09-26 13:02:26.844432896,1.250072521
49.014951487329,8.4341614417921,116.46502685547,0.029797,0.006713,-2.6330199803847,-6.3347661081051,-10.998709632547,12.691638429627,-0.15343132380695,0.05388443956639,-0.76580364153864,0.015866283048333,10.02461772872,-0.70192784345752,-0.29145648362584,10.02507962755,-0.015443720930306,0.0048782246257347,-0.033817151255089,-0.015658437177914,0.0059107403086459,-0.033560969383759,2011-09-26 13:02:26.854529618,1.260169243
49.014950920538,8.4341599407825,116.46570587158,0.029555,0.006847,-2.6333739803847,-6.3283361918893,-10.994493187665,12.684767414354,-0.15413919435393,0.055806773631432,-0.74483309530784,-0.037243659408917,10.007050069412,-0.68037575558216,-0.34236188671308,10.005902703102,-0.01672416279076,0.0060019909318745,-0.034102578566826,-0.016942881776202,0.0070371515706538,-0.033802900004905,2011-09-26 13:02:26.864439284,1.270078909
49.014950366606,8.4341584374216,116.46630096436,0.029438,0.007049,-2.6337249803847,-6.3220607631059,-10.989919209516,12.677659646978,-0.15518037327547,0.057965757586717,-0.76893313101167,-0.0023321104975791,10.029002559,-0.70340397633624,-0.30652320236445,10.029150152532,-0.016090538372146,0.0080116922920933,-0.034514691781802,-0.016314745313127,0.0090530130733066,-0.034158566011242,2011-09-26 13:02:26.874415790,1.280055415
49.014949802704,8.4341569401305,116.46702575684,0.029193,0.007362,-2.6340589803847,-6.31558664864,-10.985206328088,12.670334796965,-0.15610317779103,0.059920893948709,-0.79195316135992,-0.017717293922942,10.00951717515,-0.72532619200944,-0.31961452472499,10.009529051558,-0.017324957616324,0.011356438448279,-0.034464488014532,-0.017552186227142,0.012389275167849,-0.033999897830261,2011-09-26 13:02:26.884457330,1.290096955
49.014949237698,8.4341554400303,116.46768188477,0.028893,0.007582,-2.6344829803847,-6.308673651344,-10.980855378875,12.663111890748,-0.15662574891529,0.061747759856403,-0.78257018715593,-0.078959699834501,9.9977395988778,-0.71465841060081,-0.37858014513614,9.9960687395366,-0.019184213973875,0.012754972681037,-0.035740314812352,-0.019425399627855,0.013817793121127,-0.035219126513657,2011-09-26 13:02:26.894431263,1.300070888
49.014948685362,8.4341539384601,116.46830749512,0.028747,0.007838,-2.6348969803847,-6.3019126036424,-10.976557072044,12.656008253838,-0.15737114199617,0.063405595877942,-0.77153465908254,-0.066635744859326,9.9795536590461,-0.70219938952637,-0.363895418042,9.9783232040783,-0.018586581877794,0.014530226778882,-0.036851767590499,-0.018841398658123,0.015618139519659,-0.036281998676293,2011-09-26 13:02:26.904452517,1.310092142
49.014948123342,8.4341524432151,116.46896362305,0.02858,0.00832,-2.6352819803847,-6.2951757130961,-10.971838511237,12.648549200868,-0.15838396600678,0.064274756496251,-0.80859446022016,-0.050760383130427,9.8997456101892,-0.73786726588229,-0.34392942563193,9.8995111891485,-0.018261594596125,0.01941119276205,-0.037307502451924,-0.018526186790799,0.020504020372423,-0.036598301759613,2011-09-26 13:02:26.914422331,1.320061956
49.014947560549,8.4341509453182,116.46974182129,0.028293,0.008476,-2.6356179803847,-6.2877543561317,-10.967392734552,12.640998632628,-0.15860842803847,0.065043543021813,-0.81999529118714,-0.12747632566086,9.8920287686608,-0.74737666244717,-0.41842637802453,9.8899243667489,-0.019788355406706,0.018685013847742,-0.036794877084136,-0.020055651486813,0.019756850912691,-0.036091857380114,2011-09-26 13:02:26.924434735,1.330074360
49.014947012352,8.4341494431375,116.47072601318,0.028235,0.008608,-2.6360539803847,-6.2799912027119,-10.963358824369,12.633642285172,-0.15847363314261,0.066267011568541,-0.80070599750907,-0.17288487681173,9.9366944533617,-0.72584033912622,-0.46331731740903,9.9333109170036,-0.0178416020957,0.017703261770581,-0.038126145521515,-0.018127268266619,0.018806995627995,-0.037465394430306,2011-09-26 13:02:26.934396833,1.340036458
49.014946452831,8.4341479495546,116.47137451172,0.028165,0.009238,-2.6363709803847,-6.2723875223051,-10.958835000714,12.625937175804,-0.15860834283065,0.06664695983326,-0.83900009788271,-0.14198714528997,9.8506252853574,-0.76238739726608,-0.42840737120108,9.8487354598067,-0.016170361781345,0.024353772504994,-0.037418723693288,-0.016456991403106,0.025429385692167,-0.036583542197999,2011-09-26 13:02:26.944430620,1.350070245
49.01494589188,8.4341464542087,116.47201538086,0.028045,0.009462,-2.6368289803847,-6.2644543939594,-10.954164750607,12.617943679926,-0.1586995417912,0.066399915858271,-0.8696000832003,-0.17005407349648,9.7887164925538,-0.79109563775717,-0.45318953496073,9.786586206083,-0.015481807514143,0.023855206629245,-0.038762915139295,-0.015790328241944,0.024963320867528,-0.037945076182348,2011-09-26 13:02:26.954443521,1.360083146
49.014945345989,8.4341449540316,116.47297668457,0.028006,0.009433,-2.6372659803847,-6.2560012348655,-10.950030038016,12.610167831351,-0.15818382154138,0.06732992847953,-0.85119507072025,-0.23394596247201,9.9058190186707,-0.769535835646,-0.51897123565853,9.9018695735642,-0.013870536387022,0.019672425634858,-0.039881477868401,-0.014198279420682,0.020808700004621,-0.039193507598103,2011-09-26 13:02:26.964435923,1.370075548
49.014944789572,8.43414346141,116.47378540039,0.028087,0.009954,-2.6376569803847,-6.2473160496356,-10.945930532313,12.602312518343,-0.15745140848974,0.068705439207601,-0.86226581011222,-0.2589440681012,9.9521661658701,-0.77761993326015,-0.5442216550448,9.9478225838589,-0.010532955928969,0.024371561789629,-0.03996825618814,-0.010869847326925,0.025504815329754,-0.039178472531041,2011-09-26 13:02:26.974432391,1.380072016
49.014944230237,8.4341419690902,116.47424316406,0.028206,0.010618,-2.6381509803847,-6.2389436421903,-10.941050952466,12.59392437558,-0.15756522744431,0.069019623326461,-0.91682593859538,-0.20046745788602,9.8432112409896,-0.83017288615935,-0.48198947859395,9.8413970995611,-0.0070900125396234,0.030459827521185,-0.041659017759919,-0.0074551333981936,0.031635979800514,-0.040729204985651,2011-09-26 13:02:26.984436856,1.390076481
