lat,lon,alt,roll,pitch,yaw,vn,ve,vf,vl,vu,ax,ay,az,af,al,au,wx,wy,wz,wf,wl,wu,timestamp,rel_time
49.00971314733202,8.441405632949532,114.30904769830302,0.08731122026424153,0.007234998930420811,-0.259405576651311,-2.7596218825686587,18.525270902710105,17.258071815189297,0.22803026650453256,-0.220854971165366,-3.4977462874852954,2.1410145229042126,9.275746369254177,-13.107540448397833,5.535012656013488,9.616237470119557,0.15682825225387922,-0.04234395932494858,-0.5220252248117813,0.06614919240278247,-0.07228563213473257,0.8994097543106202,2011-09-26 13:08:24.969505176,0.000000000
49.007811511862705,8.442875790115595,113.7243061803086,0.13556735264950337,0.009507062454582717,0.29855768699027735,-3.877740793729522,7.5023033582539185,-3.177743741209838,-0.03474308846394057,-0.16836242574058294,18.934924719049093,-3.5697114811712214,10.035307276718935,2.55878350483283,0.5665941584659573,11.067569032921186,0.03295281533454931,0.30605125683647016,1.7619242586803658,0.03813243953812986,0.024579729416589476,-0.12573102406247855,2011-09-26 13:08:25.079500082,0.109994906
49.01006698893863,8.437989575357685,114.662840310941,0.051353455963437905,0.017645311718785778,0.7026997160540094,12.180194708663787,15.989899808306852,19.07308307415776,-0.1409328619767896,-0.1245208748654775,3.1334649462014785,3.165104817249805,9.504677663939084,5.216329374835778,-1.6267053007882117,10.049845442448108,-0.06180604736297078,-0.02377422685827716,-3.4114405543935065,0.04146697814008105,-0.020297362524101744,1.8481681259310867,2011-09-26 13:08:25.179548150,0.210042974
49.01068815695642,8.435820546815242,114.8081035463967,0.08862220272899377,0.00964573458730432,-3.246306732850263,-41.49641325046827,-1.3528910532994747,-6.734446785985831,-0.08894420893444158,0.11882982612593332,-1.511016744446398,0.9301119270446354,10.118882049078065,1.2928439200669954,-3.279396474695403,9.45593809332429,-0.14292985317581833,0.048759475073637225,0.2779706608393871,-0.045448378840018344,0.07156911747527567,-0.10888319280794083,2011-09-26 13:08:25.279558666,0.310053490
49.012096888948925,8.436590870321135,118.60023958729053,0.3823831516158745,0.014783812189940404,2.6226393142607027,7.751165430801814,3.554249231430381,17.468962437618785,0.06143532230791113,-0.09121811734344652,4.015005132384807,-0.3250657525767312,9.557711037082044,2.78524523063604,1.6923729629970918,9.2824842045646,0.05885623142622326,-0.0009986013753876914,0.27716419838279754,0.5892020327235438,-0.0075890007376608545,-0.06837083838094091,2011-09-26 13:08:25.389489568,0.419984392
49.00715170806466,8.437485313964368,114.40090738423673,0.03520340396176893,-0.008899941679488725,1.586281696764738,10.913465113757722,-10.385243914681743,-2.161445359106967,-0.026453638176153302,0.8785940089147367,1.0335107856570422,1.775596031318916,8.990488197010144,1.0170015203302856,-4.123556498357375,9.023936923500658,0.10243274945976293,0.04183499497080026,-0.29186177094165744,-0.014981919275375616,0.01842092321820395,0.008384666541485444,2011-09-26 13:08:25.489509979,0.520004803
49.00799231445888,8.428375618814535,114.42631342561312,0.1473300136630704,0.00746272463176306,2.2850571541135474,-21.52927691229831,17.837112694968422,10.687194242887436,2.801084162449956,-0.011223719065158969,-1.2419955063539883,1.1686768799019223,10.053129004647326,7.352456117206964,0.5646493057608516,7.538654661856144,0.04922275977933413,0.03766748743513532,0.20855643226286893,0.04943057340139117,0.0695109458616408,-0.18037430389719702,2011-09-26 13:08:25.599582464,0.630077288
49.007621427040114,8.437737429254472,114.2068263249266,0.05934242562261503,0.012117108115577466,-1.4235919975774163,-14.173504947528764,3.8580522890956113,15.890458576339087,-0.13776873497431535,0.29984886829236285,2.6868442433946083,0.890543075548931,9.664384387168955,-2.457064928779623,4.268135318634499,9.081279381935659,0.0713720999982022,-0.057240887998049994,0.3211534007498246,-0.02117603782370634,-0.03422300075575193,0.015984778542293094,2011-09-26 13:08:25.699659193,0.730154017
49.007361145127476,8.463981833225217,114.43594464336051,0.12814878941565766,0.008513406855742693,-5.044374132389389,11.18423517442,13.743071190679254,25.057530073638425,-0.06433875067644768,0.1929938697466942,3.0413419526656225,13.799106782276715,9.63449045942465,-4.390091126520109,-0.9156112862275059,4.20103396481653,0.037719980300312005,-0.4964840189520264,-0.2601610578081044,-0.04666307602212369,0.11447930976014463,-0.09073298447723926,2011-09-26 13:08:25.799528739,0.830023563
49.00883175697411,8.434769664258177,118.74697654522694,0.07187196008952657,0.007118369456316791,13.118215871935384,131.70591697331474,28.98863260054358,0.5574467599015147,0.12283850514197509,-0.019133122368551827,-0.5568182486945805,1.2266189142393569,9.349806427584507,0.6317043377397805,0.5073507910481193,10.302929858972517,-0.0479793638173658,-0.022922031816468038,-0.020513600965354276,-0.11499699193219451,-0.061850724554192674,0.02402256669455324,2011-09-26 13:08:25.909528505,0.940023329
49.008709780289465,8.435082449906314,115.45746676995296,0.10669975424259875,0.012163084318140876,-3.1777763029851185,210.71334608202582,12.515044524351872,17.652347876159283,0.10253679527012169,-0.024364283616705663,0.03136560970303659,0.768223193886648,9.326358966915306,1.3037684351603855,-0.35358611027617814,8.885165171268156,-0.15845095296762943,-0.05010532931288934,-2.904892884065235,0.036991623081176345,0.05665858350109198,1.5093474361883712,2011-09-26 13:08:26.009540007,1.040034831
49.01091344737375,8.435995957897589,114.7185216145506,0.06045651190454643,-0.001125069780549515,1.8991043867071706,8.096252135885006,21.714842966212213,7.274568065083187,1.3284705835654633,0.21052823065944098,-0.09193348191969508,-1.2205956213009594,9.807664538936454,2.0740291765747854,3.421964570692127,9.706147056466467,0.15780376153642095,0.04857470668771039,-0.0896905090233767,-0.027262213189840387,0.07473044740617857,0.45936236040305756,2011-09-26 13:08:26.109501990,1.139996814
49.010390716356774,8.436386863058146,113.44558436038828,0.010683765896077245,0.024436140987799483,-1.514505686172374,3.4184235342820064,-2.2834680972950334,8.426048354681566,-0.9739615875396772,-0.030747913499037587,-6.149945720365875,1.5224041708665406,8.341571570442753,0.25821598932582784,-6.149801378603638,9.91500840507736,-0.019519628170115686,-0.04545698449150162,-0.7700584837017382,-0.06417610337424196,0.3362576164159772,-0.12948728336696863,2011-09-26 13:08:26.219644264,1.250139088
49.005819318864894,8.422401360608339,114.63437725301503,0.053467482064215414,0.016313403324894546,-1.5851916381621742,-17.79630026961056,19.349260845326967,56.058332574492674,-0.056022896474716866,-0.05927804677818197,3.0400434939279544,1.424176587549839,8.824744012792998,-0.8010616195291984,-0.10282218636683473,9.702588419079156,0.006860682061316325,0.05512507952817674,2.474717215535062,0.027863111343572486,0.0746753731570915,0.24033260245004007,2011-09-26 13:08:26.319575106,1.350069930
49.00881890375945,8.431184359227164,113.60522374968134,0.2108367416969254,0.02118825347837123,2.714443221134406,27.58847302772344,-8.480278500367591,16.32712371727989,0.17275337549807734,-0.6940979722878057,-2.4510552094152693,0.2765027062350611,10.505548200291875,-1.3310487646097902,0.3758112954298598,8.397749404515835,0.0017639110642407184,-0.10763559164207528,-0.15457423190449437,0.004099376840414502,0.0649038625221211,0.4266972181773758,2011-09-26 13:08:26.419554627,1.450049451
49.00882166156932,8.427962899304699,112.057474968668,0.03151846208904252,0.006051020006448872,3.148603231551926,2.6105066748165844,23.67147146207256,24.852846538853612,0.08799789237614651,0.28150230552625455,-3.0556035005518183,4.959949139111665,5.330185195304657,-2.341486121920169,-0.37119724249775654,10.51424154355571,0.07457941501931638,0.0698162667551015,-0.027588268751107183,0.03340984676732671,-0.0066130597686760075,0.45283109578080655,2011-09-26 13:08:26.529544659,1.560039483
49.00604377846918,8.435431507856055,113.69697880465608,0.00990251296387578,0.005787597075029733,-1.1932621118755364,6.634955804801672,-8.212305252973394,77.1338005491902,0.24505690875224628,0.0579242785379521,-0.6815335726785535,0.4231472704525423,2.9140626686135267,-1.6202862282136108,-4.037613627967975,14.867033424020548,0.026346426489117454,0.09674363296679123,-0.05001214393693103,0.03587103737799694,-0.021539663433560362,-0.24362865379531048,2011-09-26 13:08:26.629560981,1.660055805
49.00987450621713,8.436337493813262,114.11494854341068,-0.2676871722793364,0.0019526682556825579,-0.4133413303058119,-24.137713532506382,18.40011348475934,19.794283723391175,1.710181605511041,-0.1293722647264236,3.3172959928009824,0.565414667631691,9.250937865828615,-2.3324235242605758,6.163986827267301,9.313873254698338,0.028628368099934173,0.0350616456545759,0.5091894753344551,0.01940241670072015,0.0378572198510852,0.22830318266261898,2011-09-26 13:08:26.729578420,1.760073244
49.008298625732785,8.435100672956214,118.58249894736672,-0.00335265887372177,-0.035339140246013576,3.234489006963583,-17.929540096061164,20.90971446589667,10.977014726224771,-0.15944417387565588,-0.13748034052557015,0.7127507467383983,-0.8516227158420208,11.931603793407593,-1.7468886225754456,3.166786245723019,14.96514792265426,-0.28120645046958803,-0.03914672026072836,-0.9699230245774518,-0.21205007412814372,-0.01610601820526125,0.09048354188136147,2011-09-26 13:08:26.839570600,1.870065424
49.00745812704409,8.429739463907481,113.91380705346555,0.08718308384810994,0.021722577863064543,6.057783078353817,-14.29094794964946,5.765109850031359,25.23553554222191,0.5139660380233412,-0.15627647406794093,-0.5425443261486709,-1.278943152347137,10.056816602204988,-0.1331854385310689,0.24647787363968238,10.142416934068898,0.059089044612102584,0.04657180730603941,-0.16596613196494645,-0.019395599797972275,-0.03519891320796915,-2.424272612515645,2011-09-26 13:08:26.939565443,1.970060267
49.0097846845103,8.412795408628035,115.2682552766459,0.07958888645409044,0.015612850462132635,-1.2419265468468093,1.4405994210201034,1.1085347786252662,13.081830849440152,0.3659644380612066,-0.31630410483436755,-2.5067906131562547,1.9288788375060064,10.071655697099784,10.077835852200733,-3.670515829755384,8.998337153673349,0.04823633399300549,-0.020820356416178916,-0.019727692873646542,-0.038093782909457106,-0.013840359280694714,0.24807680507552313,2011-09-26 13:08:27.039596881,2.070091705
49.01047523503574,8.4357226510643,118.26468057397476,0.029557885486478315,0.006603452952658495,-1.5785589827630697,-8.006237957308812,24.77146126491879,5.493684304746403,-0.0716733074882803,0.1440476456052801,-1.3795407318737267,9.993585548075904,9.955294647250819,-3.7836551781940475,0.0677652683402229,10.427794490251992,-0.06013666921866632,0.04949109794509975,0.5257262547765765,-0.027743460825229035,-0.04274599663099554,0.2432509787271785,2011-09-26 13:08:27.149571467,2.180066291
49.01065061934481,8.438936404094932,115.580219215849,0.06662928434699533,0.026949126548744116,-2.744830879786848,-2.982720427720264,-9.09892696393709,3.3326534406748785,-0.1750834603013658,0.09875046615077061,-1.5847937234888374,0.8607288446160885,9.081187159647511,-1.887956043576394,0.5391448625892691,7.733844815807239,-0.004594523349356519,0.006628928114625681,0.1208692927383357,0.015918862194020583,-0.007502591070147006,0.3165526996751792,2011-09-26 13:08:27.249578975,2.280073799
49.0070266869637,8.438147614304743,114.17922714751097,0.1765944825544702,0.020435950009562942,7.8462296357130805,8.8041736011862,-3.607949136663022,-0.9707209459101573,-1.7771623830958956,-0.06582299693223634,2.554005274131379,-1.4816900719964057,10.392615160894126,-16.65162181407633,0.977945065211653,9.432328306332362,0.01774482050394557,-0.0031250590740293637,-0.011900011030504677,-0.070277184750118,-0.0212868593754957,0.16390908948148405,2011-09-26 13:08:27.349607184,2.380102008
49.0091626606479,8.440438725972838,110.2332482501145,-0.1278880706192067,0.007892705863256884,0.14204012155435752,-8.773443450445168,5.153048111176789,25.114044901867324,0.24649543532222254,0.28044720770022197,-1.1656900345611871,0.6368020031433986,9.559761359878859,-0.4723073328129271,0.1541435056238793,12.25045444994143,0.01804461863783161,-0.012938400646637819,-0.1398603715148188,-0.017561903448741607,-0.055610072366211134,-0.33952019597556504,2011-09-26 13:08:27.459559770,2.490054594
49.00997093233767,8.438999913070944,112.32917858849196,0.07914655602843454,-0.003466896009430148,5.284620032919478,17.778126166978737,8.670185664355936,16.056412119107268,0.35475795184326514,-0.06693191235926252,-0.06918245627986479,2.0058152629709993,8.063179533550057,5.237471292872889,-2.7594965028428486,9.066336437454929,0.032664436036418,-0.02299402786422094,-0.3579188116370637,0.06251271787708461,-0.023042540592045038,-0.10697734642668152,2011-09-26 13:08:27.559577286,2.590072110
49.008832633499715,8.435631095259854,114.53137126346186,0.007282287202790096,-0.08406840282097017,0.5155805226055599,21.096456768411578,19.80539383677478,19.089309225907364,0.08025996810555289,-0.20510943381988328,2.068493288167592,-0.045747555677112306,7.152763789357106,-0.5972745517275401,0.38245987195098174,9.461688545048766,-0.0078021826413622875,-0.015814767854754275,0.08162421484624531,-0.023926532662595874,0.0468858001433108,-0.2731724281682618,2011-09-26 13:08:27.659582432,2.690077256
49.01415917989928,8.44956632781592,115.0575483705877,0.1311917641816325,-0.011073369510189638,-2.1327563084120973,-16.24921866871264,23.078613210354305,11.316518605417627,0.21452705383319814,-0.04224996587028634,1.1275687406563981,-2.9349599410347382,10.070204844104232,-0.05294860819473485,0.20244283074173633,10.978456904028086,0.04161133475201106,0.038421650601960775,-0.2367447012630301,-0.0008864568495293192,0.04330966467927135,0.34356901122443073,2011-09-26 13:08:27.769687986,2.800182810
49.00994659228468,8.44019033995375,114.42143011364192,0.032025741352866205,0.007617754777916043,-0.6662917601418187,-0.6446547953212072,2.520391630375056,5.055458900463917,-0.18354663630542956,-0.40510832379832445,2.876656042842216,1.3743622479750557,7.783207743721703,-11.260594165268499,1.783225245432482,9.675178826560806,0.08666890077269652,0.059436883955735056,0.12560647470377972,0.26046391339687514,-0.056085234024580224,0.7217078989428214,2011-09-26 13:08:27.869619886,2.900114710
49.00906512034914,8.439265932076259,114.18862440222857,0.0552147765255125,-0.07427194288439573,0.550776575853601,30.404964057979036,28.29552517998674,128.4091913254429,0.02746140248318229,-0.5374007732484729,1.3944516383179832,2.0540167384946946,9.273233305279602,-2.10054331636994,-0.00483673111963041,8.426969190801369,0.1543592605749965,0.06373056092895078,-0.32078735326033797,0.0052753397972823655,-0.041815947668503446,0.4138733327592496,2011-09-26 13:08:27.969608711,3.000103535
49.00953595664816,8.436296665945477,115.54106969246993,0.033249198936431315,-0.011741213060355749,-1.95603912959466,-7.662150790522842,18.580756288978762,33.23265109887453,-0.30041416368740176,0.04809309997488452,2.5187779424024885,-0.47455670039913755,14.968194994606424,1.5331693495724608,0.6312348419466146,9.11198364570706,-0.05189415945819034,-0.013205493470728753,-0.6088973405791624,-0.18135025001155397,0.07912757966148012,-1.3390982065320094,2011-09-26 13:08:28.079637615,3.110132439
49.009772869885715,8.439515092962917,114.63149672904784,-0.21046481604025224,-0.0015165153402316774,-0.03177443376559583,-12.11649602308147,11.963574909111733,-2.0364531274125177,0.04337357189585063,-0.45514831547873835,1.650303270265161,-0.5795014605399368,9.641239535776313,-0.17622845982703594,13.326074544768284,9.043912682158968,0.03617955612730812,0.17966337814139066,0.5831457931452104,0.05155435342708618,-0.4439945286720369,0.25723380530293527,2011-09-26 13:08:28.179826915,3.210321739
49.00331825286723,8.436191070718195,115.37782166808452,0.10829170537043943,0.028989090883829442,-2.633399068199013,-5.416442264260315,-6.064379476580912,0.24776965197467327,0.04642278238812808,-0.04014335627927976,-3.486323668714081,0.40749452200424885,9.94075315110957,0.031836278746106283,-0.26615042234368164,10.30182316961021,0.04155956176917579,-0.05649441231471509,0.24855023246400287,0.002626475360558115,0.034121739198078566,1.3424267762953883,2011-09-26 13:08:28.289665346,3.320160170
49.0085594255293,8.43526861862406,114.24411463624104,0.034619732410456246,0.011234807626314692,-1.0759558383827768,-11.53780594499594,-3.399985654112486,6.601220931869201,0.9454818099888256,-0.18664629215295042,-0.002480437779292466,-0.7589552542659546,9.63892120322357,4.5949381502887,1.039142838362791,10.421288358629791,-0.009954047842466233,0.30618282575510014,-0.33078604198265005,-0.06014278414962708,0.03454483762003573,0.24032626986608255,2011-09-26 13:08:28.389589105,3.420083929
49.01057156623226,8.439739571116252,111.63934458883534,0.06679420699809827,0.00297446598262474,-0.9496175897726422,4.343995615503696,5.379630727080066,8.14399405482257,-0.14648871831499902,-0.06893943168339402,0.1322076436133019,0.4257742374860337,9.91436375951443,-3.0184966411049934,-1.9425505646479948,13.408783435669825,0.03430287872983915,0.028961935437618175,0.1292266151478472,-0.36761833540865524,-0.07688868134065838,0.27674140838716027,2011-09-26 13:08:28.489682778,3.520177602
49.01017858929492,8.44257673093274,112.98308365981799,-0.03055964255200911,0.01797859486841657,0.5913155315051726,-8.351620110096961,3.3669706505991197,-15.488170372346453,0.6230914525502481,0.007293386350743392,1.2867945646219867,0.7705027707357127,8.550591837654496,3.337115440154024,0.9682602810464166,8.78496805353747,-0.03681387318197212,0.024359806941796378,0.2780403769496871,-0.09007493827402553,0.010538901889706177,0.03853361437146543,2011-09-26 13:08:28.599653315,3.630148139
49.02391728059246,8.442770662974654,116.30704602674469,0.30434167008879137,0.012360017216078434,-15.300347484575518,-0.4265523924209558,19.298574259931158,28.487128803511894,0.11823472450427672,0.003935382053342984,2.3744689315696066,0.3138239574288403,9.899433481011812,2.242797842432895,-0.0006070536567976156,11.006816615741082,0.19492203535637515,-0.07891612305757238,0.4062926347973575,0.046321702215892706,-0.056128005205663925,-0.06008940475106103,2011-09-26 13:08:28.699890211,3.730385035
49.00267496339915,8.434770711762008,114.16020789338651,0.07704903443287289,0.007092202127652908,-2.013277682862208,-2.0037890860182532,30.595733778808793,-0.7148102387205348,-0.6825634683339588,-0.1898404250611651,-2.3651132207981376,0.5642824469018631,10.036819197580135,-2.946420908325508,1.0157812144918634,8.318712453104837,-0.03548151055027267,0.08726702959526035,-0.22241250830254783,-0.01350995609968032,0.02643432569976291,0.7378123036738267,2011-09-26 13:08:28.799648576,3.830143400
49.008962980726324,8.442426139084741,114.73335094278362,0.0531393254507293,0.026774648410762027,3.8111357642299257,15.198899782477051,84.49252287652482,9.105832935404544,-0.36825930960339587,-0.2124339520179763,-1.5493979947722312,-1.3544747905107226,9.882018517200668,2.048401372563135,-1.309676944521156,7.304746785578253,0.04032515572743827,0.0322385291201492,0.12943503299275694,0.01992515316442965,-0.07671438817209199,-0.3881037556065602,2011-09-26 13:08:28.909669960,3.940164784
49.01700899074386,8.449588312570826,114.87390194182434,0.07145960530259571,-0.03532380340494659,-23.35502766822195,-14.649974481115539,24.67539904133932,-0.9669563942896726,2.6930770711897396,-1.7583480870153922,1.655887901485653,0.24350175424148326,10.359707145631218,-0.07345713231329115,-1.2768574462793283,9.866795447199499,0.10533113310894025,0.08701263181227666,0.6544989628326774,0.05558485250571512,-0.051703811629964305,-0.23603665973838373,2011-09-26 13:08:29.009645361,4.040140185
49.008622222070656,8.439073936950974,114.16114799741553,0.14850018246007235,0.009593017410021753,-6.0537296284629205,23.68413073278417,13.00322790270597,19.318830872880667,-0.19923951023820413,-0.1636131639271937,0.2608513485788616,-0.06887783799512354,9.190630702053049,-2.4210477418302987,0.6098590840877517,9.516969590019462,0.0014643124464756591,-0.0003129470955662893,-0.15984774311973654,-0.03519523778635414,0.05185822658571043,-3.426767858216987,2011-09-26 13:08:29.109658299,4.140153123
49.01422610655985,8.439196294986006,115.44822348357879,0.12228473525335153,0.008159937624315557,-0.3887774636212752,20.62039981362034,39.17364906983052,31.082264228407894,0.3251554400807739,0.052525035283763274,0.9582922816024484,-0.6009760003020883,9.844779116050047,-5.6272520420826275,-2.5053099012185123,10.290153543017965,0.23577370174893408,0.009171995862467846,-0.28117504533774046,0.02889866007015808,-0.06429487934173694,0.0907931926715555,2011-09-26 13:08:29.219797292,4.250292116
49.009958724535636,8.43936157677657,113.41337968242813,0.033970448206333784,0.0862974221156436,0.7469758121287466,5.109318451307725,24.916238052157038,11.821753832061635,-0.1434161745814545,-0.37380768643549567,0.21183287705760234,0.5192956676441368,9.581353761687211,4.240539446022763,-0.22997547397166043,8.257299460399377,-0.23808634838054296,-0.05519305573128658,0.04316127755445162,-0.2842658108213226,0.011131280640258442,-0.6631534362618778,2011-09-26 13:08:29.319722497,4.350217321
49.007641204011556,8.433967615840478,114.42056877042543,0.04040011516879387,0.027536702789898358,-0.9200262522704763,-4.8989857157257415,21.611049992556346,-35.8878976046085,1.1921198699875983,0.0075879160066571055,-2.359907838806618,5.462325316245511,10.001830034292329,7.982172949186412,7.259054692013574,9.070294385759869,-0.06337567986383276,0.018100487516213997,0.4230181382164009,0.058138953124912816,-0.017849205979630592,-0.054428252463285254,2011-09-26 13:08:29.419669975,4.450164799
49.009239981904706,8.436290498172815,114.8972153710063,0.0037628269968325787,0.012769764483389918,0.34239510449141675,-4.468209613523615,2.2812081673202407,-10.98239020907908,0.23469035628136675,-0.07084887163738163,0.7447468359901952,-1.614406981651565,4.929693770318243,-2.8977345549617213,-0.4570875311037398,9.195590413710445,-0.018087541363923876,0.17416360427473046,0.3740171060788977,0.01568109253201472,0.02645339849849951,-0.43836231386958735,2011-09-26 13:08:29.529674761,4.560169585
49.00818633963748,8.44330840750605,114.18238329310952,0.08129907712948771,-0.0766075841380851,-1.4676658744392987,-11.85911690095191,8.330102373269893,29.08466862503757,1.3950439640530246,-0.21836446140337035,6.942036956771311,-2.355765101519562,9.013521077337312,-23.144562883844447,-0.6628982246138881,11.043746307686101,-0.1593114014983094,0.04169333697154244,-0.25213950409634966,0.03688944492119018,-0.036544628753249264,0.26560364079146026,2011-09-26 13:08:29.629695643,4.660190467
49.007399159369626,8.441282553359768,115.35747701040916,0.13556433713183647,0.0045616832352800805,2.4556017553636704,-2.6164980590826232,16.64949043328901,1.5841948096267409,0.1768181572413275,-0.02944863679074823,1.180517262139389,1.0784784282780207,10.5924970738457,-1.1487920728337926,-2.9270430125965468,9.193951065263253,0.0014118857404063507,0.04963159255062481,0.19645326719902093,0.016645503711232704,-0.027451933443203874,-0.02868712353170305,2011-09-26 13:08:29.729713462,4.760208286
49.008648028429256,8.440719298231368,106.07910019440202,0.08870678836099409,0.0187085458787049,-1.8061540397929674,10.142293685726758,16.774589530762483,11.042982093933128,0.1377088002300877,-0.1151987813452949,5.275123158737698,-0.028923797394642126,9.575910130420679,1.7420009775934637,-2.762864763299281,10.148775518521163,0.07267067227329792,-0.05461033510284134,0.912575864705359,0.07659816556727012,0.4421611782890856,-0.10807234939386573,2011-09-26 13:08:29.839734067,4.870228891
49.0072623658882,8.441493938640757,109.98002450163405,0.3117202619473458,0.021614967463095505,-0.7058091616948927,-0.5262189355377647,50.57021365136901,15.361579554876794,0.11148867718972114,-0.2085077550447814,-2.1757162462209223,16.622101485910875,9.092022981063074,-3.3618720605868933,0.6526237379793446,10.347620065248385,-0.05013908280357421,-0.2403638224526501,-0.2178938927635618,0.06355673385948271,-0.1251724110172852,-0.0581316438468957,2011-09-26 13:08:29.939674898,4.970169722
49.009545576157095,8.442306276977636,113.73821562702857,0.18783121697799063,-0.0021904466532611166,-1.8393434405720992,6.661443314388598,4.967187990179632,15.138968851371551,-0.45374905495367834,-0.08470067945898187,3.0471678017996546,3.60026557169983,9.62376467752816,-2.932444284492082,0.781432878809563,10.09721766866638,0.031843319713187664,-0.012613503634508881,1.39488496409582,-0.05125538649437343,0.018952276955262144,0.03836436400445713,2011-09-26 13:08:30.039737111,5.070231935
49.00893819046676,8.433902610540734,114.15605863700773,0.06026268211590254,0.01827403314932508,1.169691793034318,-10.016743534822812,-3.096805664288489,12.006881212796596,0.43160769435502255,-0.12977262732427303,-0.9921977783153649,0.7228846795448565,10.726777654672288,0.8907897217447761,1.9853501083527039,10.86593412610668,-0.031000626628478207,0.011864415508801133,0.5060645526858726,0.004950262011760648,-0.011232729635769097,0.38509212193905196,2011-09-26 13:08:30.149705771,5.180200595
49.01633736242185,8.441865471248471,114.81109245481571,0.06235128148313263,0.00990028318683964,-19.688653341873476,0.7013858470260739,10.484689926904856,24.85794838572346,0.3874276220250042,-0.02856719903242214,-4.06524751542997,0.9152070892680536,10.101721498802343,-2.2497976638744444,0.7392571763140259,9.77508117415472,0.011693914917686083,-0.006602264249529997,-0.15442354657414156,-0.010923608919780012,0.08073087485468596,2.1175539060446074,2011-09-26 13:08:30.249704622,5.280199446
49.009271897181144,8.437183938317608,115.08116438946463,0.031129930608350967,-0.0033895380974854096,0.3545274960979352,28.217253041382182,12.699687209218297,9.013339879215842,0.09915981808399538,-0.0849318295206276,3.060839708161275,1.3840787765865112,14.501316007464455,-0.49987506790981184,-0.2218380903989407,9.8577663429203,0.1444441139773207,0.08682768519397599,-0.5196032190603391,0.06056962163098896,-0.017256289301061066,4.378311432937822,2011-09-26 13:08:30.349716446,5.380211270
49.008514222226445,8.439724582020542,115.34763093281244,0.11220780009485307,0.026469773654636385,-1.1539859774024128,8.654816095122309,-5.160362006831935,17.054151309113816,-0.06152964655212942,0.12707307001311055,-0.5347044889509653,1.2871509503939,9.867405968410777,-0.5283034067663787,0.17579493629418552,9.78886381171855,0.008277841002603599,-0.03896380701661191,0.0027043079689981313,-0.09552155910356057,-0.04706430042764416,-0.2111391905958461,2011-09-26 13:08:30.459701702,5.490196526
49.00419643370938,8.44031802545394,114.83848273800331,0.06720180011203275,0.018674693640894274,-3.6731339671679275,-11.976076052771278,27.51015887158976,47.30863842416344,0.49285724306691603,-0.002677842295100444,0.5006655301242506,0.17469059648853524,9.421082431044928,-1.0643108588406511,-11.375331804344444,9.499458289453425,-0.01935846442684256,-0.0261018361674942,0.24230004270571687,-0.0959303278208861,0.06113892615259882,-0.15267338369114822,2011-09-26 13:08:30.559711102,5.590205926
49.00983544208835,8.440985237306256,113.83000495036362,0.07173015514606321,0.010737917255183308,0.7065329107520836,-17.32592871851026,5.973347208522629,42.010967229297535,0.026779996410625645,0.009786823738390273,3.8290136855000942,-1.3290629261603863,8.037850583593125,3.38123021434881,0.7653253202331369,9.683241591988939,-0.0257752906625505,-0.07055453360959642,-0.6306772890804623,0.08751804802054193,0.036664940098863105,0.10443665185695507,2011-09-26 13:08:30.669824158,5.700318982
49.004805738024096,8.444035306968072,114.14554296016621,0.1359442982704926,0.032740807471307636,-2.5700328684052876,-28.941229466330817,0.6179966407737645,4.193687868728724,0.29714113345531623,-0.1519166604337947,-2.9082823913816838,1.9500981974027778,9.849554045331487,1.0863061982733258,-2.0399498185822265,10.07688284124843,0.034244913406187676,0.07445244699905773,-0.08539409630137776,0.007855259697159127,0.07871111864271688,0.1739119677797322,2011-09-26 13:08:30.769841203,5.800336027
49.00937369872823,8.441183762264874,113.33606419667035,0.07931183314870592,0.022276790236561046,-0.5558137704640183,-29.1654258385936,4.753566122474937,37.795952839663705,0.4144069011288446,-0.20494110473008992,-0.172252716538107,2.44535808067992,9.545443117725313,4.68375790459729,-0.5900141931946482,9.315886354509573,0.006187258400114017,0.06574226289133923,-0.1301300282841355,0.02494983717996841,-0.062333563628745425,-0.937697527548614,2011-09-26 13:08:30.869692259,5.900187083
49.011273817871285,8.437782027618129,114.4101852972362,0.41014906853991234,0.011248549191959415,-1.0883764850386652,-10.152221032869903,24.52505422649718,9.419394481983739,0.34614941085498374,-0.3928042842871165,-2.276223605065559,16.58572173844928,9.25033119786922,-11.23701016553634,1.8773316689197137,11.813533714531065,0.004806475172227664,0.0038994802954766174,1.8693039487060807,0.006552224621294981,-0.004046085626603214,-0.33629658766747467,2011-09-26 13:08:30.969721589,6.000216413
49.010764460107545,8.434971806044091,115.38858712020611,0.011054184914376639,0.01766568401314831,7.7003306197976125,-9.601167247716779,30.463744283119546,23.718442750761618,0.39913249076323143,-0.1832519972499834,-0.6154344007310156,-0.16047397479977588,9.928364149419528,-4.993304245775025,-0.051777304055576456,5.116345234263537,0.09914121895060102,-0.04228799673893704,-0.1982778762674075,-0.034985172544549706,-0.09829896974031137,1.2759520737963181,2011-09-26 13:08:31.079751529,6.110246353
49.010907439568186,8.421627602305382,114.59773386331133,0.04764463212715342,0.010910756431284892,1.2981979149331218,-12.042524795479935,25.033560237438962,10.567460804867698,0.30301079089010863,0.0024818706184644435,1.7141780213256022,-0.35322263510074836,9.32463021245583,-4.647890262159736,-1.1117826175538001,9.864040728363896,0.015270438220671208,0.06297462269641643,0.3112083124439283,-0.1665531744646064,0.014454600151039436,0.3183934038153,2011-09-26 13:08:31.179942239,6.210437063
49.009603027396395,8.438127507241772,118.83676042756616,0.14715988992858575,0.021157232423243973,-2.1031249720332794,-0.4775959631232194,9.223685405777925,-15.756859542358695,0.31528296238147624,-0.11748203373491506,22.936476373286585,-1.9163198884602397,11.878834907080458,3.6116696190838615,0.21194919293860084,10.433120789371547,0.04137372796216619,0.08595698743733053,-0.2353264946789179,-0.04698099084040334,0.05912269418250922,-0.032493152753308566,2011-09-26 13:08:31.279800507,6.310295331
49.0034196596173,8.43208925095185,114.95598327678294,0.0345453156148719,0.008241907712788541,-5.365133820961988,-28.32152323140175,2.9455121440887044,36.60604523859362,0.08886510647642279,-0.13485482477532326,-0.36950608996591744,-3.8602343791393268,9.350058606249908,4.062687626279839,3.6603410025566805,9.804073617842919,-0.026609226631805722,-0.03674657777911942,0.33577663550338976,-0.10903521522503926,-0.058692707907392234,-0.2858699789133253,2011-09-26 13:08:31.389789958,6.420284782
49.00802977906944,8.469837120191796,113.92471102999477,0.06395104973511087,0.00979363278336505,0.8493629391829856,-28.29249749992606,26.662268833702306,71.91731005899928,-0.7137491395202069,0.029106935984824306,3.669945217106404,0.4078018373172707,9.405095019698194,0.6098982954843224,1.1291373618486493,8.108942754333627,-0.04854276165948646,-0.0028610794994220912,0.5224020654687673,-0.08863165947445911,-0.024033431868424986,-0.14340966852653989,2011-09-26 13:08:31.489754996,6.520249820
49.008046943250115,8.436972592211704,112.49021526913258,0.07096271958555081,-0.008592232279765601,0.40715123225776884,-8.908444921557649,74.503430467589,23.253326533598905,0.2470071067282965,-0.08899950250185228,0.8212952838858273,0.9777387130290374,7.899729593725382,0.48400007160605363,-0.756598128349117,11.169980088868616,-0.05595113742013458,-0.2564831170189389,0.40971836993840133,0.008051430660521882,-0.0451091318655404,0.06515158034437013,2011-09-26 13:08:31.589753322,6.620248146
49.01017450400538,8.428293981496958,114.66275417700346,0.05728755513572714,0.011078416233446797,-1.113060711758406,8.638698543487187,27.580726714517294,17.815526329156235,0.09707384526904683,-0.05614540915045016,-2.999776930365153,1.9191087960650717,9.412897842267043,-0.09462219321989572,0.8892649613193033,10.610173817215559,0.007859970747897366,0.08464180913820046,-0.16166928755902557,0.05419178756727597,-0.02939344569843282,0.9020444267046214,2011-09-26 13:08:31.700053025,6.730547849
49.00827948985841,8.435871677533147,114.70034806654257,-0.04351165834833173,0.025362242716244814,-2.9085524593934284,116.16087668589246,11.252520126146157,-38.38566178099589,0.30424736091372667,0.104778423793679,3.0824133406146177,1.4217470962373036,9.354456245923634,1.558066522106343,0.8202763997727465,9.629701050661975,-0.06223497994043906,-0.06232155219063255,0.2520310189751426,-0.0725772412792334,-0.11014860798174395,-0.6202797870979448,2011-09-26 13:08:31.799791743,6.830286567
49.00868959845672,8.438333903141295,115.07456846404692,-0.027967437280367803,-0.006799601384561554,-1.760798718688036,3.033263470684108,24.257776160710414,14.849968034296998,-0.09913711781265708,-0.1464975754936507,-2.2893156088597277,1.3916314191300887,8.369246424814449,0.5506709920145318,-0.2268323858611983,9.138821750106509,-0.028950180065134903,-0.050059554331832706,-0.03464489191124104,-0.21399006097846757,0.008238608083714379,0.6554280563837851,2011-09-26 13:08:31.899777947,6.930272771
49.0101582726278,8.43189502698174,114.72936696132629,-0.011433006347400007,-0.006437608056032667,1.0423405732351572,4.9192955694063425,8.538426193546211,5.203911861809278,0.1352049609212832,0.01715519624489245,22.051351108869806,2.6409986348380117,9.787178593573504,21.26613090704055,-1.3564185979280536,11.32467655209255,0.32303582189163094,-0.025894379836200465,-0.13397315245759303,-0.017701702787433327,-0.07783469560417382,0.12462622358338013,2011-09-26 13:08:32.009790796,7.040285620
49.007855617400395,8.457785639458974,115.61793819607871,0.027463110875576305,0.005990587117173392,-4.118758629635733,-18.34483776753704,11.157964591780866,6.663099747722114,0.17071794747111863,-0.03572793097685292,-0.5999373594593853,1.6155543961992063,10.254806999152109,-1.0094525469595752,1.8255136559441232,5.840111676571457,-0.055347460541932736,0.046925578111242136,-0.5032026857422583,0.1851320648042757,-0.07181722738743083,-0.2660150384283203,2011-09-26 13:08:32.109789775,7.140284599
49.008592592057404,8.440788064520175,113.44439647294017,0.05732140457935719,0.01597821574013803,0.11713893910289785,-15.55603772449397,5.991597429013012,-19.71919654175413,0.2551051815311934,-0.5041233758248036,-3.61409624255146,1.610863161084067,10.659958093217996,-0.4941591880200529,0.008692025379269913,9.899185643330156,0.11049848935803198,-0.030983421644815844,-0.2922864904694975,0.03140200085561123,-0.032658199612689925,-0.7481164908424422,2011-09-26 13:08:32.210031079,7.240525903
49.00879913859647,8.433356009200844,114.49837794120775,0.23888082013391793,0.009239461150899712,0.25666061135496465,-2.7980329606372916,15.112948414131782,-46.56034862460854,-0.06799333341452743,0.055792540546073736,-1.09059117315736,-12.690655044136358,9.867721318665263,-4.829324099992307,0.11808720508106035,9.438747946000625,-0.03243661200416504,-0.08039610030245194,0.4989530872704953,-0.2076904454248395,0.018249942070888744,-0.23906437671789205,2011-09-26 13:08:32.319868406,7.350363230
49.01026567698237,8.441428693365303,113.48514654094869,0.03533657448939328,0.004792282615471927,3.3988134242401244,-0.9975240616832624,14.586001007265821,9.750832649800689,0.4378871717115985,-0.03853239396892365,-0.6505030319988399,0.5040471527193906,11.986181527903488,5.054835385824007,-14.824937711730618,7.956728380583963,-0.010465168590340534,0.022285470268855544,-0.3064289592876555,0.004008226389282982,0.05631967666530043,0.11631030430397596,2011-09-26 13:08:32.419814584,7.450309408
49.013998263946874,8.443209268977084,114.83231480852045,0.06266780810607331,0.014693993123820505,-1.2479820855349755,-20.271807948408608,21.3502517671376,9.978298940566676,0.3349257156076155,-0.0717190246654276,0.06047678821310373,-5.703414669115229,13.013550206966427,1.1037701677614564,0.7370960730975121,10.291366472054024,-0.093817926657165,0.026573955451538407,0.15824334366598883,-0.024629577286592538,0.19672144740211295,0.13136921641579102,2011-09-26 13:08:32.529781144,7.560275968
49.011203351913444,8.437446793961078,114.72478275509842,0.1866200302199669,0.02032110504435518,6.5234515866085445,4.789937826301234,33.97000791842662,16.06305238200996,0.3242155592845254,-0.1946039789106981,1.0601428980562924,0.09128091843343367,8.60654141480962,-2.4243326702439973,-0.9567724689472404,6.418384028599231,0.0014579069588153415,0.06180798731224884,0.26641896638947293,-0.022604514842988758,-0.017022150277934512,0.12524612711578076,2011-09-26 13:08:32.629829035,7.660323859
49.00885642381949,8.43980191727968,115.01031169927731,0.039998221230744015,0.006901974421901197,-1.387372062535465,-8.041676711560447,31.933867419114385,24.98184762524739,0.1328690469305219,-0.4438402448858531,-1.1235574890092082,2.3494783363280023,13.914348876365647,0.36925018520790565,0.5326683633362175,9.95641503001411,0.01851690403905235,-0.052285061772024896,0.12614102926646065,0.018366887640104024,0.036267262528149706,0.004725949538338775,2011-09-26 13:08:32.729850821,7.760345645
49.01090206724697,8.434331469779906,114.2285415266824,-0.029517229782769334,0.016161091772153316,-3.168368381072758,6.049491821521697,15.343387006179347,117.88120507351435,0.40835704971185366,-0.1174511478240525,-0.7719784994149814,-1.8979820488931893,8.240157817342833,0.8557739862357918,0.176427555812217,8.501434394872845,0.08015935820846441,0.04883110729725033,-1.8553556238735958,0.08803601395921162,0.07980400600244891,0.02088593832199561,2011-09-26 13:08:32.839790156,7.870284980
49.01016292282411,8.436471874067957,113.97792342245572,0.061848449656057354,0.024038231352630023,-1.5678683587891902,0.7071698142349265,5.875675590952045,10.81584969156344,0.2665378864276024,-0.12204043658277887,-4.201294815221781,2.238725259884644,15.244889417521932,-4.107460234564247,-3.0780765893904904,8.95097360591216,-0.043521940314115035,-0.049104912274510484,0.48425855911809484,0.3128558230922909,0.007342437479090087,-1.4428213004815897,2011-09-26 13:08:32.939824302,7.970319126
49.01183334319087,8.416335956846192,114.34119939912185,0.015730887675339835,-0.013452690225209158,-1.0296197185585265,-12.817227616194447,15.312135447368366,6.156630834738715,0.5285771082072737,0.05983027270769943,-0.3002712364987187,0.18096898204458772,9.458623754826665,1.3682189470901274,0.7582415717381009,12.282944293847171,-0.04441870105799449,-0.02800531964203804,0.6261422293710555,-0.002224377495196827,0.03521163493475314,-0.07931606375544295,2011-09-26 13:08:33.039846462,8.070341286
49.006168411859505,8.434678287729433,113.6623108499385,0.017297229306269146,0.018548068868510903,-2.8893980788460563,-12.168104467607304,1.2115021384723228,6.815930551034212,1.9940682267887602,-0.20344832847683203,-3.6777641245541166,1.0330454219718344,13.083247820915272,-2.4975726761355497,-2.0861395000369707,9.221579869892128,-0.032953134665873136,-0.3013901339529941,0.026785199875981203,-0.11471345538459615,0.13191968269027354,0.23182091165273233,2011-09-26 13:08:33.149834099,8.180328923
49.00255353900036,8.431075612148268,114.54354954127011,0.09377360459348014,-0.09361654693891773,-0.6880757040773386,16.39425799245547,10.404678831019043,30.57591096178978,0.24398547992195957,-0.2054022213113459,-4.181469946664946,1.0629821486585986,9.470281093432655,-5.088833921752124,-2.5466905175008363,10.161763592646208,0.1021628612974846,-0.030955921961264822,0.5928095220160343,-0.011160385360387593,0.025669534004609914,0.7827254675056433,2011-09-26 13:08:33.249821369,8.280316193
49.009357284331855,8.437722269259778,115.48081390815847,0.09205421147283283,-0.04947636789431695,-13.819652648757872,12.529381287620627,16.712382288569984,20.109207935634338,0.10122502443992219,-0.28816507817108766,0.3973479810225161,1.0909210178198614,9.966478628077926,-2.8427376753055635,-1.7931658825338364,10.13984240221013,-0.03012530591942901,0.010560126425635526,0.13469112150301188,-0.001738989955327029,0.08523080750162262,0.10341567382592659,2011-09-26 13:08:33.349822981,8.380317805
49.0097399590637,8.433956390560237,114.48282162426565,0.00890943509267346,0.011057222911589656,0.12051321656542133,7.899336154637844,-23.849715804157544,11.482438413126761,0.5296927010517398,0.6000167231647011,-3.8564956800831296,2.0672461345329216,10.229200079003466,6.84632488359913,0.4171002831597557,9.559731770665772,-0.11393508556201762,0.17603007023176792,-0.45002096086950605,-0.01589954139034934,-0.04457377879295067,-0.2167188777384139,2011-09-26 13:08:33.459804761,8.490299585
49.008214715318935,8.438291238241748,115.15616734325506,0.028857376887127712,0.001320330290872928,-0.2016356107796597,10.109080357060554,-12.042102083533397,4.282162124385235,0.5660299566521042,-0.037315999782741825,1.249495754642413,0.7841103414692665,9.979728843280176,-4.080338880395926,0.2858346360302571,10.71355936597963,0.06281949082539773,0.012483958665222589,-3.784096724962014,0.04640345133396332,0.07333975454708046,-0.345166147122612,2011-09-26 13:08:33.559804725,8.590299549
49.00913164479439,8.456001102865875,115.04856454498267,0.02496788580883231,0.029312724693257835,0.16578163166598145,5.42439662030888,-9.640845530408695,20.60574954616203,0.2918465785032474,-0.019913245188399542,-4.079913702964066,-0.8173761502734425,10.350287901822794,-3.330880076771875,-0.14175453187200598,9.715408908309279,0.0011162228575427383,0.02837778635161803,-0.09522453755797833,0.13423064697626422,0.034459676518253296,0.2835145267445021,2011-09-26 13:08:33.659843956,8.690338780
49.00911990497996,8.44154163275832,114.43916046831774,0.06486031423965219,0.0029388669213776357,0.7699781286313825,0.9662750841348231,19.43634921451322,33.11186549591036,0.03255382556420644,-0.09702685135878084,-0.7238701318952224,3.3686732527899568,9.045872957205352,-2.320683421640811,1.5475232166796355,8.5996512552703,0.0978308963978585,-0.04206296987070621,-0.1351933803570445,0.02978128197957373,-0.007251814231608955,-0.303346042559908,2011-09-26 13:08:33.769867319,8.800362143
49.009588603464366,8.439131537571292,114.40703446596618,0.08314171252881562,-0.007469895745160247,-2.4174416711107654,9.121940840898452,11.480317208798855,27.45508292699745,1.4038599273279384,-0.17133351609662184,4.0244946881782395,-1.103086107149365,12.136651178900374,0.9337530512222589,0.304269636818926,9.99091424729223,0.010554509141992295,-0.0007127850822257289,0.08077048838653533,-0.14799632998321005,0.040275333105384704,-0.002525261372809298,2011-09-26 13:08:33.869857978,8.900352802
49.00812606797225,8.422564920323643,113.34233401674595,0.07543512078962082,0.11621758498740775,-0.35367536094296015,-9.489589920765466,6.685370355184634,-1.9272491791891255,-0.07818745824059065,0.05586809885254726,-2.1050688122709196,-2.4301359158666638,10.869568566200808,-2.957065288037548,-8.23669266916342,8.936897489981797,0.035070496758444265,-0.01851138459603554,-0.06897254033724201,-0.024256440606001455,0.028376509545268186,3.1022660282861807,2011-09-26 13:08:33.969850605,9.000345429
49.0098627929763,8.441790967392443,114.6937461060263,0.055045507534655716,0.004135578388695336,-1.8443538426286297,6.76404104977634,2.8963335526244567,8.61337210985263,0.13230766307495667,-0.3416556750436261,-0.5001266134010031,0.3324191595503984,8.49139287365684,-2.420978281878147,1.987258145144987,12.710718042338303,0.026237698513608878,0.022316273420702623,0.03545729880597125,-0.012199488222784445,-0.033354584349152956,0.13721266437441407,2011-09-26 13:08:34.079875512,9.110370336
49.00991163605862,8.430477950111014,114.49962768340195,-0.009143066485123023,0.01691406632807455,7.786122992950072,18.89608727494699,-10.047225908979664,7.048117136043724,0.14609280316374862,-0.1542164604836398,1.5516498437152506,-3.2018256381368757,8.580432785865042,-2.251285364387448,1.711976709373945,10.596788062586626,0.020520296088212882,0.017076872095299702,0.12938062306115738,0.41031597370093376,-0.00881343036620393,-0.12489334414797512,2011-09-26 13:08:34.179857906,9.210352730
49.00570348902752,8.463321649870325,113.82445814030488,0.018186338402893742,0.013499882858357787,22.88892331006943,-15.949870402853659,1.121156093450585,-10.089592858629564,0.2584336018626251,-0.10805621688157074,-1.7698134227022035,-0.15643961920123084,8.42446637215088,4.409020722341353,0.5505603445195609,9.64398044674783,0.031075447769326175,-0.011192547538336314,-0.25287730387344104,-0.022848754766625186,0.11696069957968494,-0.16819811115016933,2011-09-26 13:08:34.289906739,9.320401563
49.00754797537717,8.441566395547321,114.20598304133237,0.13982056072880109,0.023564659203480644,16.610535901131367,24.78766426923786,17.572171357364347,-0.4288868426548973,0.48224094697288195,-0.0005325388987836577,-1.7739725640006534,1.0731531581023341,9.887454698532492,4.04922928795899,-3.4634856708914428,10.614347146344901,0.02974372434965607,0.007785443802711796,0.27170824106710995,-0.06269250560534201,-0.03812610247396728,-0.19162135440787298,2011-09-26 13:08:34.389842274,9.420337098
49.011240427325134,8.437095353768985,114.42767915469899,0.18805730712955243,-0.003101174791446887,-4.826630687672588,13.058187288854132,1.5268089024075895,-1.7539052137572178,-1.565668383043657,-0.2111680953991916,7.023854132578381,1.0272552507670507,9.895926032484962,5.119208650937416,1.8259112121271626,10.18046246174776,-0.05950965582132373,-0.02706531263338792,-0.18093583648558376,-0.017553499394554542,0.0341606424427153,0.011291691436934946,2011-09-26 13:08:34.489878350,9.520373174
49.008916972848255,8.434254612636026,114.5919579185616,0.012945315712554667,0.01913372599927073,0.497525043243105,-5.129002248939743,21.819587395688508,5.020135493597181,0.2058442056879471,-0.3490634387673539,-0.9921133128606177,0.5706433976328271,10.00898998899165,1.553899234703129,1.7625624345375748,10.619489631400617,0.1485866041786263,0.09944548357386951,0.5618258389625292,-0.014457899404860848,0.01488459015803152,-0.20176255770378013,2011-09-26 13:08:34.599907497,9.630402321
49.01000327822799,8.433598783526705,114.49051034900104,0.11761842301410534,0.007613131298864691,3.4066948450011996,9.34595861009311,7.7687675054651155,8.98345998676998,0.34138574092504154,0.1359189339701225,-5.553706003039239,-1.296788019300973,9.245682519696524,1.7948071410591357,1.822963043971606,9.529674876088873,-0.0804522914927019,-0.04566131407091083,0.3511267563586419,-0.04008859995567989,0.011117591293854208,0.6872454997483769,2011-09-26 13:08:34.700042032,9.730536856
49.00862159020981,8.438846397770943,115.5791082420547,0.10043225126070776,0.0080083720309571,-20.100005045303323,2.153883037628851,-9.720073992712592,22.078012090892678,0.2306478138210844,0.08136377066010447,-4.687104379995194,3.094394879659289,10.273173236022119,1.9760016780592362,-6.142910670721079,10.127676942865499,0.010270133198509009,0.009218175837150953,-1.5549583783070384,-0.0009112813248563474,0.04424053074292579,0.012278873403663048,2011-09-26 13:08:34.799900841,9.830395665
49.01074440079058,8.437492713136692,112.99228278310169,0.10329068735067551,0.02048762998112784,1.0494899333659138,35.457171101560704,21.96528498436963,-49.518153249110085,-0.09967819122850577,0.07484522601757129,1.6887231924793378,-1.306126569581239,9.737679800808975,-26.33017179889335,-6.687476170706431,9.84140462066024,0.005864165400384395,-0.03601459380508493,-0.42852206138303794,-0.0009713511875784108,-0.07343801799204067,-0.4147677522068625,2011-09-26 13:08:34.909920500,9.940415324
49.00931676123812,8.438268905841829,113.13143928071771,0.001311753533172838,-0.05336381848757385,-1.8155264608847959,-46.46369546451859,2.3842785771005506,12.412600502160057,0.29268699553735755,0.06467096823889047,-17.051217182490635,-2.0724708725563086,10.005605163612126,-11.522466464242134,1.8341226594388538,9.64670936988659,0.027880834287952735,0.010047531017148902,-0.4344597241942504,-0.46970170874407124,0.024675040163447723,-1.0613618850216906,2011-09-26 13:08:35.009910526,10.040405350
49.00733886567611,8.4398878850135,115.00485364374268,0.05771665661624993,0.02664732843773617,-0.041071864776557165,3.457311248663735,9.71648215312263,-26.866604541984458,-0.1442265533668354,0.10395252872404342,-0.4855269662738476,1.0298837593008945,9.563160842302276,-14.422919761624062,7.458999410536221,9.128126151893257,0.019159107680720003,0.037195473336041174,0.43316895929317883,0.042123733675296766,0.0016623098175875704,0.572064810701422,2011-09-26 13:08:35.109899747,10.140394571
49.00904164426639,8.440085396230609,108.72710666696283,0.04669260593193056,-0.012624822110061523,9.579363106415995,-0.514591288653206,12.896669720848937,9.705628148265669,0.16979275260102492,0.43453516030367173,-8.677734863694091,-0.8211575150423523,10.375498834701073,1.9993826005484518,2.289365427392769,9.899173323406412,0.058756948885394136,0.009055323837442453,0.08841357995739225,-6.612166174793307e-05,-0.020584019037881107,-0.1140357620413829,2011-09-26 13:08:35.220073934,10.250568758
49.00972013997303,8.43533591488302,113.86170980637773,0.07285509673962337,0.01733682598744941,-1.0986844384047787,-31.05873286770739,11.252621482461876,0.01816785733593207,0.526241523062601,-0.07196612843075632,-0.14676483691696368,0.934969231727706,9.347204459866756,-1.7974572851291486,0.8116720096573388,9.11865860845512,-0.06742756938288913,0.0057941092624688734,-0.6955983220331458,-0.05972490179112053,0.007685012418128651,0.08846669611825865,2011-09-26 13:08:35.319948450,10.350443274
49.00697326753012,8.43695547204636,113.62953287138285,0.004678918520569432,0.03262554130038141,2.190492169382228,-9.602602055151607,-27.69794264389504,15.458934351344013,0.1493151081191032,0.027605850973527815,-5.452516234231497,-0.4126251254486871,8.728309899719797,-0.02434597959953111,-0.7398480202903578,9.356815447572947,0.025239156859984957,-0.09062983981525871,-0.5735212844046961,-0.004747274084493262,-0.03000227640748665,0.2051268794183666,2011-09-26 13:08:35.419895503,10.450390327
49.009974139260315,8.437928526983223,117.222450579909,0.24721397697668088,0.004561019862116488,-1.3890512036676466,10.424609366817743,-0.08852312150215091,-4.477239724958965,2.0411880889602303,-0.16290231868883231,0.8369654479216573,-0.674086215607891,10.077844762099112,9.6176106277868,-6.132992329335469,9.866349405970706,-0.009053371890216842,-0.054683205330417706,-0.4841168608076199,-0.24932714655080962,-0.057727020955392186,0.08161753088142693,2011-09-26 13:08:35.529921120,10.560415944
49.01068454381704,8.43218356141556,115.19849756664964,0.11505926346933922,-0.000989637442684382,1.9497239307968894,-11.90826024807382,83.97226082373254,-5.1297100497027,0.6690068583301558,0.05766656901581108,0.7013067099323336,-5.173365509611876,9.691836920525404,-3.7098487606496344,-2.1124291702619633,10.115873952625993,-0.4215742000819067,0.29743123029084906,-0.3487477607141306,-0.016052624051629112,-0.020506486772865564,-2.4756461449701828,2011-09-26 13:08:35.629929612,10.660424436
49.00929269734328,8.441180663221916,114.3189260542998,0.0812488565230802,0.00686044200445226,1.0057781010333775,-156.73523836572318,12.507899114227072,-10.909798718820618,0.15751630014922055,0.01631222507720957,-2.5066954109565875,1.5825008126300204,10.526554753825513,-0.42993386345354495,0.36861201902102614,9.17621303023814,-0.022057483833096442,0.05849562030024385,0.039092297669483786,-0.20376359457847862,-0.02371484896683957,-0.34119085073426203,2011-09-26 13:08:35.729936762,10.760431586
49.00969536900582,8.43668508317719,113.94704457552098,0.12524298538528486,0.012674056954792392,-3.8783098331198205,-3.5838654932978504,-7.197106554137537,3.6795014711611946,0.3352646038285236,-0.1217815233709896,13.84401445968659,0.22039728268752223,9.675318421129681,2.6783307981671634,0.39255124955837606,11.81040617894854,-0.04682171353519254,0.046169155770231514,0.10380170474929705,-0.02282025799640897,0.12245301365627836,-0.7021818634340721,2011-09-26 13:08:35.839949374,10.870444198
49.007114458272525,8.43589099738875,114.37247298803466,0.03638727891910121,0.015181192001266103,0.778980734937868,0.8365478216821942,-9.70044760280463,30.679905919780424,0.3112005271414323,-0.2137182036077137,-4.625089921875736,2.947122663601231,9.110613161889543,-1.2927573396572074,-0.3169329222719257,9.910450885456937,-0.026413432597693822,0.064909473076925,0.007951148895674925,-0.0856759292536799,0.06359717205050637,-1.222791273185157,2011-09-26 13:08:35.939908156,10.970402980
49.007530364911176,8.436494150086965,113.77545422796692,-0.28410085351545944,0.01756589566197759,1.6788804427709725,-16.690916167968766,-63.41000605502582,48.44804406006051,0.4125216660372413,0.08105959248807977,13.190234950320534,-5.424994463864304,9.884052474201049,1.7503299803932706,-1.7410827090824126,10.477531213393389,-0.03557409205860794,-0.03413582813285383,0.4352886399619137,0.07055867896721031,0.3245879532652284,-0.27009314568777415,2011-09-26 13:08:36.039973117,11.070467941
49.00801997005939,8.451134792692226,114.81709670622655,-0.01528814824987481,-0.019502391185911294,-1.0212221302425701,-4.803790316240202,-5.919481434465293,16.06646678152788,0.19992945104650006,0.03171648626206492,-0.8753415374765522,0.17952631299837155,10.12922347731423,-5.816318176060122,-0.2737484970403968,9.370787890194913,-0.02264162458293651,-0.04012245940952202,0.15272369527870783,0.2535228671193601,0.2801652545851125,0.10788600963604753,2011-09-26 13:08:36.149957574,11.180452398
49.00904456738231,8.43394207113057,115.74010683829461,0.09767597291649735,-0.06510764894534724,7.7661089181803185,-19.544447383354193,3.980170026123825,18.2016672058327,0.18688276531404868,0.04643523275914714,-6.238498129790128,2.517557325508876,7.455404923087158,-4.289764292108128,-0.5565713543003215,9.280437090951088,-0.035916476511705764,-0.03121822160034578,0.2649109922277607,-0.1626844579570137,-0.053608517781100005,-0.6128882706422367,2011-09-26 13:08:36.250069811,11.280564635
49.0081831141528,8.43713023658815,120.28515340132131,0.18117721247555457,0.004346685822356745,1.132143254265154,6.78903225389935,7.12982361498854,12.143533201538586,0.07530563056352477,1.2102932126355939,-0.7258855051049942,-1.4018195057340226,10.071974834577354,-0.915377433080208,-0.3506812752193435,10.516198976998174,-0.2465244064997711,-0.0063960206333680426,-0.14543763183705094,-0.02027573475532518,-0.04162054745813433,0.16200766769212624,2011-09-26 13:08:36.350073610,11.380568434
49.00961432333936,8.43589504211348,113.90117440540607,0.05146986239799936,-0.07555125369257897,-3.0128800796890407,-6.270904418151332,13.475703169711657,-0.9822732279459938,2.180380349056895,-0.045269638407372886,0.5518442386378628,-0.09332989227827493,10.130852120632811,-11.39283978627764,2.686205521551528,10.506840028758768,0.03885939454178172,0.02018321730694375,2.877717869900381,-0.028476707807707134,0.04739288439955005,-0.027951463081737835,2011-09-26 13:08:36.459997720,11.490492544
49.00813397435754,8.432947870557342,113.27647949961332,0.028758863813238125,0.10971150358815827,-2.253951829067349,23.84400466940527,59.00443204284838,38.992823453244455,-0.4556230703384285,0.037495772122479204,-9.174914075229244,-0.780177652019209,9.62015734976155,-1.717754658369889,-1.5086700988222819,8.998163648618014,0.05114289905368439,-0.028616667138694145,-0.05581992574790827,-0.028867724029512987,0.03623618593452349,0.48645139832224216,2011-09-26 13:08:36.559933429,11.590428253
49.01025918057089,8.43881773995633,117.67157523787957,0.03992353185737056,0.000976209224068653,-4.477192915772161,-25.131411067903798,15.695822040551532,16.9185823866039,0.3440450389004237,0.0484084604161485,2.4834120654095324,-0.14333979608837571,9.464874764524057,-5.225029211061169,0.8571200966504476,9.256168210133886,0.00994496716931012,0.0037723452454094444,-0.22949317974641587,-0.05556980786073657,0.019503097336320323,0.8982336593178595,2011-09-26 13:08:36.660025629,11.690520453
49.00990580025394,8.438847593274827,114.30005389323085,0.06538713309078367,0.004926051292429107,-5.282453068319197,-1.0484009639780683,-2.8852120798270455,-127.67386266754157,0.023990971750698975,-0.03550085208469721,0.5860879831765378,1.727191467779101,8.961907410002343,-0.17079904432178702,0.5986122673366002,9.491658869773993,0.003051921494179436,0.08562204088723901,0.3101921682322472,0.001225195188108031,0.021420885916565692,0.20842146970395567,2011-09-26 13:08:36.770004895,11.800499719
49.0074902610938,8.441290978809462,113.72464322694029,0.06847941711817361,0.023835081298557017,-2.271548111829908,-6.633068101760787,4.103414057792218,105.43236979584175,-1.2488913355042217,-0.12778560431610406,-3.151297840168725,2.4212313794336713,9.94208648386478,0.03805995450627481,-0.6577161820770394,9.821166985935527,-0.053161496508304366,-0.37853405570704934,-0.33310606632339557,-0.048632222445131365,-0.008071168085073271,0.23487889848772084,2011-09-26 13:08:36.869992373,11.900487197
49.01031866415478,8.43600077097216,113.95142966412271,0.0425751353281162,0.09589555444616478,-0.07152849865614055,-46.39484166158957,11.316611150254388,-2.036156569015267,-0.39147457110719747,-0.08101542065536294,0.6666823450600714,2.5383592728836453,9.787293956642023,0.3626629381738711,0.2660997331102828,8.640059583226941,0.0158138517093038,0.0209970160994931,0.010240431223657705,-0.014869517409883366,0.004111756484644959,-0.07361111645504667,2011-09-26 13:08:36.979985111,12.010479935
49.009909255809596,8.441125183922987,119.77158525996836,0.05588755254079983,0.0039800611202684905,-0.3808432289487118,1.36202591024142,10.104644022564194,6.918453289462861,-0.1480564169357052,-0.20772187321853453,-1.6188138752542998,0.6057812440838989,9.800861513656704,0.6389963033444566,1.9406771174844508,9.13298594514167,-0.002860900401734278,-0.2549328648037284,-0.34346256654536866,-0.0001665639593610318,0.028216175373853347,1.0074882762202044,2011-09-26 13:08:37.079990777,12.110485601
49.008500184227934,8.43870535086845,113.70831005492137,0.018124228458753854,0.014461036429779674,0.013609028111379984,-6.325410399593668,14.704469113796787,7.042017970558524,0.8417271387746327,-0.025645231942637275,2.1311837427768587,0.766578609880451,7.793559612465712,-3.8819615737033057,-1.535141088630792,9.65719799512219,-0.036072559746505896,0.14860995964175752,0.20107647167404286,-0.04174398534196947,-0.002748184078507125,-2.444661676714371,2011-09-26 13:08:37.180202130,12.210696954
49.00786533846691,8.442655271044925,113.98463364014032,-0.007968915861446647,0.0032041274568740865,-0.7655354976707822,84.01841669539252,7.415488794179646,26.91435627849507,0.17128155745481602,-0.09981342380101621,-2.6172089702923595,-0.36598315943827664,7.971456968796924,-0.8433261784638841,-0.9657203659693536,8.99708859178705,0.3860701608055328,-0.0262788053209826,-0.1722229062889708,0.022526311560912175,-0.009054072169377703,-0.4866780565005163,2011-09-26 13:08:37.290073010,12.320567834
49.009406933043756,8.439084474990741,119.08102821667926,-0.05987598010406315,-0.07464697196302661,0.7415513413206061,-0.8268291159368077,32.851220243531536,88.52644377168353,-0.20923725154975348,-0.06475162818345533,-2.872772410813424,0.14989427891497,8.86484077266514,1.336469985678486,8.78179217786969,10.055435052904402,-0.033865063879780784,0.05456126735383132,0.5220079392718897,-0.049520512447275164,0.011239619353530702,0.031725008503215905,2011-09-26 13:08:37.389988671,12.420483495
49.0098687439078,8.439857531507311,113.5970798843515,0.1030748700055096,0.018501486163519227,0.3820139220638595,-6.87545011026154,-6.984143392967221,7.055339916305561,-0.2048034417364079,-0.15669230739034462,-5.649667388467186,-1.3571170196247446,8.950805935050358,4.6547593382626165,-11.833377172791419,10.918349821145872,-0.08989995420138015,0.08160246477381754,-0.26065608951081487,0.05221310305499609,0.06431058201085885,0.2066628061520794,2011-09-26 13:08:37.490004601,12.520499425
