lat,lon,alt,roll,pitch,yaw,vn,ve,vf,vl,vu,ax,ay,az,af,al,au,wx,wy,wz,wf,wl,wu,timestamp,rel_time
49.00862781433237,8.440137262022239,115.36772503167026,0.07553553853969529,-0.006617253986303544,-2.466432204532015,-10.908811608535018,109.91888427224761,-91.76714652867805,0.44288468740283815,-0.04313219564311605,-3.7161908316553625,-0.6806347045314548,10.691574412375202,3.3064045324750353,1.8803391212050173,9.488288927579617,-0.06901060008442,-0.06265891918334479,0.1900835820056827,-0.0909855325988649,-0.024308209085200504,-0.06090499995361997,2011-09-26 13:08:24.969505176,0.000000000
49.01473533548736,8.437979742107258,115.5508331911792,0.08737374046375024,0.010269656535101783,-5.415695084443066,9.797803842335568,10.34668033331964,52.561764621114136,0.5115414550401438,-0.06244614015784472,-0.7240771622582578,-8.650541943705802,11.172216418673269,12.28164610970334,2.1226623999335326,9.258497465105144,0.041215451676321235,-0.271439805584195,0.05569607152437481,-0.010728223559019354,0.07924922997235823,-0.5081547391575876,2011-09-26 13:08:25.079500082,0.109994906
49.00974085348102,8.434502840416016,113.9942173901275,0.12612269023430506,-0.0008411559113928766,-14.986901686528523,19.316185001170236,3.9320655273048217,52.088375831179675,-0.07302219449472211,0.006493550606268545,-2.3027261496867935,-10.253999090509078,9.700057639502694,-1.5823522073549432,2.0859182037067012,9.371492030746577,-0.029958495004300974,-0.024168690025105896,0.24937150728808882,0.0014152123782976075,0.03295828672462351,-0.47991236115952585,2011-09-26 13:08:25.179548150,0.210042974
49.003656011872955,8.433611794543902,114.81114640204575,0.06005794544425805,0.0029007746858305625,-1.135477824489382,150.39351127349784,25.95598017471705,8.532838716041457,-0.3423033676844291,-0.0720313109673115,-0.18046346139212616,-2.1333998830452447,9.950841479428199,23.475769390668095,0.1455861165802528,9.190386331955759,-0.016867106084368335,0.04393783644189254,-0.03746892753283396,0.011984161612442621,0.06850420845558004,1.6716208387509872,2011-09-26 13:08:25.279558666,0.310053490
49.010089415924234,8.441710992324865,115.26936489874495,0.1518992842067691,0.015036427376372244,1.9455005394251432,-3.9089204219223332,6.927086362962571,6.5055824540907565,-0.06514607576754172,-0.052698774503420656,3.76096587137543,1.6957863458876308,9.064485128723227,-0.7347179334845935,0.28835839414522874,9.196059525847957,-0.03954611879421195,-0.010968369800076004,0.22014793937754823,-0.03456855835758155,-0.13044292711646224,0.36317306077771083,2011-09-26 13:08:25.389489568,0.419984392
49.008829741129986,8.43677865356634,114.1248020930254,0.09687977493886313,-0.009510472820062342,-1.1600762307783343,9.036366415161094,4.332410959875549,10.326829067468214,0.4160606984621886,0.010536057148626682,3.5048903952925623,3.4300312074566963,9.806725515494376,3.852561567204209,-0.15473699296433913,10.185478342170594,0.004016288776379055,0.015586861038829624,-0.28621329033505316,0.001372537597599288,-0.2197683724229724,0.8144012317820467,2011-09-26 13:08:25.489509979,0.520004803
49.007639698774064,8.437362792597275,115.11756708458422,0.0894957109146415,0.010541276990050367,0.33516249063263753,8.377237247227843,18.478931636977634,-4.869215069357804,-0.06435464579818746,-0.08990488178780884,1.7966632739275101,-0.8293342853164748,9.296122587693011,0.7536753238550529,-3.5078651072333593,9.77011276062907,0.039737805321891154,0.049964614694316074,-0.527986079856291,0.046881832467486305,0.01600583344854459,-0.24938466229399833,2011-09-26 13:08:25.599582464,0.630077288
49.01017299020872,8.438178386785097,113.98142321898959,0.3713881621896504,0.02090049486556993,-0.6229221911120852,18.145294627859986,-3.7623904149223915,10.684049457488463,0.5635987252487751,-0.153614313428435,-0.30113475966258335,-0.6832134849655978,9.822403013273638,3.46042868485392,3.733685201292078,10.191248183964547,0.13215355307732415,-0.0634360626221312,-0.15326964749072944,0.008903556305789446,0.039429756685022625,0.6294041502912598,2011-09-26 13:08:25.699659193,0.730154017
49.0080196586852,8.436882059950445,115.22691498770943,0.016597891738277352,-0.024765038598017042,-1.6563554036596737,9.945086051232359,-3.659985099424695,16.97437251538737,0.09959567762736646,-0.24142041784917864,3.845290839219448,3.731931673393972,9.710074170027518,-0.48751483906909265,1.6726916129950522,9.586133767194433,0.009967366719259973,-0.10413368729028039,-0.1369871809106997,0.007024693708238319,0.022966329853190415,0.29640273494632813,2011-09-26 13:08:25.799528739,0.830023563
49.019739659436446,8.434618968152549,119.68044387822582,0.08119934587903074,0.05839055254879444,3.263062618149432,-13.704540358712045,-27.01717542965762,37.94719171187716,-0.13264612140916776,-0.17144700852274436,-1.4608960181313417,2.2980699112218606,10.03903784225208,1.6481564412565664,-1.7553385588121004,10.280228471660223,-0.03851000107453259,0.01641636597681016,-0.5226145147975245,0.019054926343805324,-0.00041480349353682864,0.20385067015497058,2011-09-26 13:08:25.909528505,0.940023329
49.011367682009855,8.438570718875663,117.25889327610965,0.08707649188059952,0.01979890317698277,-0.571432037353649,-26.375735376639106,8.847678022756801,-1.3795818595209628,0.11373328370010807,-0.06406519467031571,4.720000189705401,2.179902680431042,10.010520868633902,1.1297958027108321,-0.906281110713993,10.421107890101922,0.008253582535984638,-0.05603558975946651,0.012827693210948656,0.4258595572920781,-0.02002285181421083,0.1539404336652817,2011-09-26 13:08:26.009540007,1.040034831
49.009128865917845,8.441969177255096,114.96749079631135,0.02097965713978625,-0.09399552230572435,-7.345162188062954,-10.696355256088776,1.5527169791481832,-5.304951574461667,0.010995703409174884,1.3954817035921656,0.870939954856796,6.957745783188781,9.884704813469892,3.2779894628728634,-0.7918113757688783,11.128487484327893,-0.041959710745964496,0.027182409769281806,-0.2382201037305345,-0.022417625801894964,-0.06028660837664902,0.043873160243265555,2011-09-26 13:08:26.109501990,1.139996814
49.00994238459313,8.41933270356161,115.9690441271783,0.07707101943969301,0.01492648671850871,-2.8088770852839673,28.719550809850936,34.9847762150596,8.13903976514301,0.25969189786753655,0.22793175124298182,0.6443262521072528,1.6765312346622072,9.900073053081243,5.146765337868155,1.0808234393903864,5.594622098635132,0.054282294296384245,0.043964738493319354,-0.006526802857207234,-0.05546479509197835,-0.07280656337042116,-0.36433400173786445,2011-09-26 13:08:26.219644264,1.250139088
49.01025436211262,8.437377614276018,113.96270886774379,0.12675807577823361,0.016900523268030765,-1.575367191589065,-14.291307717524578,12.005285107913519,-7.776763532230378,-0.9009867985089244,0.08421822017904279,-0.9877187316103071,0.6692050861046919,10.852415238592682,-0.03780290078426696,0.9391085499676997,13.768311296934126,-0.016475239206718176,0.01822518237034035,0.1556107373269255,-0.04570202068609668,-0.07993242901533408,0.18434565547796464,2011-09-26 13:08:26.319575106,1.350069930
49.01050600389758,8.419429575226031,113.45862561420081,0.07077747600138068,0.006967380610742349,-0.983239662944734,23.57212971096518,13.035023905704556,8.363055264241048,-0.005930243528600568,0.10445240433624445,-2.228577982656472,-13.85988982432928,9.802887516972477,-3.8530681361803767,-2.895094318965947,10.435499628419732,-0.021423729563721537,-0.04382836985094688,-0.34416878989514477,0.04710066628977588,-0.006089385007850261,-0.07663946930463872,2011-09-26 13:08:26.419554627,1.450049451
48.99351754802342,8.436169047582764,114.53558526060984,0.04721642734649098,0.020369535589472042,-1.7335716131505055,-21.251473321238052,-2.0661268103321557,-15.579376736118679,0.3272737166754143,0.147877287536453,-5.265382687415667,1.9526722410326722,10.51415224605781,-14.158110824609574,1.514389754776231,8.25922588106891,-0.002892460669851025,-0.10848692651461622,0.4609444224975195,0.029514128270703873,0.10143450052158436,0.0702162636625522,2011-09-26 13:08:26.529544659,1.560039483
49.01185157466214,8.436574810760943,114.72965770454385,-0.32105503293185556,0.015502111804064096,2.758919665381019,-19.857650085562867,-5.700257028447945,4.910614261572498,0.32676011498438345,-0.041179874940540685,1.369275292790752,11.755883857112792,9.41140517111532,4.924346490640816,-1.1245642503650877,8.168626285978458,0.03303874820406346,0.2586715149010917,0.01704121183534938,-0.015446994066484143,0.20822630783954732,-0.1244116882895957,2011-09-26 13:08:26.629560981,1.660055805
49.00886127134165,8.429217919735812,113.93384819043331,0.059752197989518196,0.023534301983681196,-3.062041428698696,15.54145090528059,3.5369731520022443,2.6962264198790233,-0.022728060790239146,-1.1365355992414299,2.6040664732021988,5.846819201500432,9.081257651880104,9.664600944533085,-0.6655998457002772,7.80253352709005,0.007617021245063995,0.0016370492770384844,-1.7959133280477768,0.17693173794797404,0.04634135593469359,0.3865288748120087,2011-09-26 13:08:26.729578420,1.760073244
49.015168204547074,8.43385801136035,114.47408808368145,0.06443392516472089,0.05621704891442453,1.4749049155410945,1.0170716885433486,2.363191235871537,23.634707350071874,0.11139508117208362,0.250434001521821,5.3505197235594295,-0.2998510955524011,12.467550746811265,0.03566263219994109,-6.561918296771232,10.707889455466571,-0.06047484949185232,-0.020269455426110833,-0.009337936086617675,-0.03169547143012155,0.09622967032001574,0.24413456121370125,2011-09-26 13:08:26.839570600,1.870065424
49.00941048264544,8.435490551929243,114.94538170357626,0.022831748678295287,0.031587128109221554,-4.418163907811482,-6.517049527370824,-1.57518548471527,16.491585396089057,0.05889196020573772,-0.11895382511437073,-12.276767981629364,-0.04525468966030283,9.236087953162528,2.102060968341768,-1.5822906662255984,9.222176086494962,-0.007700622612948651,-0.17827510015568704,0.14127782712598633,0.01736088001444596,0.08129294460074288,-0.11822527742805705,2011-09-26 13:08:26.939565443,1.970060267
49.00786386151115,8.438892534859928,113.93025815324997,0.018630073379232177,0.0036639432408099803,-1.1351488441827766,102.15094062492842,11.2128758563107,-1.233303761154481,0.8503584277611003,-0.035900531695023066,0.11249507432934036,-1.8413807943690632,9.749894873620656,-0.5877287259914696,1.519382277393514,13.66964413904389,-0.01635044224438873,-0.0315640893260898,0.028575930158330654,0.06656550431415291,0.057885947605805926,-1.3965908084745984,2011-09-26 13:08:27.039596881,2.070091705
49.00893661635418,8.434449557538322,115.54535981190406,0.09577892343410038,0.007587744420583702,1.056874771541122,-16.305605662880676,18.511013885893064,-32.38795835696515,0.04144184383685495,0.0017643224802808104,-14.8473701300477,1.4665044484766852,10.306842156567619,-0.2932145889641145,1.321569767393565,9.99473192950309,-0.06224621705210508,0.0036619612516830113,0.5367562567623354,-0.03699553790340058,0.06761703369162174,-0.34992996913945373,2011-09-26 13:08:27.149571467,2.180066291
49.008979620314086,8.444384927224206,114.95323971486786,0.08315283084867924,0.023783279901865205,3.6902458424330287,13.772334528744851,23.118359678065005,9.283311320396846,0.023105455783261057,0.11403474611772689,2.0255744696622373,-0.3051557192404305,14.638633348599708,12.195783729222502,0.24314392761005227,8.811073178644495,-0.03517932999719621,0.01309346742049189,-0.3793748402237921,0.0424597631352342,0.05142837943552042,0.04021728173436052,2011-09-26 13:08:27.249578975,2.280073799
49.00883308540813,8.43542900175244,115.24679667125504,0.10199077918814772,0.02638337411391555,8.473572567200483,4.9234850224993085,13.43200674078864,-12.000850046868464,-0.00963998519441818,-0.12900221420040278,-5.142022821050942,-0.5689276502551959,9.93478019472251,1.0445021372133336,-1.851658564273548,5.088865258299539,-0.020635085230838686,0.0027482807231688318,-0.18494196580122588,-0.030102718168233348,0.013033092735064384,0.5195701280101026,2011-09-26 13:08:27.349607184,2.380102008
49.00933603811392,8.436296998052049,114.0634064529673,0.12743521497103777,0.0005333980683643151,-0.2078897007428297,10.929337977879978,11.115877559766245,6.432025277720135,2.180656897105135,-0.14016164638964007,-1.9034781355547812,2.0979047760029,5.081354082015663,1.7544650809576112,0.4093583252063958,10.501298631550606,-0.09947897310833909,0.22463632007608575,0.035784316749898716,0.021683219381568492,0.06072285709318612,1.003234337280029,2011-09-26 13:08:27.459559770,2.490054594
49.009336871816835,8.435590707973684,114.84701456683445,0.0341448257517345,0.005353711411095164,-0.9160406070053605,-82.821146441672,-7.524803473889289,4.723767407888634,-0.18510498292496097,-0.16106712478973206,-2.8410754610843587,-0.4228652073377843,9.08187421160352,-12.703029884205655,2.110420150655232,9.671113831265075,-0.018306174836517346,-0.06092901274877384,-0.07076300962051353,-0.08458616607897676,-0.07722651047000828,0.1519752422022499,2011-09-26 13:08:27.559577286,2.590072110
49.00870427724477,8.438165446622934,114.21724497261451,0.04110736125708983,0.011648386220053755,-3.3040762378064024,-14.191669651234902,8.455903470563424,30.64237620714703,0.19390423462167006,0.11024738628648811,-3.5039494840366787,1.337187489437755,10.386523549849352,6.330741473855142,-3.125981295678649,6.325057566604992,-0.047827749188345696,0.05675787597307774,-0.41506711746422786,-0.0536615995842004,-0.07869319412383834,0.10978292789599638,2011-09-26 13:08:27.659582432,2.690077256
49.01006460591267,8.440934736730338,114.34915092576136,-0.014526838285855832,-0.04818967080804588,-15.354406746725521,27.179589593672205,11.547498738400273,43.9929956213057,-0.5714776790611737,-0.07637529037280275,-3.1851056362894634,0.6998820878876971,10.209287489119566,1.3524405868078682,-3.512334634888918,10.256025947684108,0.22347750764396185,-0.03681425813028405,-0.18735059637243384,-0.024529325522172615,-0.038230367695687294,0.5451405888988706,2011-09-26 13:08:27.769687986,2.800182810
49.01039371476958,8.437685618165949,114.2948978120976,-0.29894992604525766,0.020670434656095967,-3.365347893447785,-172.1343910447817,-16.022734803445935,9.18309781763199,0.13332422216883408,-0.06995619434884519,1.0005691432084718,-0.3769190132678438,10.171182398925245,1.6058965639953544,0.7364523652443875,10.279744045179308,0.027583588777730126,0.09716003278752997,-0.38405683480972097,0.02930204675163313,0.08977232400780559,-1.36468956178874,2011-09-26 13:08:27.869619886,2.900114710
49.01043566290867,8.439297082690032,113.43025090039478,0.03399561661130864,-0.008594780642076536,-3.4229332212144437,26.24410857894601,-16.57459321817562,10.5140781737964,-0.005829235197907831,0.5723495590218688,-26.93364327216312,2.349697077824434,10.257451598861152,3.8266994418858884,1.3418339982307088,9.452570892711702,0.028278501082744642,-0.012042941021294763,0.5444084230567895,-0.041684217483462016,0.05047758802494076,0.035081335822357895,2011-09-26 13:08:27.969608711,3.000103535
49.013307556614706,8.436183302919735,114.14002887873642,0.07228380753812735,0.0347716720325594,2.913630462653406,10.39178136050574,18.173064683663757,2.4324391400201817,-0.20243169637652364,-0.07439108090092078,0.05492003978430901,1.7046719134843396,8.35498652959593,2.5987933317153478,-0.8042203380473584,9.351824219212892,-0.06581225866072933,0.1333678268323709,3.036202145491132,-0.07905009790404265,0.07372529910232503,-1.2124441854512444,2011-09-26 13:08:28.079637615,3.110132439
49.01218129291622,8.440787335194615,114.55901248391443,0.030668682632317753,-0.015201776613416226,-1.5972200743325649,-20.86622372059938,37.68324279239881,7.459687753729159,0.1724119704044944,0.49061257170956574,-0.12011934705438587,4.701295846991132,9.152906057469487,-0.5030191199426366,1.9627328241366677,12.605551512337179,0.005356482600504859,-0.019466416317647357,0.2868411118390731,0.031498944427883126,0.057782593676207306,0.30967956968277255,2011-09-26 13:08:28.179826915,3.210321739
49.00468106265547,8.436190557641483,113.81290273006852,0.028972169375100186,0.023441988013011776,1.643835577358876,3.539474945384828,-52.23357183753083,32.911492994993935,-0.08219617113850418,0.057445619991426666,-3.1635538724932144,0.18347411017134596,9.978271291669557,1.8873663943370151,7.695153293583653,9.57824636431116,-0.026313426996340598,-0.008485083760597248,0.25871414352256605,0.017529218360304744,0.015416114195444216,0.0012370184345031465,2011-09-26 13:08:28.289665346,3.320160170
49.010984348931636,8.434414497063463,113.80129840018716,0.04285466932069801,0.00983903473684778,-0.22836607967927178,16.014965165692143,1.6308299172959497,-6.923060276340648,-0.04850420061508261,-0.12653572828374832,3.3505053644553238,-2.8487746699298926,9.86777358852386,4.344013139199678,-7.425124339363926,12.813983071143916,-0.04074778549162025,0.3264353631999621,0.9891620548073685,0.02019966097757366,0.012713515185470887,-0.06223440310162447,2011-09-26 13:08:28.389589105,3.420083929
49.010152508927234,8.434872239507035,114.40668532013925,-0.008960861613055843,-0.00946379600595357,-0.953467562013628,12.189995258869695,48.56608218303831,0.2930871555081449,-0.33953330830829154,0.1505517468960202,0.21984743844235374,-0.2032187808505218,9.460322792358411,5.259429833491806,-0.16079188395802535,10.551239176662941,-0.012820249029767217,0.059642102657873626,0.4564040122180944,-0.11668491901947874,-0.024871797017538205,0.17057539104325034,2011-09-26 13:08:28.489682778,3.520177602
49.00730799440799,8.436984844230127,114.88770881868055,0.11413863829043269,-0.011896586414959163,1.0734938801831397,-28.802342443420244,33.353564467781354,142.89104138339508,-1.1381815095543764,-0.052189221543979786,-0.27289257085029095,-0.5191690520960462,9.710827740729258,-0.22238451673606474,0.7186387442697864,8.893469275587055,0.0008812555600807674,0.05057943934801943,-0.09470554863785129,-0.08183877023578143,0.022465341880502546,-0.2337759628188349,2011-09-26 13:08:28.599653315,3.630148139
49.010228314066005,8.432337140267501,114.51489003719553,0.1880254374854345,0.018511596900958535,-0.9544932891545832,13.464316715789016,53.61785281789754,1.5717829468152047,0.19368090116166442,-0.03163469187633576,-5.278927948254645,0.7453921163597803,9.53872080272509,-14.118709173106753,-1.678572613150215,10.31010904180773,-0.04122470522912655,0.14803045848980337,0.2086318069194887,-0.056228536021205644,0.022684785805787575,-1.9187744486275535,2011-09-26 13:08:28.699890211,3.730385035
49.01123776150278,8.436857042220222,114.29334719614917,0.15256574253322921,0.03614732349309188,6.536892134099321,-2.2049079003003103,8.449410705250772,9.156887360957276,0.44356940667685285,-0.21898856789545862,-1.7972155692349119,-1.5711751279652217,10.15435142590425,1.849515769511385,-0.04564151900268537,9.723548378087758,-0.04694465321696875,-0.017669627903576048,0.04751484223979957,-0.118177525358552,-0.053963545996716863,0.1834995604057768,2011-09-26 13:08:28.799648576,3.830143400
49.01148918186703,8.438043445455257,113.4769545119687,0.08529870725448312,0.028841219043471283,-0.9617062568906611,-20.18631140181148,20.08803478846155,-1.4736125299884755,-0.9669576132790193,-0.2846202674365051,-2.9580146035539414,-1.8885265175559796,9.003982724770854,7.231501822904083,2.414858876191499,9.201283541583358,-0.04670635737834534,0.00030556046542857027,-0.7259671278844946,-0.05052922911104988,0.17837546170293675,0.3070548040700697,2011-09-26 13:08:28.909669960,3.940164784
49.01034234913139,8.435033894549465,114.57369086315046,-0.0005355773015274512,0.003020231284513464,3.5126537534020965,3.661003133274477,19.186465567245534,11.278120016766819,0.1333908515317013,-0.04733250830805533,-7.343327577299769,-1.0712361030111472,5.7163627301732545,-23.027087241953474,-1.1394074147009288,9.234436300548609,0.026501614850769187,-0.011087819949815796,-0.2240708257517362,0.03552314608209965,-0.0012582571911375256,-0.14343606867288883,2011-09-26 13:08:29.009645361,4.040140185
49.008299150096065,8.434814985204717,114.89716758120908,0.06221559171310492,-0.009874942435962685,0.816517686326117,-0.4399935377443396,22.12319621620466,29.41284139405341,0.19645743491679069,-0.22075973565994572,0.6627951810792899,0.3427242849983281,12.727158612239565,-3.3953733944199223,-0.8497325355720543,10.290074770741324,-0.05567140352760923,0.04942611952347358,0.28308405184679647,-0.026630175864562053,-0.03472663385198037,0.06594589713383127,2011-09-26 13:08:29.109658299,4.140153123
49.010796407220546,8.419121060785601,115.41957570100057,0.07482342880163304,0.00676143126126512,-5.18448576169219,-7.788323617464647,15.720486635972613,32.290753274639464,0.5828767762913012,0.02722392548647455,1.5317207515782036,-1.2779193411608178,4.854501556415173,-2.987817285919554,-1.707733753833052,11.278907732342123,0.006750812255888046,-0.07845138110277843,-0.22445964517803357,0.035035391160710264,0.009777658718682001,-1.0513224813097743,2011-09-26 13:08:29.219797292,4.250292116
49.00666097826766,8.437044754397668,113.08647820704871,-0.000786427335253477,0.036447292345733975,0.35055959371391754,2.2087688880015226,15.39236769031027,-54.602346753131954,0.14446709237361047,-0.2239532253855601,-1.8486407329609094,1.0711743797942204,10.164983785150564,-1.9704754912081048,1.6950736524822267,9.749288338476841,0.03138955283960135,-0.0072481853832394045,-0.057991763025204555,0.0815498944012116,0.021841152155729217,-0.04519945901604051,2011-09-26 13:08:29.319722497,4.350217321
49.00885736022775,8.430907427084886,114.57024603060616,0.05191681865762368,-0.02895987462509656,-0.10075905047265574,-22.90422930466467,11.973998212849532,10.926817056543738,0.3375078546668644,-0.014150534756452282,-1.624347820496938,2.106097400627234,11.063765776066571,-4.842975870835811,-0.5686337371949763,10.217184315644497,-0.05621113916042472,-0.17477227763872188,-1.1770604800896889,-0.16972884546824066,0.13304712624449389,-0.3008053075142875,2011-09-26 13:08:29.419669975,4.450164799
49.00854657858141,8.445758627876868,114.15906410601922,-0.07882718530919831,0.02552739308150087,-2.0664875058125833,-28.24545851236968,-1.0797715567057349,21.268354644868644,0.07877247883679386,0.010652426381359187,5.426752191870587,-4.5345670090238865,10.162258530131922,3.575893028339229,1.163171431333489,9.78488204248237,-0.01354846364901855,-0.0011248099948345108,-0.26236740603058345,0.035898073118221255,-0.02428649469546467,-2.747778668616079,2011-09-26 13:08:29.529674761,4.560169585
49.00832647812156,8.436437085488098,111.94709568482854,0.10301149861060435,-0.03180426814905336,2.179149958928448,16.467457543656693,43.065864462408356,19.03531373792363,-0.06481030764647797,-0.12947218338322308,0.36684617259743413,1.1931218539055173,9.469389160443496,1.3861946672297565,-1.3155465808296354,13.68459810987431,0.03221685999459557,-0.0716739342398451,0.2764695303005548,0.0164710389380471,0.04261885191032615,-0.19907874366876385,2011-09-26 13:08:29.629695643,4.660190467
49.01862679588074,8.448252150348186,114.37210001317217,0.04869245813603128,0.010627524245387258,8.707322896105389,-136.69879153443063,-1.7117193502056605,6.366869647647268,-1.7043506083135802,-0.29258463551471553,7.630979321207111,1.2199525789552284,11.494382449354141,0.05746314254941909,-0.2848319995740091,9.814472587954503,0.03674144127929882,0.1397358668273615,0.18832030747833692,-0.004797698697538138,0.04024862271385838,1.460965756719011,2011-09-26 13:08:29.729713462,4.760208286
49.01033139438209,8.439489238633119,111.29819223120447,0.0384443924560444,0.018654893773289088,-0.751424320862806,0.7508679142033352,-2.6070153783848617,36.47065455508627,0.23832889176956923,-0.13732098372772375,-1.4230524610554929,-1.9217400734638368,10.009679165183321,-0.25822026354071076,2.6943644228885777,9.768885114602623,0.04693532442243637,0.008720241465382122,-0.9107703429954441,0.0598514576747312,0.04940928832213714,-0.005271215657284018,2011-09-26 13:08:29.839734067,4.870228891
49.0072068501464,8.43444563036885,113.88093370143368,0.09781101661642586,-0.02741099563239259,-0.3401981593672305,14.78559428792812,18.20735842669591,21.001782200170627,-0.5761920617796172,-0.028314995462618738,2.8409631171420533,-0.9788570952742172,9.824845186140758,-2.4637735161009098,2.542210729724561,8.890539348342184,-0.016521092363622567,-0.0011147016003641048,0.14174715232421364,-0.04742445688215624,0.14009934569755672,-0.17717778700511422,2011-09-26 13:08:29.939674898,4.970169722
49.00731644541465,8.442576517702305,118.77861834239991,0.19574729911201158,0.02957090011886181,1.9343240905298438,-123.26256184955183,32.53037150388525,9.788657077606686,-0.25159820509722775,0.12231571552000615,-2.0031855643581395,-1.345156978951983,10.80968895439845,15.092979572187184,1.864161217047746,10.436631936003101,0.02683453477585722,0.3545721395896129,0.041736770237290034,0.0076633315165845015,-0.02881865009271989,-0.11023077162246386,2011-09-26 13:08:30.039737111,5.070231935
49.010768816160734,8.439157088447725,114.19669043960964,0.028528861334201745,0.00553333607320974,-1.1220515901600825,-11.804865803661457,16.403148240292296,118.9844494813087,-2.8970299428015593,0.0413827431359247,4.10080291331817,0.20034504588166696,10.719535437002548,0.5335335095602471,-9.862665208761921,11.222430167747852,-0.2290669551754933,0.21694210621200172,0.5792734636618972,0.07670469550851156,0.024589560410859735,-0.24291255629882424,2011-09-26 13:08:30.149705771,5.180200595
49.009775986773775,8.409411773898661,115.28662644903018,0.16317961987785506,-0.006435698377372648,-2.816634912974278,-11.931958936841639,-107.21071098753583,23.549271438093584,0.026209010297296775,-0.23857467825981132,-2.6923449543406637,-0.24137663245407337,10.66923035077689,-20.649879776153828,-0.9228464851004792,10.720113608452706,-0.10279812049477499,0.02632114271320727,-0.2999066218833261,-0.04445256037635066,-0.07363765640115189,0.24898601718133245,2011-09-26 13:08:30.249704622,5.280199446
49.00933126478363,8.435785298838406,114.22819976477767,0.07799549195703111,-0.03030285625275171,2.4739300570667093,9.804364750116568,-6.742584994650919,30.00308805145505,0.08047051569695199,0.6911982020742264,1.5355901966133785,0.8700078083836054,9.2716580305033,3.152051608643196,-1.776661812527498,10.572437025184232,0.2665095015503341,0.01937898159144038,-2.2362053576424246,-0.059719926584675634,0.03143495260684033,-2.029322915371533,2011-09-26 13:08:30.349716446,5.380211270
49.00790032468778,8.435770186965984,115.57675191380646,0.042737606588979585,0.0013656212200952684,-1.2399789045197123,-6.528416173969402,15.918213188468616,14.557729925380876,-0.3895261228204321,-0.49392956374928715,-6.6577447435065435,-0.18620603609616748,9.587656882517354,1.8836512141734634,-1.0302478158544062,8.369669129823405,0.03476189891090392,0.017479052061442235,0.02761464053856128,0.0076083247335532005,0.019378201038199903,-1.9929268226898071,2011-09-26 13:08:30.459701702,5.490196526
49.00937565201503,8.433524223329929,114.94730934367466,0.011358210534736776,-0.003890393789809281,-1.836766399653274,0.20014985386807282,11.748132696117953,11.272628517688236,0.06201993229977962,0.205880124112704,-3.8765110802010425,-2.667749186927674,13.144112159059103,3.7266844607050964,-0.6105848394783924,10.617103217249733,0.028207571644477514,0.18705043153899414,0.060293117886377645,-0.010382995923299058,-0.2625345369438399,-0.06630390070758675,2011-09-26 13:08:30.559711102,5.590205926
49.00951087975068,8.43479298670753,115.27530812204739,0.03088263813291733,0.006199146969110385,0.4003639804399246,-32.02521683051815,3.702387627428174,1.91858513194774,0.5080290025636229,-0.0303379918156306,0.5451199610829389,1.0275136504712978,9.425980054220377,-8.137426314303408,1.9824008792486498,10.579414862283052,0.08398970997686446,-0.013672796920071603,-0.46136120645973233,-0.022624245040371124,0.04004108330827865,-0.052804965120384253,2011-09-26 13:08:30.669824158,5.700318982
49.00817656783574,8.438453155594548,113.15679534767112,-0.024760966066366352,0.01017621219080535,-1.4293486083678755,23.219677212559922,-0.3456074415788848,16.361142521021744,-0.03890886049118117,-0.23628094705186733,-0.020840706288432667,-0.3736379923870523,8.528000870969501,-2.5714295380944163,-0.9520472264427252,9.462121366155397,0.15030620460597327,0.0420429046059709,-1.0947801227229224,-0.039798611333969794,-0.021271673211290643,0.22262803568849082,2011-09-26 13:08:30.769841203,5.800336027
49.00877801892779,8.444808893877957,114.27084673647263,0.0607241644155341,-0.002788817139555892,-2.582458477826851,-17.117432716019074,5.6831871375662635,4.093822475176869,0.1837882687892213,-0.012143738173870863,-6.865506962180696,3.32467201789977,7.992238574638295,-7.780435742287796,0.9576939997275294,9.600849706470834,0.03466681121995139,0.07015884890872036,0.2235239222957796,-0.013540857257490114,0.01774650247375645,-0.14103816252637164,2011-09-26 13:08:30.869692259,5.900187083
49.00387602784338,8.438082176664421,114.50391190520124,0.1011069925217761,0.014498401486073778,0.530421875652872,12.9217339874592,7.298490909990895,14.883080810340504,0.47662705751209644,-0.10175334410167239,-3.4333723765635273,1.4845851250642421,8.817495434981542,-2.882190899877954,0.43010968019759366,9.732105310288887,0.02963754316067385,0.003769639694882673,0.11762736541417612,0.0014251321322531468,0.04815662055821702,0.022671172012303575,2011-09-26 13:08:30.969721589,6.000216413
49.00777043815869,8.435691939776323,114.51991652841593,0.401014457175431,-0.11169862407664374,3.726411542453948,-15.673186593749453,31.74753390686564,22.71386301282904,0.14244245099267605,0.1178899569851048,0.4792865398700089,-1.1950959246299404,9.89339321588266,4.162547875003304,2.951626767183754,9.403287885393162,-0.04191810975071231,-0.10630020838956616,-0.4187706737450894,-0.05289283923882988,-0.03198912511641451,0.34565573126768495,2011-09-26 13:08:31.079751529,6.110246353
49.01045299497155,8.439864073559624,114.72292649515346,0.04370263015687299,0.007550233411764716,0.824206613599633,-2.994096273023871,0.6344108992003559,17.181258131639254,0.10463388160878065,-0.0646705214956049,6.690456808635895,2.9565063852292566,10.357783943306183,-1.1994739579417182,0.18572528042316397,9.790470469041894,0.00010885023076126141,-0.04606937543513395,-0.010979037388880234,0.05128730039087373,0.05506416323627149,-2.094559029975495,2011-09-26 13:08:31.179942239,6.210437063
49.00814006765268,8.441812845035681,114.08540213538014,0.09979356332112535,0.029332287808557726,0.7107201866521597,-11.733937132074416,18.608392777741162,5.944025441022205,-0.10025443814001128,-0.029681847800510402,-1.6367925524156597,2.1650126326348884,9.555231032920219,-5.495105747896533,-0.1411812815134314,10.717410106009483,-0.20599098878786581,0.0734635827434483,0.5336130820307355,0.0030127562727215902,-0.03274533583489486,-0.21676384232946214,2011-09-26 13:08:31.279800507,6.310295331
49.00984754471603,8.439986341775054,113.94713867637603,0.04964303941207133,0.006458213818837206,3.104715856008179,-27.782384126205216,22.045357198123163,105.12283863965564,0.8164111737163294,-0.4714663379837452,-0.2143618933760515,0.8536011937440425,10.504124806169074,-1.37225133369554,1.2475237454877792,10.233545519413996,0.031679258268721824,-0.16283100430896913,-0.23142083417655623,-0.06627615048529492,-0.025531093020864277,0.19798037612504366,2011-09-26 13:08:31.389789958,6.420284782
49.00817995339948,8.43659013111765,113.97009568916215,-0.22789879019210224,-0.01006013451457271,-3.2821985839422987,-39.18627379515355,11.1478079149556,4.425615645967198,-0.2116304529781306,-0.19436479556056893,1.459102266412654,0.7953094120983835,12.066558846947455,-3.440820322967612,2.1989033637320694,10.764670304697498,-0.008863563909972123,-0.04234282413394813,-0.09263124552688402,0.0032902804280920163,0.010279075709210148,-0.273299625491501,2011-09-26 13:08:31.489754996,6.520249820
49.006971164084774,8.438145037738193,110.64724136616773,0.002632780580912715,-0.08195467361481462,21.89718887280842,2.7874060525931768,23.070246475310782,20.583343392830727,-0.14001934362448895,-0.19890053726280899,2.9300327391747754,-0.04210092907658558,9.254035330397588,4.271789673416826,-0.09737249875614212,10.187063930577537,-0.4882695108976864,0.003588784900902805,0.21070539771805008,0.20908939737141383,0.042232133483778536,2.766465097468697,2011-09-26 13:08:31.589753322,6.620248146
49.01000976395776,8.435368522022895,114.43396976849161,0.06011022320634182,0.025073078928713598,-1.489823781003724,-18.3344973484439,3.229889540411418,28.419794210255425,0.3751047984643919,-0.2889913148756804,-0.16021097234081386,-0.13046688050677935,11.27165725165133,2.03448919180912,-1.0089410150341582,9.758970083427021,-0.1848674099461899,-0.016482238991976646,-1.580822783950597,-0.051856373816451404,-0.08878636313951399,0.5222588323039611,2011-09-26 13:08:31.700053025,6.730547849
49.00747196107037,8.439324774213919,115.31824648353546,0.06722042660462493,0.04589828194539004,-2.328497431858747,8.850515763932057,5.817844232124961,16.927701500757475,0.13768130247132648,0.028784929259456415,1.5968686357005963,0.28233219185521763,9.95067590335653,0.7521490099087516,0.32833950361486647,9.479565113320245,-0.029753647889054324,-0.08698994754910323,0.24373999687298384,0.008517242573313787,-0.0042542799125227185,1.1008328705760486,2011-09-26 13:08:31.799791743,6.830286567
49.02159800669857,8.44491980646036,114.22621132616351,-0.08160668164647966,0.009206186386339818,2.0001044105181784,3.0142416801952465,10.617298117648303,13.868197481369954,-0.010534334802376116,-0.597895626174657,-0.5812057562203929,-0.6550196854447056,10.412203833885464,2.424059015563774,0.9336486811787168,9.359597285532788,-0.011408515879529214,-0.009196318784228497,-0.5445052889279791,-0.04588712131129437,-0.019733857652202536,-0.341968727813958,2011-09-26 13:08:31.899777947,6.930272771
49.00934425892539,8.461337657095008,113.59891396841911,0.04709144822942061,0.00943855301118658,-0.7196877220454033,-15.709856393087618,8.723592226009911,29.314784809097763,0.06469065319343414,0.17958967170741783,0.024420066455822273,1.3378303240259553,11.216975389421387,4.27164186530638,0.03726164875708235,8.689522746182298,-0.037669078415251876,0.014444549138818236,-0.23500457327577315,0.040060790278263474,-0.29895113956348573,0.1604772177230217,2011-09-26 13:08:32.009790796,7.040285620
49.01325046486974,8.439624458375663,115.84345958579934,0.07301468354888084,0.007628735928873107,-3.690586778288975,9.527204638467706,7.981151067707597,1.1348108133704091,-0.1120118551853379,-0.0019152992206883006,-0.2829234480781432,1.070576792639851,8.76321092791755,-2.1435251585742088,0.503582786158997,10.73210711698431,-0.005812201813576995,0.026671229113995627,-0.6562038914634287,0.0567967914391797,0.08855673247322694,0.22071172269544864,2011-09-26 13:08:32.109789775,7.140284599
49.00815258765125,8.438702639394737,111.37339822629153,0.07938008532154352,-0.0039059187527861333,1.5197995688698014,-56.752039963342966,4.820728781494103,10.836401737669615,0.04763012419021173,-0.21037655790301338,0.6638160131523275,-0.6392167810165859,10.024555749910512,4.822215361779318,0.2498085632179688,6.1421760599041555,0.2759770962860722,0.04182605830953402,0.17335884900902448,-0.02709995653878574,-0.04479964053196972,-0.08367088635818047,2011-09-26 13:08:32.210031079,7.240525903
49.0094817196428,8.433055247373156,115.04485616585339,0.07624273601626082,-0.011321465262506351,-4.939721815907816,62.71074539058493,13.968034236553061,-3.3630362647948715,0.25519980922280894,-0.2755459946512404,-5.815426352326987,-4.098931458683014,9.453919204604729,2.056868203838887,-1.9876924821478843,9.25662733229964,-0.006531629266103216,-0.007969780875344138,-0.10428883817092906,-0.04410116346647944,-0.04394457266878869,0.11631880582997263,2011-09-26 13:08:32.319868406,7.350363230
49.00800962379478,8.432950655546904,114.0075378942571,0.07895478056693589,-0.0020957890999101555,-0.46162233284837073,2.002125254713498,35.97021596947785,0.549491338087762,0.17498999880799201,-0.17801286037631028,-1.0357842020568506,2.909899251912572,10.009074454587473,0.5690182630548322,4.318424006723568,8.407645965328362,0.01657471550563308,0.0004929253950398805,-3.1279863598286037,-0.04043227312357259,-0.21764112635840416,0.10212745184751318,2011-09-26 13:08:32.419814584,7.450309408
49.008402978373134,8.41011712218099,115.01424484890444,0.04999087802850671,0.007469364351028658,-23.58090895817456,-11.100509607009439,53.633217043387944,14.342575230723481,0.07240894999430382,-0.0883425581992143,-2.7579473409726867,1.617585786988872,9.787865681154289,4.791174120903489,-9.672192229309752,10.663146563894655,-0.02747761438670023,0.010586797764149098,-0.018677807907837837,0.020960182170818673,-0.03228100463460012,-0.5160600642373909,2011-09-26 13:08:32.529781144,7.560275968
49.00831307442132,8.435551986314085,114.18730167096459,0.017834919044674984,0.00014052444317272372,3.0756388678715814,4.612586236441976,3.661551968598947,21.385797784873827,-0.030119382925167915,-0.24780871480036246,-1.130331350705375,-0.3341730579323271,10.101930755214832,3.781277071180734,-0.9801177065050987,10.122344486570261,-0.019353042190573145,-0.027137792467040844,0.2550005776246737,0.008218407306960728,0.038525643632658424,-0.061565771642271755,2011-09-26 13:08:32.629829035,7.660323859
49.008860445073026,8.440984494390408,113.90844155065055,0.050484306613300604,-0.06763908926571377,-0.18951791922325462,0.5733074369665783,-14.94997282980072,24.744514104903573,0.28058349279433936,-0.21664728297956973,23.056112383095908,0.5866120075412974,10.055186863320953,2.184922724393381,1.623616167933784,7.256965953133461,0.02520410125201399,0.09588444069799149,0.026973708084236988,0.031227096976272968,-0.049049397162417054,-0.2949936150124822,2011-09-26 13:08:32.729850821,7.760345645
49.00811842725735,8.434979928400079,113.70115697863544,0.10989492359186992,0.04304280821534214,0.7728446298988958,-6.43437130565483,28.230486827689194,-3.716023639238241,0.24833429149317746,0.08986758795792094,-0.30425878088306335,-0.4629011027974822,9.613379324955135,1.3417727784829554,-2.390379272013106,13.570804571573646,-0.030057252376147155,0.07435587423923168,-1.040291731575718,0.05954829738865987,0.011995418862117486,0.25949208464223467,2011-09-26 13:08:32.839790156,7.870284980
49.00713181833071,8.438205643548965,115.07203522619595,-0.06386974958091626,-0.01737305540365744,-3.4777044867848455,20.343979884860914,8.944572495270748,5.5918999432587695,0.17362558168665942,0.5625719651847911,4.021943818822764,2.769916142247623,10.008168230608197,-8.502359226726185,0.22951881615694858,9.824054241921647,0.15838508432533738,0.0024018909881925767,-0.6867459995809575,-0.030812423515888733,0.023486711101745637,0.05593306852705052,2011-09-26 13:08:32.939824302,7.970319126
49.00840565816668,8.438805802841365,112.0613667406877,0.029271553562141277,0.045531767153112086,-0.7745243437432437,-1.4772799777280174,-1.7115113798547696,12.242687472500222,0.2169263720145197,-0.08389122575333637,-0.6263934854209362,2.371831094694791,8.850776200589461,2.7751472031600035,1.4605597369575904,9.992553153836925,-0.02261335550423345,0.027473185273245368,0.0745656256732307,-0.046029122143275036,0.22044874456471863,-0.000879303957827305,2011-09-26 13:08:33.039846462,8.070341286
49.00957770103023,8.438672359843528,114.74584423546024,0.06788917990637046,0.009253138967985543,-2.570705113257037,-17.157975744482577,11.953445118690459,-8.669113347900254,0.23653868190282235,0.061391729534389386,14.581679393238263,0.15972727189375724,9.997908416011066,5.0471011018099725,-0.46644169435804006,10.47201655649493,0.01123573650616477,-0.22955848267044823,0.08869987108868277,0.11833714241069615,0.005735134702020188,0.8022957379250771,2011-09-26 13:08:33.149834099,8.180328923
49.01794106944717,8.43404674950774,114.53667201998371,0.07188877621472216,0.02074633878712103,-0.2770104011500616,-0.30217334652178574,24.527597763997807,2.3532188662998674,-0.008789442426654276,0.015632714811698464,2.2901561098008454,1.5345349323174546,10.153675792267562,-1.5974715317416441,1.9286682463934048,9.689320084292307,-0.012842800022480807,0.04019849737397095,-0.23113664337273004,-0.00461548629106905,0.02676690742349372,-0.010146118423161278,2011-09-26 13:08:33.249821369,8.280316193
49.0077147284109,8.440292046761838,114.39719181339547,-0.0015252931309072335,0.01618822685306928,-1.4395192514993975,-0.07744376532283681,13.864795828194907,62.28869869635735,-0.014321405378038471,-0.23581469614810924,-1.2109615690716613,3.0764345761022094,10.631953953107976,1.8186858334494287,0.6798013884769895,9.996780520874712,-0.017409348710559935,-0.214628016543963,4.007669422062666,0.025310987745768947,-0.02176707976391473,0.1250776725965513,2011-09-26 13:08:33.349822981,8.380317805
49.00659918697152,8.438444083506484,114.62449815314037,0.03846849183010524,0.01628664559123339,10.527220008770753,19.75250799174846,-14.830779573716367,21.67764223805686,0.1252123059712394,-0.014725241950927843,-2.5878128976235235,0.06116418997918527,10.232426332254768,1.2784251335023191,1.3019894021734502,9.550044821303661,-0.05303774048305126,0.004214997017494516,0.04982952728052818,0.1915150754993637,-0.1293086343064064,0.2171094966721487,2011-09-26 13:08:33.459804761,8.490299585
49.008690135360574,8.438447653834393,114.99766229532696,0.047440805738083985,-0.07642710064977654,0.3122636056440766,21.75625926930313,21.906239153583115,-7.65776308777491,-0.09023276834545957,0.8032041170447207,0.09407409196132555,1.0661962999593753,9.932444408032213,0.4747088316369045,-0.3007741678951933,10.526210407576581,-0.016138194086091948,0.006179844793008621,-0.07181362153878312,-0.037668110199911634,0.036094742309037434,0.052164722801205196,2011-09-26 13:08:33.559804725,8.590299549
49.008591375328805,8.42954270794402,114.54172861656164,0.01351908241732707,0.029118099554219554,1.5825443442192655,29.06031000858288,26.162940679917746,-3.0561340255569966,0.2170630127665545,-0.06083903526608188,-7.378276094765957,-0.48750075922482006,9.448420168053188,-6.002846158307699,-1.1809919595211462,9.710069637889758,0.08097112114923789,-0.045687676391838766,0.3419597657919217,0.010598310926196671,-0.06963805440641853,-1.460806100859109,2011-09-26 13:08:33.659843956,8.690338780
49.00689058304011,8.437398120661674,114.95872757963545,0.10034724922326266,0.07076859182844386,-1.9792734064873032,-6.7700400604985,-57.47914777239919,55.36898946671731,0.26110506446799947,1.1903634142615127,-0.9144422978895222,2.9580852303685634,10.114219868518955,0.5410550378605663,-0.8225087689226489,9.425751907099155,0.07207595708561236,-0.07306332487302887,0.03471396087765719,-0.009542795055112917,0.04301372216681218,-0.39716827188043524,2011-09-26 13:08:33.769867319,8.800362143
49.00781556347781,8.434173837334477,114.07583993162112,0.028595996474621146,0.028402793287226773,1.3327140186604196,-56.741833996267076,27.821679033742043,22.890400857981376,0.1856872287270838,0.39464439025704157,-4.020716563442498,-2.6251621775169456,9.068929420414362,18.605330170937272,-7.655578190763491,9.344963682456164,0.24334770727460397,-0.0631170357814772,0.012409633550066562,-0.033049059573891856,0.027392375829932876,0.35465362086391816,2011-09-26 13:08:33.869857978,8.900352802
49.008684891956875,8.438991548696537,115.63639807040973,0.0884753354852218,0.04003810699108287,-0.6603162886332572,25.056887483525063,15.368101529195624,-0.10457378920910898,0.09050399206826615,0.214707856422086,-9.287377751425433,2.0270658825149273,9.821068622113476,-7.530866312294055,1.5486822346732478,9.647393479486158,0.3499783944167313,-0.01768165827856689,-0.3617790682821439,-0.03723796604558004,0.008472805226362519,-1.1728070896985119,2011-09-26 13:08:33.969850605,9.000345429
49.00888613714979,8.431226609545144,114.58090986863742,0.1080832385584786,0.00011925596385192402,-0.03671141945689238,-14.04063578748121,-12.321168249674649,-32.42346259303655,0.16347272922853864,-0.2769456991757853,-3.784425278775673,-8.104752762343928,8.259806085608675,-24.017798181261913,-4.0534533806334725,9.505391831995444,0.013621336730875217,-0.07985546619561232,-0.6389658834828246,0.0570783002672198,-0.19527386311566922,0.546533846602433,2011-09-26 13:08:34.079875512,9.110370336
49.01056772775764,8.437922162352775,114.54636895995976,0.08195093692404802,0.013638436083546786,14.655446632817037,-24.365949204211333,4.604596152239374,52.575334272344904,0.33747398217169067,-0.17521185760337732,3.8601948396683508,0.2481164203274157,9.927293091367803,-0.37862469657106707,1.8159095301879982,9.983646099235973,0.04000049424595181,-0.06386109765020148,0.5474213850162728,0.060116393365391,-0.022679521313943928,-0.34585444180997243,2011-09-26 13:08:34.179857906,9.210352730
49.01068803529697,8.436774341011663,115.5354287579991,0.054997645789401674,0.02805532529446183,-0.7110815570002029,-8.286322439407556,2.7442511365544586,0.7440910713538926,0.3858011940424052,-0.11202182728610752,-4.929804524778111,-3.3966939094640183,10.121973130939777,-1.3576236498454624,1.7913757322695942,9.665710187193547,-0.017373752569554705,0.15659449774438194,0.7282165344347363,-0.013183279515870592,0.02170209937588529,-0.39810082984347034,2011-09-26 13:08:34.289906739,9.320401563
49.009104169980205,8.43893452167383,113.93432314664885,0.10028362207745406,-0.06911253794966518,-3.1214867171586835,-44.70717173970421,69.91033375667244,6.240415609435063,0.3256065233068166,0.11646308204293286,-2.4507369812581414,-1.8513111992254137,9.614848606990696,-14.102045498654595,0.2925593433077005,10.50950400345506,0.006431150969585454,-0.4520627723849256,-0.26602839705757814,0.04145467335958716,-0.03178214753525475,-0.14670948607324052,2011-09-26 13:08:34.389842274,9.420337098
49.00972702851349,8.443323396404557,114.23878301603087,0.03337821603630452,0.01677118421146983,-0.4979360435791006,10.228622367483608,11.030646056153605,0.3193700019336436,-0.034380852530481676,0.005563263104336004,0.4226905513804598,13.115665616797092,10.049911412937348,-1.5317682756049582,7.149669152254459,10.510665682301024,-0.03999219318718396,-0.039248560629521215,-0.2783334052231867,0.03424496550346212,-0.056707533647721256,-1.1318073280529217,2011-09-26 13:08:34.489878350,9.520373174
49.00851428862935,8.437298087136915,114.23135651350141,0.03922312339454448,0.00642051854812317,-5.901080870267949,-1.717874406803277,12.53105386640074,4.26234481053392,0.15546420330500083,-0.12004276408133023,0.020883454136741808,4.2196825218326115,9.242457244700995,1.200671884136217,1.1227435538854929,10.572228880299042,0.009995797287818024,0.024713716014179037,-0.002694020110010336,0.15773505883344371,0.06139938003969167,-0.7135416041873753,2011-09-26 13:08:34.599907497,9.630402321
49.00824569676981,8.436994899537659,114.45929702580986,0.09557698192628836,0.005822144892512518,-0.7512985135557425,-18.155881857333195,7.893624641126971,14.99708982000996,0.1360648856522021,0.5958667543776771,6.794668347345228,0.14909845101588803,9.64155259229188,-3.306741480680026,-0.5083098898963704,9.206563006274992,0.02670012784529107,0.09172701952351821,-0.4744612055855087,-0.009093405053846544,0.05873730985095603,-0.3340494182667928,2011-09-26 13:08:34.700042032,9.730536856
49.012273550178534,8.433808661075822,114.68051803683582,0.08966907954349126,-0.008945429643348662,0.9447574982182045,5.288553174514702,27.533344705020387,18.60440086994111,-0.17808886004359586,0.029307090150960627,23.482777172647616,0.04206495203456728,9.826632458147724,-4.262767784988672,0.2163625472409354,10.164367146405715,0.021097280193688978,-0.04164236543499979,0.2528058217013389,-0.4096540390464925,-0.02914522007957871,0.31824564798772814,2011-09-26 13:08:34.799900841,9.830395665
49.01077397316047,8.438105140055383,114.37992672914957,0.06507076092039764,0.026850826975610552,2.024275164152309,12.55969573422312,7.589259655372763,87.39453848783042,0.19050350268612642,-0.0873254483949249,-19.123368974599135,2.3385222821993543,10.01654745339788,-0.02305613065318822,0.6249142951867557,9.21737229316836,0.05658619945091601,-0.020643241828592437,0.07944218121728006,-0.004293059085111391,0.04533079171505917,-0.4978224989089402,2011-09-26 13:08:34.909920500,9.940415324
49.00880422511223,8.441882148579259,114.49576399422294,-0.0024878145049834002,0.01223272034339262,-4.290796113841865,28.010960254833346,21.32206385717653,14.501429378452137,0.10951653142597569,-0.013384805433463043,2.8238449522751146,1.7319407189502332,9.741474951091503,3.604806438915402,1.194212780965135,10.867686335358439,0.009427640246881558,-0.04343976715181062,-0.1343540870254179,0.09861645706476097,0.23432952110346605,0.3434196957175375,2011-09-26 13:08:35.009910526,10.040405350
49.00691615475279,8.435199075338634,115.20094421792002,0.04315867046126619,-0.012234136454186728,20.94506483787732,-5.204506717050869,-22.185395568928875,41.953512701282996,0.5946708201889094,0.028925721981667887,-2.202521341466645,-0.5743381065160167,10.222972845115272,3.1570906330761774,7.510296869714722,11.064414633173506,-0.026525217171312006,0.11620067599397427,1.584070398191997,0.02250712094830889,-0.04372721918778799,0.008054968448619394,2011-09-26 13:08:35.109899747,10.140394571
49.00858000012776,8.442107768372237,114.36871956409506,-0.032421867575711215,3.6983554447766326e-05,16.989303500566095,17.358536490267547,10.142660864642403,20.45737878615548,0.08489779503813112,-0.045490869954024314,0.009578821555620738,-0.3374363903327656,9.986851058557669,1.315243725797476,-0.8808798984772779,9.907954577098003,0.05154264565698814,-0.05976447656051057,0.2037615579283704,-0.012493654147900553,-0.056728909370095885,0.2088479095883769,2011-09-26 13:08:35.220073934,10.250568758
49.00932163636578,8.434370148996774,110.48004243352571,0.08105937292559631,0.04222698500585488,-30.277221580990997,60.59778960934559,-3.167760878638928,25.662520999175644,0.36382683105406943,-0.6476422033868421,-1.4987561162589744,-4.8435718083406885,9.993177388733491,-0.9152346474522338,2.9239056952339926,13.867321134693047,-0.04459609216724354,0.013623790897098682,0.19381186487716487,-0.06335935179756284,0.011790497504943109,2.3015806755650794,2011-09-26 13:08:35.319948450,10.350443274
49.009405379228674,8.445093977492638,114.98304284752419,0.12791461848313945,0.007377269489656311,-1.0965753697357443,-8.797246558460108,10.922099692819375,-1.0623228009062213,0.0777869009370799,-0.007845387320888339,-0.30643458040328675,0.6667020633157328,9.937108261081955,-1.6802019620476314,7.293446532016356,9.231416672211775,-0.037601788231635694,-0.01890556963662146,-0.0739516948661075,-0.024435340934606906,0.07636585020566056,-0.5065311677550896,2011-09-26 13:08:35.419895503,10.450390327
49.00901480445635,8.446180851073931,114.52042424808482,0.12790288467614463,0.00851509722701031,2.993142248571809,10.81882958073334,15.937238770075552,1.8979194047976602,1.5302222768351461,-0.2772084767251173,4.3136929400846595,-1.3495783003627806,10.283491914197237,29.0748599238064,0.3928829592162575,10.619874574481477,-0.047695230496747405,-0.3318758937114315,-0.43172578505422565,0.027194356000583942,0.08585782372481,0.018194574528364336,2011-09-26 13:08:35.529921120,10.560415944
49.010466559656294,8.437703681132364,114.92112513719815,0.11809968895010406,0.025744499195730346,-1.2938642090240777,-9.583971837725295,22.574469994621417,3.515756111447306,-0.9797266585749498,-0.3513736703502229,5.129160668826245,-0.6338226635435862,9.885322191898473,0.3381283331279278,-2.8579124963390243,10.072574551518047,-0.09645348111861576,0.02551941914966319,0.06854834312726849,0.001362998136694108,-0.05483866530117663,-0.03936168108499303,2011-09-26 13:08:35.629929612,10.660424436
49.00753224429731,8.42291968988113,113.91279684451465,0.04700464809087098,0.020909207378442804,0.24815286317616686,31.12024719895586,19.021665328019736,21.709655466370336,0.206034555531332,0.1320848997857229,0.482278490518945,0.15808697187667575,9.711210868174053,-4.420259522287116,0.3492102940358396,3.8040388267006318,-0.013413415622398898,0.0352257104995487,0.7048405733797459,0.01131303759224326,-0.00024148484288992987,-0.05042388524644338,2011-09-26 13:08:35.729936762,10.760431586
49.007441034971855,8.434306843459703,114.11625684033493,0.06125132149645267,-0.011666284687455685,-1.783128429187035,-160.00275478858646,16.81692761768035,42.09573251116678,0.1577033978025142,0.04285123626762063,-1.5256094928976287,-2.0451778105237595,10.840714126272507,-2.8020138705763857,-1.825990718204101,10.45695876668625,-0.026253390062388766,0.2029174977684895,0.026615802096511182,0.013262990886520762,0.05807349692788326,0.8357018851012273,2011-09-26 13:08:35.839949374,10.870444198
48.99868893805988,8.439410508522029,114.30394395796537,0.0589604799573018,0.008851208919151317,-1.0883911530255013,-5.371319890271122,10.822173351978238,21.575003374831315,-0.2127407246384573,0.04048096903385353,0.8011145863826588,-0.989162100184946,15.346530081603781,-2.7028275762699048,3.761398970241427,11.147596485831508,-0.0014776090811595768,-0.04932663825888847,-2.6394512518084414,0.10011183741993616,0.059316046689082066,-0.43178605832258343,2011-09-26 13:08:35.939908156,10.970402980
49.00929812140788,8.443753134715562,115.1788801751414,0.055026079294574884,0.03887805156130641,-0.47717597214836804,-11.53503080464061,15.741343175572972,23.756276738322036,0.6724150535489729,0.05105668602167429,32.10178847252345,0.4679121644911579,12.14261793865418,-0.6397264278368191,1.4493332628475357,8.090794301253675,0.02066560740287484,-0.023729139772935892,0.29487486623245046,0.027990345479378363,0.055651595087489014,0.04085537058813884,2011-09-26 13:08:36.039973117,11.070467941
49.00587473306977,8.443068444603039,115.9964503966202,0.02799455326368882,-0.00014028442298684267,4.521601577581934,10.741101638221373,23.623871748037768,21.806256008757387,0.004661251902630781,-0.2993757852350789,1.5354932377165225,-5.744126124537841,9.398283356366973,-5.855771723750136,-0.33506924611459105,9.705059527254724,0.02073160661086839,-0.061886229065357505,-0.04212217496244976,-0.05006192667090453,-0.35891598017816084,0.19123594048286835,2011-09-26 13:08:36.149957574,11.180452398
49.007065829309816,8.435457989681746,114.3737161363889,0.018474339585085292,-0.08346546986838585,-2.450755972479937,-6.23656954205015,-8.280286508269374,-8.095665568379417,0.2647229046552661,-0.0065851383834145474,-0.7972437869472384,-2.372468652490511,10.77947293400322,4.5063160580257655,0.5211415361074794,10.491251008290654,0.03885374213934724,0.005255231936460564,1.158623420851413,0.029691536162190228,-0.045927700926256115,-0.1693001230658112,2011-09-26 13:08:36.250069811,11.280564635
49.01065168913655,8.43891625437217,114.051791765076,0.027785346160433582,-0.013208832754760966,0.8008072627181493,-0.7780465393571259,9.974019989890746,-11.925133242842671,0.08800530034637458,0.21671364928678727,-2.8353611590254384,-0.9974653767275401,13.722218514602446,-2.1668598970019834,-0.8606533482720843,10.108654499227983,-0.006107279117768036,-0.04176612156221601,-0.4025514191905771,-0.0566250166781863,-0.020883577393911057,0.25228080784857176,2011-09-26 13:08:36.350073610,11.380568434
49.00305563962995,8.439639426417477,114.81838869758116,0.018533203026868342,0.03349916370228966,2.1242804533830455,-10.541227078889854,3.421911567039232,42.70860093138123,0.4902450139886363,-0.3234351023758481,-1.3689538418200033,2.1896719738059773,9.892627969402993,-2.9960398346646526,1.9618880782427974,9.531869322870234,-0.032473877023431214,-0.01696852760317924,-0.07984746932632006,-0.02785191316021772,-0.0212915686513418,0.3642281891383472,2011-09-26 13:08:36.459997720,11.490492544
49.00916541930539,8.439273296874708,110.45003882953773,0.027093931942822946,0.01118854522336387,0.9690378805458173,-4.88406319073837,-1.8582140793753457,23.415103321620194,-0.14895092224028286,-0.19493839206231575,5.203744047320582,-0.019464765962108,9.611183813689514,-1.966873952128907,-1.3366942956350076,9.062983507695082,0.004378366141757714,0.030853773515677134,-2.0188661265452175,0.087128152402972,-0.006745330905983995,1.1714307917989202,2011-09-26 13:08:36.559933429,11.590428253
49.010562281218526,8.43583735745603,113.88850269889298,0.06066825892987347,0.033039483151884846,-2.027957284751317,7.9845007577617775,5.281517577938063,8.392911242753334,0.3274702979225269,-0.01242714210477916,6.669077594896959,-2.4765160039245497,9.347094385573229,4.992381133190414,1.562480477365084,10.409035195472716,0.04774753418021383,0.058149122562143045,0.07438413632361604,-0.022449908421166204,-0.016938398088250248,-0.1316686823166309,2011-09-26 13:08:36.660025629,11.690520453
49.007413079632805,8.442813183482727,116.17298647784888,-0.06413588043572194,-0.08210780559717203,1.2662845677995662,-9.988055480763526,15.364080281861503,2.941154392137367,-1.035403410649995,-0.026805217994919396,-0.13633749891435015,0.13534740625071137,8.95313609720819,-1.8114318493943125,1.0480025216825253,8.333451604667626,0.001130150505825437,0.05359838087819165,-0.016192564373603575,-0.027544651250211296,-0.006435475701416936,-0.06118904124667846,2011-09-26 13:08:36.770004895,11.800499719
49.01041666925193,8.436478209055966,114.17529468295412,0.030279468109720806,-0.00010786563494750295,0.6691585829457827,-7.2745781429761625,8.014420252862147,17.083677249606726,0.27704718115071114,-0.21662995094147747,-0.9970884009385309,-1.2139339101642679,9.888268866634924,0.1621797615680589,-0.9893925857926827,10.22373122653429,0.3665466994266122,0.033686600598480186,0.3971219795110791,-0.050233888022230014,-0.02549919311470819,0.5851964080771492,2011-09-26 13:08:36.869992373,11.900487197
49.0096828664866,8.437488112577224,114.46498424363494,-0.00591406001086205,0.029990594419740238,0.25457608659406544,-4.322334314231797,24.215612250777838,6.170541289853757,-0.413209763298888,0.11266137981986266,-0.5981481698015995,1.5285344406224863,10.572790092877323,0.9738940763451126,1.9287248686555318,10.502021688967124,0.012441081770344517,0.002486915575770184,-0.8118381534275716,-0.005405649561984521,-0.04698290317389378,0.335699545904412,2011-09-26 13:08:36.979985111,12.010479935
49.00778832754418,8.430337319065572,113.9253358205086,0.04579587666972465,0.006785185023834403,-0.6504253398483443,-14.230748548243906,15.53375793362448,17.07636446688951,0.06339730554498015,-0.012217800476980338,-5.966139294754454,0.614474334372836,9.486181052324282,0.7474536172345805,1.7991083153189902,9.915365221689926,0.04147026377142449,-0.20910092578065323,0.11709333744232042,0.010201352420467512,-0.1015940841432313,0.009723767064459106,2011-09-26 13:08:37.079990777,12.110485601
49.00867953990912,8.43536718428395,114.25570609170815,0.0723435055403181,0.018381399931139,3.1563540589864205,7.202157273044615,121.88405560720192,28.998209629781314,0.12395197981949488,0.033791746179770855,-1.7616055072855026,15.813773481033907,10.299672112250436,0.4120502089646022,-0.8594625210080045,8.870023280684364,0.000723656563075617,0.10180522533292773,-0.10951469893955375,0.03397747814625658,0.022573983835758968,-0.26609509008133375,2011-09-26 13:08:37.180202130,12.210696954
49.01027900526186,8.436042434804438,114.59145284247651,0.043716009341872517,0.0037696256231579163,0.7875450135766506,-20.107304945272414,19.735964711263982,143.2366361141277,0.11544956224364539,-0.08342405425601825,-0.14318015588166105,-1.5609597767903471,7.914641926425157,-1.021779855678152,2.308284735152907,9.511832838600101,-0.19164365920074278,0.04315237729285325,-0.006820170304378915,0.143338477174733,0.060180908787686,0.2715719900180101,2011-09-26 13:08:37.290073010,12.320567834
49.006552232630774,8.439374163367663,115.01063650553348,0.004372401112362197,-0.04983828518210864,-1.1283567304713622,-6.216323506692676,13.484039647671894,-6.713113148729343,0.33879466632859007,-0.1302333386913604,-0.77679574157287,1.489029531355482,9.482627918768218,-4.3294869521882955,-0.09877422885640352,9.318366698512252,0.009212201742459823,-0.08348625957603163,-0.25322631391455525,0.008732238810109864,0.01857235160544555,-0.18550472385189382,2011-09-26 13:08:37.389988671,12.420483495
