lat,lon,alt,roll,pitch,yaw,vn,ve,vf,vl,vu,ax,ay,az,af,al,au,wx,wy,wz,wf,wl,wu,timestamp,rel_time
49.01825582971679,8.410762267965447,120.54356326132002,0.11457451467934199,0.029823400619541533,1.4966409208936693,-6.334691439304983,-6.7175442124281,5.876900204863443,-0.4758603648719795,-0.23424703670963262,1.0019550968970437,0.9022704725807431,9.884952949964438,1.4445818536497215,1.8159546847754446,10.152429977722237,-0.346745806130058,-0.05074010881477167,-0.7595984915603569,0.11462789041517601,-0.16234049694245273,1.124819978933555,2011-09-26 15:40:43.441822891,0.000000000
49.010090591620646,8.426943127892704,118.7875399295971,0.037973275148280125,0.012572228366352522,33.75734812669131,8.544162665101833,-5.732257282634114,-2.309498333827607,-0.15410678465546918,-0.10585619884181353,3.9562607888693124,0.7557063667877668,9.490584521340791,-0.29525252791506296,3.942446426886878,3.962347886097433,-0.05436359312229369,-0.11676945399467749,0.7174562795275701,-0.006233677846800293,0.0033848821801778645,0.39452262988794956,2011-09-26 15:40:43.551805867,0.109982976
48.998874414941824,8.410569371706945,117.32230298358606,0.07044382502806157,-3.5145147953613435e-05,1.4684349633139933,20.022847470882745,-5.163531863616017,-0.15041149942682974,0.4817945190890329,-0.7205127966455683,-0.5749075162529511,0.27002959766059387,10.997650422246688,-1.2241340918632835,-1.7045820880810396,10.398269839631345,-0.0216748004768657,-0.04234341067333186,0.10705982165366934,0.026434465355309023,-0.3993355055164327,0.4052638655379429,2011-09-26 15:40:43.651817589,0.209994698
49.01412512701502,8.412184294232475,115.50495669952797,0.03945484791832441,-0.014645432028799565,1.649089790294775,-13.873718427852278,3.509863065974728,4.546599646262684,0.23169900401556356,1.3671242471637137,-4.04217940981703,10.052960503279415,11.942344252156808,-1.6237258641303136,1.1860319993343025,10.381085785165983,0.05590378161803705,-0.055871789387993614,1.8640981517854454,0.042295162621721394,-0.003967381037322741,0.04451828577330748,2011-09-26 15:40:43.751845204,0.310022313
49.01311149121816,8.411860232542159,130.17192978773804,-0.17649168076212085,0.042356841739953306,3.7215220604823953,13.451821098156278,-5.296984389006378,9.782996277641324,0.11877624883676341,-0.06419329616457099,1.2947232863528855,-5.203301732012827,10.74401886290899,1.2386310492517316,1.002806955126788,10.206131646313663,0.07528107337297502,0.11546213730844011,-0.27979323364938347,-0.1939040506401734,0.003356081142360137,1.0500271014415055,2011-09-26 15:40:43.861827396,0.420004505
49.01286762860756,8.407468914541688,119.9485027466921,0.015638094041091656,-0.26721038615656334,15.889430123034277,-56.10464852764546,6.790244429885679,15.448820679762882,0.054826631400627886,0.08559836008867935,-0.4331537371456027,-0.22352985592122915,8.867959675279444,0.5388527236599758,0.8526775480877798,10.801211212160045,0.3024974407107792,-0.07190522603733387,-1.7583894149723767,0.08521874261798,0.024877989914137873,2.157762244145916,2011-09-26 15:40:43.961896217,0.520073326
49.00970361451131,8.403200722373333,116.28527907003522,0.18079901052154337,0.014432997140781893,-0.255016344698505,17.30887569078075,0.18660925096731984,17.204372732866638,-0.026187612021730006,0.26990387086097545,-12.468472826205568,2.056908091961759,8.628439810268553,-1.553825886432777,2.595486885618925,1.5126268116208657,-0.047610791346559565,0.04115795215814599,1.5929919879976409,-0.05110264332570139,0.12874528214733685,-2.4775230752871344,2011-09-26 15:40:44.071825584,0.630002693
49.011747114276595,8.410508172365613,127.06808345679691,0.014755091781243094,-0.009476873920541426,3.44192672325375,-22.764770415923778,1.3018273977432893,13.432964982769438,0.26731693454879074,0.08756820571946669,8.592564020730734,-0.2105387677761949,10.940592361523606,2.973653757855309,2.4966581423563943,7.916419650070576,-0.01018099366027091,0.009006849486267551,0.1820495121301591,0.02110270150335282,-0.1030817714774089,0.0463642705809978,2011-09-26 15:40:44.171917822,0.730094931
49.011339172398344,8.411628345463585,119.12647153885649,0.0728786176830995,0.06198989273553486,1.481762781534008,15.610134599945674,-2.4828486561618983,12.704643669603215,-0.0995394034507863,0.13300848320423841,1.5946151173244736,1.2360130006621606,10.169753689160062,0.7109018087318881,-0.3595263028245202,9.147050721050242,-0.06522666672063329,-0.010554819946664993,-0.07418284984503729,0.09303032825470856,-0.08692524695999956,0.061022071300916275,2011-09-26 15:40:44.271894585,0.830071694
49.0113066591574,8.410538523838802,117.96974335410194,0.05248122088292911,-0.016530046888090448,5.070985925955182,0.6955101791281271,11.496345856535905,5.813634310413356,-0.17972981251987813,-0.0352177268732751,0.3243288635969792,-0.2572794409420466,9.437710972735962,2.7746157948308947,0.8123948201113622,11.849124154591683,0.12280783678551216,-0.03874848380882938,0.575198522700908,0.027163348178297797,-0.04649068544103815,0.12942354569305287,2011-09-26 15:40:44.371810112,0.929987221
49.01056507046788,8.410766885135159,118.000641098493,-0.03483276426685365,0.02943391393632593,-0.6739008837231708,9.913750256690669,-1.346138788255435,-8.400256064511254,-0.6490681317456397,-0.06939153267835581,-1.5182372614825201,-0.09777122289905604,9.541557111267068,3.514330239299861,-0.32887335604186896,9.22569570707127,0.023735361303068324,-0.08734933421052779,0.23475101459029019,0.11186510900944471,0.09121401874562526,-0.2468791449611277,2011-09-26 15:40:44.481821827,1.039998936
49.0109392971204,8.411993012928217,118.40346890388484,-0.04570800868417804,-0.26438814706239055,2.493096058448023,-25.144766393766133,-1.6810471192497358,5.138226096381143,0.09684168651750787,0.4897300945055715,1.4486220824658282,-0.1296241793618883,10.14914877432895,-0.4837351688834245,0.6818152468234691,10.48739225055382,0.12239960287863472,0.044362874925698854,0.3743605914054332,0.012180019860668738,-0.008937715937215068,-0.038032943632136884,2011-09-26 15:40:44.581823088,1.140000197
49.011554192942945,8.409676130703234,117.21255525479376,0.016467408885204857,0.015397903281397975,3.575031723438248,3.20394471666488,-5.777710517419253,-28.01361962062916,-0.019678750773971798,-0.1849008507985902,2.09424583199721,2.318708458575303,9.624629398729777,4.472615291841923,1.068092246345739,10.669668309817084,0.03367332961015261,0.014971649047788034,-0.0432503632233516,0.0010807913991692716,0.11396668771496067,-0.5508707184794103,2011-09-26 15:40:44.692011047,1.250188156
49.009063104728384,8.420080472452218,116.32349034053834,0.0094208577368377,-0.014821394798888922,-6.148489081566837,-5.867971299512013,3.4167777060758704,6.8042709985995495,0.16249923186765608,0.005929526081971906,-1.306488017662262,0.587146289587362,10.03458499913923,2.424008073593258,-12.630120223195306,7.450553686184927,0.22059707168376172,-0.08089242290284925,0.03699742670496577,0.008828481485376346,0.008402125104541441,0.3989776620228014,2011-09-26 15:40:44.791805903,1.349983012
49.010886720433234,8.411984762641485,114.59848485916699,0.11125311500218363,-0.03317614792432412,-1.2113677819714674,7.87737017091376,6.223865953835717,17.087187389014773,0.048524690980012955,0.11496716437853946,-3.450856337720576,3.49652861322487,8.264118764451036,10.125513147465815,2.9409588257997976,10.16100013726797,-0.007840495546545067,-0.05461775932144834,2.919089835088169,0.07998398135078183,-0.00018186541611972182,-0.39887546464785,2011-09-26 15:40:44.891813092,1.449990201
49.01544428847923,8.412681444060398,117.93322136669896,0.01031227629282996,0.009256783403804234,-0.0808447476294174,-0.4138530061607524,6.048137183523626,-1.7249912536983656,-0.02965604513915538,-0.1800426793696701,-3.276803743460225,0.8910068177197136,9.08456467083405,0.9218671894614698,-1.5745546546597806,6.478538166034111,-0.01941965657882755,-0.04585624088675273,-0.4866710437874677,-0.29566357766772666,-0.02811364080775365,-0.33004563356987193,2011-09-26 15:40:45.001860833,1.560037942
49.01097826708894,8.399957999461721,116.01294663698228,-0.020718970231104687,-0.022223295604963278,4.176092266624994,19.657620630829115,12.394189768398732,-0.20368389982292623,0.19318344133710458,-0.05672703334651143,3.6555381856719524,-1.849410091031817,8.100161865765136,0.8525839812558268,1.0684750156057543,9.346297443985472,-0.03660527064600822,0.012824950203792271,-0.5000113239042592,0.30816320429647687,-0.0061522068812349,0.11918650381621546,2011-09-26 15:40:45.101843013,1.660020122
49.01115113552981,8.411212581276438,114.68072347202727,-0.02970256801211113,0.023481631143835814,0.5534327158936145,13.527233022672707,-0.6981500822995665,2.983077158259706,-0.1305786975277359,-0.01444770776629932,-1.1757471065276843,15.966646563115955,11.034179993800127,1.1037258621714126,1.7205998345208617,8.936761356123398,-0.042192004159340483,0.04424487340242574,0.1115499852631312,-0.05543405283935776,-0.033112792842549324,0.09599950858659925,2011-09-26 15:40:45.202019634,1.760196743
49.0108098117826,8.409074446992587,118.52491112190512,0.008147049683103404,0.0358217870611808,6.7102526855901505,3.491528188435053,-2.869989742868206,-5.346745503356333,-0.06957183603034779,0.11315215327125791,3.6274086101299106,1.368326121157081,10.574408824329034,3.6117927089664543,-1.9696817384235368,9.118092749902106,-0.06529461881431291,0.16403417012001792,-1.6579961532628509,0.10044863367459561,0.0278340923499942,1.3748465625018078,2011-09-26 15:40:45.311837869,1.870014978
49.012956961220425,8.427307778338115,117.66898213989062,0.0005625914582394892,0.03470570570784775,-7.147266662904835,14.45750497750195,-31.318496413930063,11.134019613442167,-0.11946721016216907,-0.1473091634685379,1.7745563813364977,-0.5014238071899858,6.997108229310852,-5.602624038148707,-7.412989448272214,8.893094235297879,0.12757402326514783,0.9206712403453762,-0.4302672237809269,-0.007448647132540325,0.3957901884914658,-0.20818804839190333,2011-09-26 15:40:45.411869871,1.970046980
49.01022056179235,8.41381840953784,117.57657116895439,-0.07062442288391736,0.040184142676375906,-0.5202538558163778,6.874175895672444,-34.59819334691214,3.0192374280048857,0.10511969699331195,-1.7316874584351503,3.8284412108650576,8.446777203375682,8.256187649066618,-0.5339859076913493,3.376366708280203,5.308302148142474,0.05724081645716402,0.04607315407147453,0.964066953636547,-0.01004679747031956,-0.16350659619567245,0.6031431567497406,2011-09-26 15:40:45.511889228,2.070066337
49.011669736956485,8.41247021430546,118.28664144165268,0.09011416526780906,0.0032293841229571706,2.1758245480306284,33.46073022833797,5.685028626955566,5.134046504813931,-0.005269052931016864,-0.1713197866777164,0.22241581767159874,-1.8528114420418937,10.311671513467127,3.469603057615251,-0.0008558167807311556,11.491669027558741,-0.0553856301215154,0.01450082631832731,0.05685576863660083,-0.04071127979062199,-0.05796780685448632,0.3707076241610501,2011-09-26 15:40:45.621934015,2.180111124
48.999439791274305,8.412770649873828,117.97751023858834,0.0558768879746596,0.02068681267950765,0.4028332179919436,11.870318080367113,-0.7630759380901216,9.970592023871646,-1.0815575491399774,0.223313759875961,1.7318688155726454,1.4804545382746603,9.994513012295684,-0.7194025368434545,-0.6110421907471983,7.824926022349431,-0.04342959347512017,-0.37803647233969706,-0.19804318917765223,-0.5704995550797589,0.1177177656429658,-1.1158901691249274,2011-09-26 15:40:45.721959257,2.280136366
49.01057555387136,8.409591072467567,114.1924674414693,0.04596772763204698,-0.02770962666394477,0.25946916811792775,5.551570947089878,-9.997446049375172,4.241255809076408,0.058266030917897865,0.32331522452004735,-1.3599665005106727,-1.3369406322733364,9.528787661732437,0.91317768274136,1.4708990318317847,10.687729608508002,-0.10142735767376158,-0.41913396788052515,-0.03443115988232279,0.3909632711003632,0.06469156159956808,-0.44569449144773216,2011-09-26 15:40:45.821924214,2.380101323
49.0141781698378,8.409386210368204,118.6295940103634,0.1055365841764758,0.1719775349226337,-0.8456443517614609,-2.5253778828636566,-6.352600912666857,-3.0094693056286896,0.2529374469323282,0.25875559163007955,5.355336921283399,-0.6833747167194075,9.868887412377921,0.999408245995786,1.6936288770531562,9.25897227109875,-0.018141970917781282,0.03569936467402205,-0.1602654095650496,-0.058878363312975496,0.08100576008179164,-0.21414394864129943,2011-09-26 15:40:45.931949290,2.490126399
49.012581691449476,8.411853284086089,120.90419239250012,-0.18546746757667382,0.02798247452010232,3.9712285731516905,12.046900714932047,0.5464840873600803,20.213062913632704,0.5351848836958496,0.0752475441231711,0.3548589861944588,0.14993469072782684,8.615188557010502,1.599747415460095,2.1441521080610313,8.465894993295892,-0.16490878101803474,0.26941994271354713,0.7231955416811365,0.0011280052025984776,0.04546216136312333,0.1723273601536769,2011-09-26 15:40:46.031928056,2.590105165
49.01101282664356,8.410947179881479,116.68692631881348,-0.1638170212647563,0.0039808712336450326,-12.996009502033692,8.915510655966134,2.271065847084984,11.109964197007955,0.18487622254196776,-0.2818354383274791,-1.0143769846423794,0.4901602302898753,9.90868440228908,-0.7628545840279504,1.651253931111301,10.105075007010338,-0.017332497353029594,0.03228043236801345,0.09332496965249021,-0.6166211294118144,-0.0840941878980209,0.23538753311926253,2011-09-26 15:40:46.131947830,2.690124939
49.01090025724171,8.410145724840243,118.49450671797172,0.16529168402997213,-0.007559805326931778,1.777473225118901,8.863643644197534,0.7671200283398031,-3.1382912621795995,0.03615723106428573,-1.4196670178772572,2.168660435166672,0.919054602956039,7.302588818404945,-0.29059779288793786,-1.5884436149203662,8.266555084656293,0.06804506124658499,0.024837573331467765,0.3296777682869658,0.2478377809060837,0.0018558954000296368,0.08580129218287075,2011-09-26 15:40:46.242074755,2.800251864
49.01316524615805,8.407306887969707,118.11138642116804,0.03375607475684852,-0.002462737537655554,1.0049394269395762,1.8197058434841722,-9.81709075423077,13.34031760113076,0.20023846212520244,0.00048681562130529,3.544301974075796,-0.6359500709298674,11.774449217964865,0.031262889517980674,-17.41683155958507,9.348584520239285,0.1251900886490468,0.006998655901876292,-0.24315626190743142,0.043509237050070926,-0.07850142566035179,0.6121469322284949,2011-09-26 15:40:46.341964026,2.900141135
49.010274068324044,8.410069862870444,118.56176161222847,0.04960744250708503,0.04117237821234764,-1.7201813658585028,11.652262357859302,0.7098640652358023,32.09468043043824,0.10097918519112119,0.144067101058984,0.8217681697586605,-0.13830438036148374,6.178085799685048,-0.03436980288298702,-2.076038020036672,9.12570309104896,0.022316457852089026,0.028300679402241593,0.8840113594140724,-0.030931042889498078,0.07273024976268305,-0.38330655869930313,2011-09-26 15:40:46.451890234,3.010067343
49.010082671010316,8.410017512154333,119.24912204832836,0.049380992487973396,-0.027581189113454606,-2.7685384541404687,20.494529912426465,-5.354807181196611,2.6004201277448917,0.15415526728715928,0.14538411188748832,-1.3201935926453898,2.7068757030711597,10.526996936204574,9.595674678561274,-1.4471608991205946,4.679667998797869,-0.04583364644879893,-0.06814906699899552,-0.1165738036364088,0.10945857458585681,-0.040760060622191965,-0.32689827928000165,2011-09-26 15:40:46.551980924,3.110158033
49.014699776768,8.411388131127056,117.8340913002728,0.045385440751455716,0.039722956940577224,2.6548164918929977,17.04298625343085,-3.1271116510462713,0.15489358890710836,0.09401057110695898,0.1358198969341016,0.28669360231234886,-1.25742652516371,10.060081763667887,9.96378775066802,-6.380084453961009,11.279009702103924,-0.00038252545865473733,-0.017486923226631007,-0.6787827310702739,0.09545566936126465,-0.10496239415997613,-0.14343526395178552,2011-09-26 15:40:46.651983925,3.210161034
49.01081297504443,8.413160274356612,120.88017335262016,0.03365133360212545,-0.03206224853023765,0.6654639800405242,5.520991749712648,-1.0988520133563933,9.866095747442069,0.02244816454660626,0.17913973661303406,-4.990963021803737,-1.5103196983446066,10.18041015752589,1.2753897235333886,-0.3733520111790887,10.670772122638276,-0.044729361958829345,0.025077343867428305,-0.3263272814292786,0.023405351713128943,-0.024996113515200483,-0.7264394455983169,2011-09-26 15:40:46.751996236,3.310173345
49.01223817014181,8.413645273654973,118.70383304933189,0.08302638611678001,0.14315977163217034,-8.749493324779474,7.667072388154521,26.451484743772536,5.547315258858992,-0.18428837962825514,0.09050627781853868,1.4088548459747263,-1.1368232460914325,10.175881536546193,1.5831833563631377,0.7583099434305371,10.22116657365906,0.08627852399887974,-0.03185226689735313,0.1314175732248909,0.1880349250889302,-0.009134758363312769,-0.3743916291043251,2011-09-26 15:40:46.862027067,3.420204176
49.01366259367388,8.411809292915493,120.69271909119577,0.0036523070221002665,-0.0021733697395829527,-8.234237105566049,4.002833481721408,-1.980914717327004,6.900683460909832,0.08168962826596197,-0.013660431240144114,1.9594549366669958,-0.3803597028472666,11.37188634174135,-2.7057034214933195,-0.20044818989080368,10.301661703672623,-0.02076408325795704,0.058804209777433974,0.9009188229573799,-0.004834632917488174,0.5303631756081897,-0.4910044069819422,2011-09-26 15:40:46.962003225,3.520180334
49.00978495517484,8.413295408804007,119.94121452933668,0.04156218249942499,0.10445392437210169,1.6717984473976732,13.55797014988267,3.495426230693141,41.91842423228992,0.041848970145038654,0.25503762778405686,-0.7796738868427018,-0.967943875749377,9.078223643180628,3.1467513158363807,0.35719750707084474,9.374711588469223,0.026754272525073553,-0.0721361910647776,-0.25262354621643457,-0.09040394799753405,-0.031825442032381863,0.9765133797681229,2011-09-26 15:40:47.072053344,3.630230453
49.01181319353927,8.411586022200717,116.62660676536056,0.06879697688822249,0.002596587552648775,0.2732032532051418,6.771591282170749,34.93552747572674,1.0809556629855335,0.42729282903978105,-0.008916675266231126,-3.541295534476883,0.5017020231234604,9.12437245744201,-0.661841487723646,2.1908850638433575,10.458093081651278,0.3335865229295338,-0.06869138095447935,-0.16276028806974868,-0.0007713281803453931,-0.07681930900469705,0.010396491557279567,2011-09-26 15:40:47.172048973,3.730226082
49.01009663164259,8.412310411237874,131.7261086103008,0.09702041460472927,0.01409004625409399,1.2693543344735256,8.718214034565907,-3.029519922818758,-16.865377289293054,0.7900412202242275,-0.1336963825991267,-0.041875682409119375,1.0282979188534411,9.3841098817742,10.495700981121546,0.30702031960462045,9.742492501492842,0.05803004854961377,0.34821217395426274,-0.011736037196451908,-0.040986845761728036,0.12878243966824549,-0.5163767738610371,2011-09-26 15:40:47.272149532,3.830326641
49.01279078629217,8.397497798034715,120.04635527944568,-0.06410889093879452,-0.02716188653380286,1.866200280808895,2.74239737314028,1.4321608597192839,11.451368209879224,-0.16195314365974872,-0.26358089791249517,1.5197322332913115,-12.007209538588619,8.375903491038589,6.548344400780187,1.2617273759377596,9.72277641976883,0.020532837416096218,0.3824378133299839,0.1242743069859501,0.027411365007020908,-0.08464406551679797,1.300404661158602,2011-09-26 15:40:47.381935524,3.940112633
49.01208112568783,8.426846097214398,118.01355632065862,-0.03656732476002891,0.013248110281339593,-0.18556068055139607,7.885172208285351,-5.452507906880756,18.40157036046528,-0.25183813043478986,-0.002017638373810818,1.9999075876081627,3.5343734809204994,16.679034177346125,0.4493649195558601,-2.783534447797834,10.192343405390494,0.059105042623459225,-0.06784452366776927,0.08650211190254525,-0.050314137248878336,0.07597782100731461,-0.1580290413162688,2011-09-26 15:40:47.481976793,4.040153902
49.012863575755446,8.412889554107764,118.332865288117,0.10453096906733834,0.024275826903644836,-3.6738482152491354,16.425585052946076,0.062380791771187494,11.733577333256605,0.1815235067282408,0.34962828703480925,-2.247935357420893,3.397345327819738,9.94809677018231,-1.5678864055198134,-0.6438292867103839,10.398680145635751,0.06922327845119361,0.12463824494095954,-0.24090080867343977,0.008512871784599474,-0.049958660874484064,-0.03102762341969116,2011-09-26 15:40:47.581947642,4.140124751
49.011319752365225,8.413072941791784,117.44213288115546,0.1433863474769409,0.001186055040219009,0.7551996542555968,57.38415043590743,17.43209066618839,12.976904008197284,0.2647413961332841,0.6371761540858754,0.4715288068914575,-0.41405529374251115,8.392351116637053,-2.2517544310392226,3.8673069691509805,7.941282620115663,0.0664932273566934,0.018689665906612862,0.7016976222665389,0.10103108678764537,0.13925997410518196,-0.0783296581242989,2011-09-26 15:40:47.692207410,4.250384519
49.01082856609561,8.423387792291651,117.34175880522558,-0.015996869475620026,0.029558625864162684,-0.7328590752753581,8.369257551543875,4.511579499565107,3.6275490032707554,-0.12499607783086972,0.44450997668446257,3.4770297771322074,1.3086051912979975,9.669144206489904,0.3959739324892191,1.2085030009636228,9.87764456338404,0.06311753651005848,0.013345446136700079,-0.24679145093528296,0.014952205452660627,-0.026356691623047712,0.116265153749645,2011-09-26 15:40:47.791939729,4.350116838
49.01062470113683,8.415839686066235,116.75660773284245,-0.06706584136905089,-0.0033242994461037258,1.7247830548516676,63.8206474377085,2.2370509516639316,-24.927562141765854,-0.08402781068465405,-0.12757444611983612,-0.5912267372189886,-1.1497920984397132,11.770575239826787,-0.38983367180058126,0.6206359425688528,8.552779822457076,-0.11488046936374083,0.12650111603702888,0.2978473867833358,-0.028391760844714172,-0.005870582026216216,-0.879917928955556,2011-09-26 15:40:47.892001495,4.450178604
49.01399566354216,8.412628282947919,116.07855294633707,0.012233722430545768,0.052988250233202666,-0.38024024519551736,13.089397359409185,0.8794688594073303,-34.2751545300103,-0.011358990313455525,-0.14620784062648887,0.16575929922799976,3.1129631420055697,9.297536756837097,1.106718414449836,-1.3882355423626536,9.463574064982419,0.13168139182386784,-0.015637147437616107,0.3081550622686742,-0.008654399679677141,0.07889254291510522,0.21552768978540782,2011-09-26 15:40:48.001979787,4.560156896
49.01117431466654,8.413285147345013,118.79630210578964,0.10854373757514141,0.008763703361229155,0.38847014108508926,4.8811838377025625,14.109448026450336,6.046257852935533,-1.5004417509956007,-0.4781098676995837,0.08599425532723895,3.9744025469590247,9.55853674171701,5.119484523619388,-1.2021920153549943,10.437162058233563,0.03792305192271195,-0.110506708879574,0.22710222686754478,0.04692016637149872,0.052155243340095754,-0.4164953067988358,2011-09-26 15:40:48.101969730,4.660146839
49.01101408207335,8.411383639799483,117.32673591553801,0.005279467057099127,0.050914559515505005,-0.7268291626866796,-21.993916231244228,-13.352472337412747,-27.725188729162824,0.15446063546300953,0.05039114837813499,19.53220111285275,1.2749318962400324,10.153858122024518,-4.132622912083561,-0.3428775139096341,10.785138467023117,-0.03192452376492833,0.03947487300573303,-0.8960622912783419,-0.05098823877984396,0.05053543919247371,0.16667093339976938,2011-09-26 15:40:48.212149871,4.770326980
49.01359611443312,8.412195373283131,119.23534211098104,0.12840126403895702,-0.026111153417390048,2.3636742702128917,6.770548204455233,-1.139921472665472,4.751061231839712,0.28897057945146293,-0.07621996755714762,2.3813816326767787,0.15541796779857167,8.897468321839495,-3.3871348447723255,11.542583095808162,9.397352001993664,-0.26567661622392613,-0.031633193846471314,-0.3621601280614401,0.4807561144351633,-0.021762704258887756,-0.024785981822134623,2011-09-26 15:40:48.311952426,4.870129535
49.010751305314706,8.411233321250737,119.29086399691074,0.057276931138328616,0.006654964112833062,-4.897078711049009,7.107830649688214,-4.504845187975752,1.2043707890122075,0.08992447929126889,-0.13506050293316066,-9.642927238507415,-1.7742838062658626,12.279863079738506,-0.014346758612748194,-0.11456364644375691,7.84443480395718,0.06701201544320665,-0.046666510673756566,0.17176664233240718,-0.005397543463703192,-0.010790074464379434,0.402056398297366,2011-09-26 15:40:48.411973216,4.970150325
49.011285140536835,8.410385774719462,117.94907070654766,0.13073723305558216,-0.25323128124855615,3.988646302225546,12.43165419091003,0.4633723089484765,9.344673026281347,0.5069479158750996,0.33945792151040766,5.236218287941972,0.6284508308917648,11.028152849198516,2.3322114239510836,-1.6087657220677938,9.90453275385075,0.4840682330732608,-0.5348790602274233,4.406702487408612,-0.02014201859814168,0.0010486818404115868,-0.617089851667098,2011-09-26 15:40:48.522028978,5.080206087
49.01457441336273,8.413965928271121,118.61746492418618,0.035473450300510204,-0.07651292063844922,-0.32443463906998304,24.121754625862852,-1.0781328482378902,6.910066812502735,0.2459284499713572,0.22914102706330763,0.7446332030263246,-0.5773548665210235,10.168403695794185,1.9462674399628799,-0.6311717667578893,11.825011566394412,0.00713916225868895,-0.02232895692438168,1.0218964433281719,-0.0016892690274699085,0.028172170914886545,0.39654241393963,2011-09-26 15:40:48.621991686,5.180168795
49.01302332742336,8.41818718492901,116.20124649187733,0.005939220008923635,-0.0007118404494759899,1.0595961504605822,6.171712474884093,12.950169115755573,-27.356273324201652,0.12479803060628437,0.31597209787349667,-2.9783329624659816,-0.3097693004436429,9.249680534593962,2.213651219295545,3.0480159098968698,9.93991564559057,0.04144531278901294,0.08391065355300921,-0.5579627633609697,-0.05616464668300462,-0.15559112982317105,-0.04543605078597765,2011-09-26 15:40:48.722006637,5.280183746
49.00873968953422,8.413882221654193,118.00731455872399,0.037111501408266474,-0.013652203824808664,2.3400258452110325,-1.580333852070801,12.732221504910646,3.2059388607791774,-0.0019077498888744743,-0.023364962547204327,1.2666100157934659,1.5381452401859237,8.481949133983886,-5.479393173814248,1.2153914258457292,9.046978487087259,0.030240146252525007,0.3449332206444334,0.22896327518397278,0.006683824121002924,-0.059664888715040665,0.20468902923148005,2011-09-26 15:40:48.821996417,5.380173526
49.010727753413434,8.41221328897464,118.3447757924305,0.03100478309907952,-0.036223532195147644,3.14982817939491,19.851307227436568,-72.91671148507976,7.174720020832313,-0.1819216583513684,0.18134535760500692,3.2828607173012916,-0.46685131895651955,8.486111788868863,-0.910330076871314,-1.8061910614553243,8.81624820965278,0.062099082775389225,-0.0005894443254273532,-0.6747939187521828,0.013236659581718081,-0.08801543621739666,0.03624714840012752,2011-09-26 15:40:48.932021547,5.490198656
49.01053947028043,8.413042602951174,119.68671018579701,0.08664308639830778,0.2213704190855184,-0.49921964555767073,9.164846160711093,10.41334303083857,8.71569946634435,0.3461213930056364,0.09078343564745571,0.36465068608902174,0.39971712738627346,10.952005578263172,-3.11055403039982,0.22927063799503541,1.6369839045037171,-0.0734742892794747,0.030095897746574233,-0.6052990768937445,0.014206147565575013,-0.09147539921184097,-0.17324719233212962,2011-09-26 15:40:49.031999851,5.590176960
49.01281406444274,8.414859919234885,117.1109053360094,0.02122344054848252,0.0019926394967952118,2.1152495739634882,-1.9673211928987682,3.7100028082584413,12.095498902450633,-0.09211056127425896,-0.003373041570714011,2.416202238292853,-0.7131450824925174,9.83735499035232,-0.46027445958953905,-10.44574043355918,8.80694859996586,-0.07990189414746912,-0.28614924853713114,-0.47044942457920114,-0.051077861058237126,-0.08185281094947935,-0.15340170955948645,2011-09-26 15:40:49.132099410,5.690276519
49.01056150075707,8.41384598325334,117.85543491748402,0.06303756905919523,-0.00841623695963872,14.701180889898882,-0.5725420322333044,0.004411790187296816,4.264840105388572,-0.3735128579285287,0.9169432354501028,2.032278939512639,3.1651903753921404,12.145372260868328,-1.4920262309718333,0.6121790492869325,10.275417708805296,-0.03052999390408253,-0.09080504837839239,-0.3128299858750074,0.3410231944580831,0.040782657840862775,-0.5387805306600743,2011-09-26 15:40:49.242145825,5.800322934
49.01054669004943,8.409713905396949,118.71902232805967,0.1131118266592181,0.05719959545366768,-0.23904682945925537,6.5024020547820545,-0.30741452482153225,13.885418131586102,0.2808503336924068,-0.016904846682705185,3.094754749014854,0.4819352848828006,8.235096621240933,2.2968393734930124,2.0115907260929182,9.461732175494987,-0.08587960335223861,-0.059053708487229954,-1.034332874634972,0.015424620686654917,-0.017439923334712303,-1.0789549921626937,2011-09-26 15:40:49.342017866,5.900194975
49.01191884750988,8.406541984429301,117.38390283211103,0.012418973811095309,-0.21479645391548355,2.391622676553951,7.277879902512383,-1.3782691260640114,8.624090879082091,0.09754689846073604,0.09032322204038062,0.6973628393673369,0.8757262032018118,10.249930253253515,1.9124734700376742,1.5253327888287447,10.604002436448384,-0.020351186300980505,0.23340834133665256,0.10714685687510275,0.09972241769863058,0.06772149102005898,0.0731593128474064,2011-09-26 15:40:49.442023858,6.000200967
49.01210161653633,8.413311376854116,122.08051894551116,0.0724059487836421,0.01839453595022116,0.9460690735911649,2.8675165824921054,-15.292489094594922,7.362022611082372,-0.2475924134503182,0.07100921515239779,0.9225768922329497,0.09952238308812673,4.916111506266829,1.2832961714960216,-0.27349703122304,14.58637518404218,-0.1024006576480488,0.022360118777497925,0.013854577100999889,0.11487951399798148,0.12609889205799346,0.31132322369187504,2011-09-26 15:40:49.552023407,6.110200516
49.012471036977345,8.409796558516804,117.46725148206367,0.03203750217911476,-0.0070261760518574665,-5.881898202781622,0.9904548613040411,-7.57428163196011,3.842352674176172,-0.1100405662512342,-0.31548707022062406,-1.0381789952859564,15.554426491262308,8.431925886951799,-3.910753645460483,-3.2895895421335974,9.957214644140933,-0.00028822212286212096,-0.014772681716780943,-1.1620161014904817,0.08266974355529172,0.24576535036722394,-0.21407208879599107,2011-09-26 15:40:49.652099550,6.210276659
49.011609049289746,8.411200043083296,116.60157846420266,0.017603642335363236,0.01942877351591262,-7.821416900901841,52.70735033919093,-0.29107191981516795,7.042043563718966,-0.13678622589665856,0.556105897750809,14.065372736258693,5.022952703089388,9.73677143107348,-3.3530353749126256,-0.2960696405610963,9.421978694867448,0.02779030687168181,0.010715941213232555,-0.3691814321774109,0.03543431700507091,-0.07098046562380318,0.47232991664613194,2011-09-26 15:40:49.752068730,6.310245839
49.01509543538228,8.412631064516795,119.32895754356886,0.07805097688374525,0.008164394983019673,-0.07837084868262778,75.452483810542,4.484519386596502,12.396079328172192,-0.25097251663100173,-0.10960276100453493,1.8213032458322256,1.443475903127008,10.259681017685736,2.4407974376262636,-0.9892553803910128,9.97656706681111,0.03343999616545063,-0.06108785181452893,0.47981978571673606,-0.5371960993792476,-0.15448986149869282,0.25592351380995115,2011-09-26 15:40:49.862046548,6.420223657
49.010064312365124,8.410095709760524,116.17473730862984,-0.033646849816856374,-0.05970589347424578,2.642274703471343,5.850203227290152,0.10359028913454538,8.677334339671686,-0.365626172927431,-0.2973321114438299,1.2892159965382988,0.12410657216149684,11.302820565735477,-1.4841451452489336,-0.7149947096227096,9.610762589831207,-0.24575926233732545,-0.15688651472180387,0.6880773471506488,0.22032673450869208,-0.1564065127028889,1.452199503681631,2011-09-26 15:40:49.962082430,6.520259539
49.016787158509686,8.411003776625394,115.93054993611676,0.04532427755778739,0.05383331224345661,-2.5206462062322195,12.218586180667295,3.6677734458030993,2.2708318336158726,0.11669831461402816,0.41266205193711575,2.222147290639938,-1.9317786620627513,12.290859957389227,0.7554506505851689,1.2423349017338368,9.071018331692503,0.05118768159395695,0.20323930003370622,0.06637122952397544,0.27686268923635177,0.022572976068926782,-0.4016361308272786,2011-09-26 15:40:50.072205654,6.630382763
49.01569300092179,8.414212195014597,127.6257266285083,-0.0098844409899825,0.03635731917356815,1.1613093243186394,47.6239657497604,70.27488067749547,6.176490131114378,-0.17956681871947155,0.25092692955948814,1.4971079517366905,-2.5568688421292043,10.29995685048884,-0.037279305893081566,-1.107098415321688,10.8081678127759,-0.007186670725920514,0.0234196923738846,-1.789370975572362,-0.019594438272389055,0.010791660285295351,0.3002391011610186,2011-09-26 15:40:50.172188742,6.730365851
49.010626679577676,8.411971563941862,116.10927637637685,0.0666293802344019,0.005257594985099184,1.7830578804068542,13.508829910444089,-5.112429944361752,6.3786381215443795,0.14004773797224357,-0.0637738708838503,-2.8481311478747067,-0.8827231041115549,8.908582933602892,2.0017293482386442,0.6147961686003092,5.8833197167651425,-0.011348437104300758,-0.0008629008907773527,-0.14208685469533475,0.026851631600697694,-0.09782361486121521,-0.5489303937380063,2011-09-26 15:40:50.272156269,6.830333378
49.00650380854669,8.408790596682095,123.99596732676991,0.055078411284831326,-0.04128230229570153,6.119017265111973,16.221446582505283,-4.7618567953712,0.38821937745399726,-0.03480048770763332,0.19590271124195205,-3.287806369964245,2.643587026670031,9.330944432496622,-2.140401889489079,1.7008587951422136,7.816843309867564,-0.04543481627635204,0.022499858406041517,-0.3039456866325483,0.07600739034041705,0.06919892826149643,-1.1335573594700998,2011-09-26 15:40:50.372297108,6.930474217
49.01019824039348,8.412632629571629,116.70637179938123,0.07094799557020781,-0.002273389352650346,2.4454902436785364,38.210820054787256,-2.64498350166716,18.479779665837917,-0.010497144349221874,0.21632297999435895,-2.314077784419268,0.941837809563127,8.916261656893079,2.6028808590436316,-1.3429419029793443,10.288635284328535,-0.021535671388527244,-0.017819015023248307,-0.0403139389883541,0.022034924051325004,-0.001106643941196737,0.30723166246971034,2011-09-26 15:40:50.482135768,7.040312877
49.01658820098201,8.411467908378631,119.81427250761112,0.047574828826097135,-0.006477066844590054,2.6719343813082084,12.335722278183596,-1.7585183348968578,16.602057211434463,-0.12856196326244773,-0.148984856550626,-2.148282216438754,1.010697522277956,9.369725308389036,1.230270431034842,-0.2204729720639902,10.47910293871428,-0.054044658721648584,-0.043637593850866394,0.6140871070146624,0.035451084069008536,0.048516935720921736,-0.33878388301739476,2011-09-26 15:40:50.582147838,7.140324947
49.023042454306584,8.412203642826146,118.06906958416067,-0.032588103680498845,-0.0029620326194281787,1.4725530830294602,12.872617323446672,-4.3977704913971625,6.913925506728626,-0.4172563319560257,0.33323676552842163,2.6468218076622,0.03624294945513662,10.08617313647175,1.4630417646017873,-13.327021699955981,12.494595713168078,-0.05358517966458646,-0.009302655134315711,0.49273003192665027,0.08190733636951607,0.06480890309439036,0.2614461602036002,2011-09-26 15:40:50.682303986,7.240481095
49.00864454762051,8.399181531633102,117.04138106067411,-0.578468250210382,-0.009348575669936448,0.1616786379578785,-46.455475577913575,-4.615098284920377,6.94795218247938,0.2765751887809497,1.8576418804399548,-0.9177675494780856,2.259397839398771,8.530365653026095,2.5033813518044195,-1.9641156911646325,8.14897631836566,0.2601321530058394,-0.003037561154312113,0.8019535971518286,-0.14389291145314467,0.06724335936867307,0.02683001131932527,2011-09-26 15:40:50.792099415,7.350276524
49.00988033819507,8.405471665255657,117.48412726957636,0.05202855853522684,0.011895309701294795,2.4445766091450523,14.419590388480323,20.962452738419962,8.948485332750705,0.17539096972531731,-1.0345668663082468,2.2281141745923128,0.27244163479571626,9.047137730115063,-3.027112451113762,-0.44859586809308316,10.07780316659658,-0.0194554360555742,0.4139086127479811,-0.4137328532077922,-0.22969809484327222,0.04732526531102042,0.39160051417776665,2011-09-26 15:40:50.892068968,7.450246077
49.01135792677985,8.411715065136335,119.7956617184553,-0.008937504949372177,-0.02825731070271506,0.1768143516848948,9.808643157269879,0.6592773357064816,-6.891208467577005,0.1424836854781152,0.16187654430745063,0.5632894999866755,1.5114641345204065,-0.35429790382960036,-0.4629949831308801,-1.2859117043839494,10.852153877813477,-0.056391514167759185,0.018109911981446694,-0.28847718388669014,-0.11621586336318282,0.04744524932768155,0.2642250597289273,2011-09-26 15:40:50.992096133,7.550273242
49.01265639595197,8.415469084883838,119.65297106942063,0.3395625726923402,0.004199448616998835,1.8095943291270273,9.319315924734362,5.164518277851783,9.07928726295406,1.2318928565238059,-0.0043928496342119094,-1.139303236920201,-3.2083717611034412,9.788282661600723,-1.060571355369584,1.5645438857519407,10.024061571614485,-0.036404568520344315,0.04460247790175095,-0.592737835180985,0.011127334469052126,-0.13210562557732078,2.1523001881027017,2011-09-26 15:40:51.102094222,7.660271331
49.011065708270074,8.410589412941794,113.31435510684786,0.07061314510497582,0.03475540441112163,4.952122263480452,118.68650865766561,2.192944683373699,17.908633430328358,-0.23029579738531392,-0.2155867148232779,-0.8909859538156312,-1.8296303403324186,17.077538603325454,-7.154007694113722,-1.0460641127633161,8.313275354274884,-0.18703826715489177,0.011819886359639705,-3.68911639989503,-0.08546164366910675,0.019982284615209383,0.5651954831821168,2011-09-26 15:40:51.202308132,7.760485241
49.0155894364159,8.409919117635022,118.39774152090904,0.06254458139105118,0.016398863599804973,15.287966898354277,-62.71013797557533,-12.964341087237532,7.383408930288197,-0.34659668061660925,-0.0532633394169979,4.980898591997078,0.04346728476378747,9.925829336269606,-2.504950325162997,1.6873503709057984,16.927861139220894,-0.10312123187044288,0.1461408157508366,0.03756741711029532,-0.02053358246094446,0.04873674410344538,0.03151487881769031,2011-09-26 15:40:51.312128328,7.870305437
49.01214932614048,8.41176411677087,115.21355260952737,-0.08800554495165161,-0.009235136685236128,3.258037788097057,-13.020800751174704,2.872542319452434,-8.326646971931634,0.16254490771210858,0.09882200511277361,1.719803235256026,1.3969289871355333,9.359616193665527,0.08694469816119922,-3.2606317413964314,9.706984963956451,-0.01141506561571571,0.10285273584861558,4.0078931798483355,-0.012704292500599592,0.04796464574205608,-0.16089640940696556,2011-09-26 15:40:51.412116836,7.970293945
49.01107932001403,8.41280193681734,119.63781262959387,0.0575490306517925,0.0006504278242165755,0.7390865207655686,5.641600571647876,-5.976564774673277,6.799588557001582,0.10060786143586864,-1.828932655276857,1.5784434881272282,1.1552929028788126,10.13091215151344,-16.93849635092432,-0.896980387295441,7.777249690578566,0.15930844061671068,-0.17777829066444056,-0.019674917956577657,-0.0066307575047253285,-0.06109937744391223,-0.5541519551000024,2011-09-26 15:40:51.512124791,8.070301900
49.0126663500424,8.412535156199075,120.87861529083874,0.09315190914715454,0.012037158299722392,1.797200753178612,1.6237178309622182,-6.956096087920134,18.372761164363173,0.18350383728141723,0.17511432675607358,-1.5135956412387122,0.7229272059495073,8.90550726336764,-0.7220345538178632,-1.559485598561529,11.186686111150232,-0.044210073006086426,-0.009335983454545498,-0.4181768696615868,0.013464733854290919,0.012544162327826881,0.4349270877174449,2011-09-26 15:40:51.622185376,8.180362485
49.01094190940007,8.409844161393993,117.50073474471203,0.14996562425123755,-0.01992964121754194,-1.7191250071683226,-35.60637953245074,-3.5585160182844304,8.476176372547354,-0.15100886227555216,0.4589065730589864,-0.09274858821287969,2.206662570098765,10.132115522536623,-1.4061474085073247,-7.050457335927717,10.927600708383567,-0.34209914251291235,0.08728485372857565,-0.2182887812105844,0.0035069767384587336,0.5126970237180501,-0.31829928433502536,2011-09-26 15:40:51.722222136,8.280399245
49.01250252338105,8.41300680142877,117.53578717397015,0.027873132510102205,0.020734373088372355,3.887579261455972,1.4683907742580953,43.43574558733986,-36.438263098788575,-0.3471074353689886,0.1045019880135992,0.5313104359005476,-0.6843360953125034,9.674931293567209,-1.2336161541909447,-0.8695921944262062,9.263203810115666,-0.24223958226349981,0.1224631644937776,1.1668281535839011,0.0760470106524746,0.023315221811134684,-0.14678796546518955,2011-09-26 15:40:51.822167163,8.380344272
49.01315425536497,8.411236018931058,117.55897501916546,0.02844630395258809,0.06059894688770787,7.012560893061757,11.397845561595634,0.7018381282503785,55.53113908735879,0.22891557216576713,1.0497511861093833,2.652770840810993,7.59047915687693,9.644035245295774,-2.6902827755012346,-0.8134930675869871,8.660668555391426,-0.35922567700280306,0.07308738059545763,0.44315631496198804,0.06311390751285341,0.3233690379391407,0.24805231168364414,2011-09-26 15:40:51.932165638,8.490342747
49.013052084168194,8.410195703762522,109.81383374418343,0.02851474374924711,0.0019170620665076368,-0.6514919561412009,14.390666838273916,-5.380121463471944,1.777467974747056,-0.35394239472303934,2.1925628753803,-1.7078739093482258,-0.7555974137870247,8.648138698258293,18.28081459864483,1.2448787747891035,8.655283427987229,-0.051150999456991454,-0.012236723818793337,0.542429838332343,0.5599869004254302,0.03367082769498806,-0.2357196049148937,2011-09-26 15:40:52.032160758,8.590337867
49.01218258493345,8.413893038049423,116.9512359823694,0.0538544566732781,0.026935747722142817,4.67519665705555,0.13136353356245944,-8.937307438449615,-10.571890996812906,-0.2363322644699312,-0.21532601455721684,-0.6876282668242737,0.020942819491630682,9.509862590843293,2.890972488551523,0.9823548026565848,8.158720393921943,-0.011758590683829543,-0.14316657634676028,0.75287447813509,-0.00934846976364546,0.0508119278737956,-0.41529214735404796,2011-09-26 15:40:52.132178621,8.690355730
49.01274649956476,8.412239952642196,118.25337187987942,-0.18277905241992073,-0.009695057320652865,-3.3379596217839627,7.854483593491613,-0.4006315373489967,17.5417737940055,-0.24612707146373292,0.08799412979861426,0.19099422316477332,0.04533994643382527,10.20315466771993,-3.7420808234471385,2.0145731129225224,9.583656232583083,-0.008834631647279824,0.04760900950338368,0.22609057470711919,0.025474951795386662,0.10234330250678988,-2.233521739373375,2011-09-26 15:40:52.242258597,8.800435706
49.00400046653949,8.413941555353286,117.65795943216045,0.021130202080241422,0.21018257328896706,-2.0360442380581576,-1.3523296266823603,-0.34154510918082,42.63668282358797,-0.33506712494974283,-0.44558782356871823,0.8381456028879961,0.8299898146488307,10.119315629834537,1.3003725462174094,-1.8708217194673793,9.730872894543081,-0.08428693410861744,-0.05905175929880828,-0.5115038959250925,0.03603055996484457,0.10169469963634134,-0.2568543302398322,2011-09-26 15:40:52.342197221,8.900374330
49.0125430355602,8.411671490747086,115.5559921419851,-0.055546074807475955,0.06514584213683491,-0.07878356936078701,12.679401567378747,12.975876131788535,9.322484353848964,0.411033118634853,-0.16161569634636697,-1.8997029790735933,1.0932882345750432,11.926483445121386,-3.115765055073381,-7.063668119868801,10.232108496607841,-0.24789242144497797,0.10577106837167066,0.45782638370382506,0.033960535940219666,0.299562991600342,0.057933160673432384,2011-09-26 15:40:52.442167930,9.000345039
49.01039697155666,8.410618073331714,120.41603530706544,-0.43438380095475765,-0.11765275462949173,8.207948413085004,0.9283071682926538,-6.469914085373856,18.894573793700197,0.5211569826302327,-0.23587816816117843,-5.000382495068954,1.627747984063579,10.513273290625529,0.08476459250893198,-2.7465850678778745,11.381554929507558,-0.15573924665744396,0.013506561954729704,-2.1673751765133376,0.0842118569574899,0.005961292349481544,-2.8912577188039714,2011-09-26 15:40:52.552218266,9.110395375
49.011695243913074,8.40523136223672,117.86660223856343,-0.03333110848118204,0.0415961240689144,4.458062241920528,3.1911844461242236,33.212962523361774,22.32747329111735,0.9529011878147754,0.11422000549695549,-0.18870691703515477,4.0635396534464325,10.879705803068497,-0.26349026782362484,2.042399022574255,8.481085079857158,0.03635203605093059,0.047925183210612135,-0.2183863635224429,0.03311657247061956,-0.11388147561646299,0.8956211009524738,2011-09-26 15:40:52.652200555,9.210377664
49.010040989383754,8.412148524660912,112.88777941911572,0.013835589470311455,0.04790919121221669,-1.858410910606204,117.86377738769205,5.593130318538634,4.544718141160901,0.776155455399657,-0.35215986043772485,-0.7594921226772495,-0.03925131844561719,7.782745344531276,-2.608625097882209,-1.5394888224539307,7.816559053507395,-0.022708459265765965,-0.7074538486429706,0.08638586064809299,0.05041021200373338,0.4397775328853166,0.2453550793742681,2011-09-26 15:40:52.752238681,9.310415790
49.010998494477285,8.415629732736113,118.59915749156131,0.029476200984105333,-0.20604017571600186,2.186420647483296,-5.4153938354193825,-3.565304334620561,9.032909655285135,0.366120152934302,-0.23390327305143283,-0.6137849720837826,9.052791495210815,8.599385863335444,16.355506443715715,4.5182342716681925,8.762356479545327,-0.04249898540408949,0.1739611789042103,0.4260129189069598,-0.011515401381769147,-0.013981156089225073,0.44444812597057537,2011-09-26 15:40:52.862228465,9.420405574
49.01222876237343,8.412448704949625,116.41966851442302,-0.03036207874827715,0.010732202266211474,8.634199355297413,6.758024541007862,3.4979693179521893,5.232217300118769,-1.2468216595602988,-0.35346857290761896,-3.551795630682886,-3.6511979827901597,10.033076523578645,-1.0212933313179084,-0.46158906876958006,10.319348325535843,-0.023482049377658444,0.04096936050335929,-0.6270385623647682,0.023593858903085248,-0.20174031386404204,0.032992863646012074,2011-09-26 15:40:52.962259484,9.520436593
49.0128823992043,8.408777231788136,116.92338642316777,0.01015350607882073,-0.016969667926764062,0.728796453782303,-4.7777590647165935,-27.044217760135194,20.892987071871932,-0.04564775677500011,-0.28685635293333045,2.4118427816960475,-9.939543185189091,10.619852689692088,2.9047766188556654,-1.155758723352898,11.520974084495633,0.09504031366721084,0.017880534017923624,-0.22529434181391078,-0.3082185809443284,-0.06288456459491645,0.03179557034683107,2011-09-26 15:40:53.062224095,9.620401204
49.01260325836575,8.408534148545314,116.53121886496457,0.009422222950689691,0.009565744165716464,3.878729218628477,1.5436246479768654,12.949952224499444,9.325037101695692,-0.4496459338739761,0.19941487245366604,1.1656614390422995,-8.230024115353109,10.397131520523832,-2.5534906540522564,-3.641675502883218,11.453327054523463,-0.031661903787456196,0.040701964938269525,0.16954013651150693,-0.014890049306752206,-0.006585948860437535,-0.29952915217895787,2011-09-26 15:40:53.172285735,9.730462844
49.0110257956528,8.408258962195676,116.01554909422934,0.06356528734656217,0.011378440039869635,2.1340169463826992,9.761550209576917,9.725021617028673,5.536610438216996,0.15582092588473342,0.1984148562460112,-3.74446001732981,-2.0220155301933467,9.614771714589288,-2.480536650828896,0.3782208438203307,9.42589412171832,-0.000593486467407388,0.15110905663235671,-0.20164682963800817,-0.043201390467881094,0.0493970347733626,-0.4455859701088945,2011-09-26 15:40:53.272474597,9.830651706
49.01140968077097,8.409518791789274,117.34411598787688,0.04024688837870376,0.022398260778963317,10.120959881930133,47.20580813530191,2.846019232274136,13.13877072597329,0.13045368878842914,-0.06285152842456028,-0.9133528242698794,0.017850075648100927,9.212708192124923,1.4499678722237197,-0.3478756216850495,13.493340663451464,-0.1011275543738755,0.11141798725693529,0.20169453911187593,0.050148917140287255,0.07664659346554298,-0.2544764109549533,2011-09-26 15:40:53.372407308,9.930584417
49.01162486983527,8.410445738838035,120.0216319723992,0.07896803537537993,0.05748283993070816,0.9027719905599524,7.512707512797942,8.488248680449859,18.698047401611987,0.06835380565642447,-0.6917135234451921,-6.3237612925848135,-0.7180648356539463,9.174609719872478,-0.5793211865739882,3.135456194636779,9.413954827431109,-0.23967319325713188,-0.03969019583618105,0.27168624199903285,-0.08793399209192895,0.08276765007553416,0.787867189651826,2011-09-26 15:40:53.482263255,10.040440364
49.01333589594999,8.391789971333209,117.66667252082813,0.06434586544220688,0.3089264793441762,0.3160525221304251,10.46258191316624,-1.8570295035751552,10.050150409261331,0.08228603266666404,-0.1693804372916109,3.307915938290909,1.3993473964006378,9.597922962919789,23.933844308272505,0.9580431309872145,8.655731637342054,-0.0031294283117284834,-0.027594459836140693,0.5157573461181073,0.09140882426653872,-0.12735774868290814,-0.007439866329143667,2011-09-26 15:40:53.582252902,10.140430011
49.0117872013854,8.417160675193863,119.43433319844095,0.27149057348765465,-0.08967730220061534,2.086353037381056,15.7335433728469,-5.1842480728759455,8.432688556786161,-0.01127156702247846,-0.0793303786155691,-1.8931648271597337,2.9572368325475473,8.840804427605763,-18.02380560406988,-1.0685575754194936,8.515367974909335,-0.6017004237319206,-0.0399949828777273,-0.7161927056668556,-0.021422657184214336,0.07185949979396947,-2.3855033232030682,2011-09-26 15:40:53.682475808,10.240652917
49.016422310413795,8.406818156305643,115.61217090212733,0.029564132948169026,-0.4005212850198882,2.586883419933692,13.64157094660091,-52.33644990542767,10.29905479296042,-0.09630271244032998,0.33356699767473463,-2.797792797792339,1.6833240116738053,13.13366786215516,2.364814346824809,1.6033212649202115,10.188937878754121,-0.15216621730821653,-0.11157031157402485,0.12705689810007448,0.07834120419386383,0.018944453508032526,-0.23236093952444575,2011-09-26 15:40:53.792257468,10.350434577
49.0125945689325,8.41180972363713,116.62496488481088,0.02354238794627825,0.01631875211279258,0.38178786171853574,7.183719443636083,-2.9588884429660367,11.818823985457453,0.2494078790603628,0.04170217927075029,2.1984748059344645,-1.5407063544627015,8.850661493990337,-0.39344846021834723,1.671623360628948,9.76659251747515,0.05269335168641595,0.08259167105208774,0.4390279457391143,-0.02589896335565399,0.05318481125642628,0.15016928662798254,2011-09-26 15:40:53.892274284,10.450451393
49.011889684153665,8.415439152343511,116.5159459899144,0.01709031516705955,0.037227746348844626,-2.127028079047875,3.3158090974666283,-1.3050617201448476,4.412337942827833,-0.25939472463972546,-0.2660325002470597,1.0916719896142772,-0.2482103564242077,5.70634628419201,-1.6669127847056227,-1.2716395878878077,10.311475270925934,-0.027767136648171292,-0.05609705804997388,0.009336579773328888,0.055687729729353846,0.05019924801518744,-0.252163775335177,2011-09-26 15:40:53.992262348,10.550439457
49.011960955728334,8.415724502097971,116.67797372400337,0.035997516653742706,0.05445204134486763,-1.2471218975985499,-1.0512234342140063,10.954137799638998,8.441563290034313,0.14086515933514457,-3.0660000861019077,-21.565848556667113,-0.22239164268611333,9.056134035030178,-1.5038086180736847,2.8018215655009224,9.206253513315927,-0.05747049266869741,-0.07856347925889684,-0.17376416487261004,0.01874995047170516,-0.03802225909266546,0.13990600205865006,2011-09-26 15:40:54.102250682,10.660427791
49.011952424052694,8.412689166780119,113.70226288998487,0.09053852979534942,0.22409289460237197,1.0069686914543312,16.24149609522523,-20.657964796661847,20.584921243366985,0.10380288199317496,-0.40058567667227385,-0.12775649897930053,1.2058101711819225,8.790968913590733,0.9340583068109548,-9.942032593664436,11.940636935013401,-0.07886711123525854,-0.11985296425810107,0.781851511682453,-0.11659017777331189,0.5493169084446043,-0.01358934875167637,2011-09-26 15:40:54.202495389,10.760672498
49.01313323049898,8.415412715978023,118.96654815115075,0.26733405618104855,0.007443527670769785,4.413715533548017,6.489776475127145,6.082252247634855,16.01627312648441,-0.921322293494434,-0.5373732825650578,0.31495494663826906,-7.313561680672873,11.395703917043896,-3.411591249878624,-1.0286801019947152,10.829835854303768,0.01392378833495139,-0.003475034003904802,-0.5087759687531168,-0.009899708706340113,0.037484603682624414,-0.27067170610770835,2011-09-26 15:40:54.312263278,10.870440387
49.01275780384616,8.407923282668824,121.37337129443677,0.11066372312190073,-0.037090459165997625,-28.769527750107535,8.298542074581292,4.384930258323877,7.918779211748716,0.505170435432688,0.25827308887780553,-1.5565608217245344,4.09865589443878,10.554446166122355,-1.5843976207862043,3.1785633284753896,10.177588142705767,-0.03685890577032559,-0.25957191283782605,-0.3661083330911045,0.023972325584998268,0.14234257612705403,0.7020375219636645,2011-09-26 15:40:54.412305527,10.970482636
49.01301179509883,8.407497259737681,117.05382361255153,-0.002739952964863651,0.06455836397979661,2.069420015142238,16.118696050692357,28.86481458329633,11.863658316349403,-0.15705569429639427,-0.17120522466872004,-2.2241541133857785,-0.8861687238155166,10.156246726514448,-0.009259242873270734,8.511564990353033,8.304921333321941,0.04838548701986352,-0.29707643899984126,2.234618101472534,0.06638472036428167,-0.05603614920336828,0.1674280052081041,2011-09-26 15:40:54.512278700,11.070455809
49.01305868144595,8.41225978585381,116.86056648044571,0.035839105142349496,0.06425515499772022,-13.366209910572763,8.332576142570586,2.000938315998075,10.028696288705225,0.1484377198967629,-0.24906267944494367,-2.9099248100855473,-1.49278200395105,10.54162676849292,-1.5167956069855264,-0.4023886179072784,11.217727981746117,-0.06021297219945498,-0.0965828617138576,0.5321209635155224,-0.016477651858362228,0.030178814284523514,-0.20354471313564038,2011-09-26 15:40:54.612289654,11.170466763
49.01299771629682,8.40941628176128,114.07638231954908,-0.0370131411382518,0.030564250598185884,-0.25130938244716816,3.7166048809548564,0.33544401948271096,6.667387951477276,-0.2493019709083723,-0.03705727458512216,-16.67173565215319,-2.599278615569569,7.051282720192673,-11.39337820960842,-2.9578729115314353,9.25677778927722,-0.03178840437979145,0.1301530768087791,1.5804903046825758,0.11849661245027754,0.10907827164383739,0.9752395403069491,2011-09-26 15:40:54.722368184,11.280545293
49.010539620354315,8.408847575178552,117.07420821378066,0.037295137062776304,-0.04107113616612598,0.9518960549656938,9.735991367910819,6.736940051391286,1.9489990311778618,0.4169184446696594,-0.8959377482552333,-3.4091897950862027,0.9794577845581187,9.455675381464669,-1.7377751039569678,1.8101538193526223,9.648955441732483,-0.013388048786979447,0.0031880253567539013,-2.033562595095875,0.09291130317281938,0.12782173658743273,0.2741837257713126,2011-09-26 15:40:54.822312857,11.380489966
49.0127748643341,8.411141265905226,118.10929016713575,0.01446611622590624,-0.01627646462933796,-1.1989267368912815,16.693471668603888,-9.154700828493903,5.075011715287184,0.013594930129455958,-0.1320028072381972,-0.8759861931753585,-1.610499839709239,11.606728429785505,-1.6500806120217382,1.4136513215262312,11.03123882521291,-0.07756619612323407,0.01065321048671838,-0.7714822156790289,0.03035746814434477,-0.07175256819272846,-0.053615518447944405,2011-09-26 15:40:54.922313994,11.480491103
49.012742867292246,8.406685072380712,119.89750097278677,-0.02813200611240888,0.03983704898838743,1.7209854484120073,9.684742811357474,-10.889975374703909,5.5400896432730065,-0.12129610648092831,0.04644214734965374,-6.625802090685731,-1.198029687252989,9.531893032022085,-0.972728877229575,16.15828278320275,5.7076443117673215,-0.10931359659196901,0.12507568573798766,-0.3199521477771381,-0.022634875245175302,0.06928814720552542,-0.5887706909725396,2011-09-26 15:40:55.032306766,11.590483875
49.01170926980975,8.40831913371871,117.85165271167955,-0.4667109243087234,0.07533385329520885,-1.2739982523904325,-19.95762294850355,17.678492217850746,1.510496326725507,-0.18208551563679481,-0.11013092818367039,-2.20485392173513,4.533185899417697,7.980703690634921,1.8923363565409002,0.016074202442835805,8.984405797618349,-0.1358563598198528,0.0329821414459548,0.08469629745480092,0.06456011054848634,-0.020335555666120376,3.930817241530596,2011-09-26 15:40:55.132350747,11.690527856
49.00265230076628,8.409595430847194,120.60863675364864,0.023270761828516437,0.03752008938672537,-9.077498048122202,-11.49476455194624,2.5121182592976226,2.695239588914586,0.020643388139254863,-0.14304527553107338,2.1549466395001255,1.4911405108991889,6.880961889766372,1.45816449207377,-0.409094138686124,8.951482404806093,0.3712027532918327,-0.051520233274604255,0.4302595735760389,-0.3642512910765727,-0.4974471158000092,0.3421202168564207,2011-09-26 15:40:55.232399738,11.790576847
49.01253937529114,8.412897025762629,116.97679779182812,0.06742385546613218,-0.010084164583100113,-0.744284757687343,0.9772395464910639,4.997639995255226,17.177931638419953,-0.17081007864415332,-0.035683789192203594,0.6025089340689505,0.23866921514568767,9.20270041736024,8.175509805795697,-2.4515222183421006,10.235612322937644,0.040868093351063436,-0.07679596704045275,0.03858522015013899,-0.02857529013366024,-0.1247590959123671,0.09362295641728328,2011-09-26 15:40:55.342319218,11.900496327
49.011496622885225,8.408446289277448,115.88391465335428,0.014394893609637641,0.021856507610429638,1.0876820967970753,18.366633429000338,1.3053404216292717,3.93140872825975,1.3413876929959214,-0.35427703209830747,-4.461028473991028,1.2113829598159598,12.003699671526832,0.45897023837114037,-0.12988591451340287,9.706098396533342,-0.022304048288371334,0.003972904130443006,-0.039710516572954095,0.03955450039661279,-0.033443732316133186,0.07441816239049649,2011-09-26 15:40:55.442372606,12.000549715
49.01428880753125,8.41108816741493,117.63989347067718,-0.0917529154641567,0.028098036712274357,-3.843765675025234,67.00131299125374,-12.663435586692566,10.575324173679558,0.05957308118593407,-0.005792991758354696,-2.540727388028674,0.8632527451923653,8.483283851212462,1.2972251662608434,0.10933283834880224,10.132083735171271,-0.0010220216394565516,0.04097622273932776,0.6106437944823931,-0.003792638948507475,0.08162780347407228,-0.4310932324191503,2011-09-26 15:40:55.552358921,12.110536030
49.01213232929118,8.410416887902102,119.59486321379768,0.06725827649075866,-0.013153385757474469,3.984106336818644,7.395861286606687,-44.90946456613919,9.07830515793297,0.22220807927218666,0.2919904302654577,0.16779630713870575,0.8194685352794904,10.075532375995587,-0.23308566203073694,0.23595617982872819,9.205375685273824,0.025635222498048175,-0.022217306846574816,-0.9533221583481588,-0.1312086606513866,-0.03133971012945687,-0.6208514141369419,2011-09-26 15:40:55.652342606,12.210519715
49.01190438155275,8.411461970031544,128.55910741510885,0.08638021634198143,0.05078679826642815,0.4429839665860571,11.02496934976434,-9.832386026957645,9.815227213303167,0.09704297920649503,0.10923886421969883,-1.7889341155164247,-0.08411126908421288,10.706325386819465,-1.2590666408374964,-4.769007930915572,5.210728920048103,-0.03203107134436175,0.07740460600215825,-0.3067520437605278,0.07768876428360136,-0.07168912537545323,-0.507378459919758,2011-09-26 15:40:55.752360890,12.310537999
49.01155530274969,8.415812571137836,118.0686332504669,-0.0035699518143038206,0.26755541937143046,-0.11089017038145776,10.25109641114985,2.213078102355588,42.49155942385761,0.4710834867592807,-0.2020168578082274,-2.363192268311425,-0.26566694866468754,8.418322898909082,1.715406130588479,8.4042359220553,9.326237731350032,0.01739938794650051,-0.19997435837701596,0.3150450911992137,-0.07992306065997054,0.04531850952513088,-0.01452313765989289,2011-09-26 15:40:55.862359142,12.420536251
49.01210843679995,8.412391779732326,117.63902794321635,-0.01329917125525109,0.028869066130773856,0.47729412524276693,9.331517875522891,12.522901237241856,0.3136851786035937,0.350764629677198,0.08508167879377683,-0.5503135988040408,2.836830594704029,10.908419838034586,5.440144764254359,-2.9611241679251554,10.619017537882133,-0.022532282705587454,0.07038057065193792,-0.43741972039486504,0.053392453417766834,0.060838758523578465,-0.2729489823351306,2011-09-26 15:40:55.962381474,12.520558583
