lat,lon,alt,roll,pitch,yaw,vn,ve,vf,vl,vu,ax,ay,az,af,al,au,wx,wy,wz,wf,wl,wu,timestamp,rel_time
49.01025923686432,8.387411840701226,118.4521721518813,0.010932727453289715,0.04153450000545377,4.077224269978625,4.97090978599033,0.5394106218966305,-0.07919637595777917,-0.5346989369116174,2.3617704637346164,-2.2298618815003537,0.5886038426829927,12.764239409351053,1.1435056484628325,12.892095716814927,9.489813435963287,-0.07042996276458276,-0.00947039048703155,0.6988136510525791,0.017916048365153862,0.4124031116311049,0.36459260275320865,2011-09-26 15:40:43.441822891,0.000000000
49.0110301840161,8.422534758607112,107.72112048714007,0.021478964344104116,0.02076939552871722,2.144012049592732,8.927621602856467,9.288974851095634,8.558943057212698,-0.04356569214984245,-0.4148411200354998,-7.345376244007502,1.6284600966423388,9.633372391841627,0.9427791719058023,4.079238626047238,8.17329863643198,-0.04498707268822909,-0.11690250298043638,-0.05483014949935433,-0.03031205101422787,-0.42071334533799,0.22720391017765573,2011-09-26 15:40:43.551805867,0.109982976
49.01262769203597,8.411023712846815,119.7200600430111,-0.010952391877875396,0.042163573073220446,2.4254288272935756,-3.96392002115405,-8.702466621044042,-17.463350652125055,0.005192041057911129,0.319040157224312,-0.5685566217335105,1.4881351182454197,14.048722295204666,-0.4899656312197268,4.370710975639067,8.069511184901781,-0.09675722978231106,-0.032279596049326405,-0.32917473036422473,-0.008604231199217351,-0.0030154363015128943,-0.5996446984938338,2011-09-26 15:40:43.651817589,0.209994698
49.013295705265236,8.408952874717931,118.9922926445652,0.18614824196810448,0.04262528117437276,9.105968939150227,-1.7070746136157666,-0.7917311525617448,5.122815263343674,-1.6296303618525025,-0.2308437086980894,-0.3586002672080577,-5.258421355424875,10.63426180137479,2.294540263437147,-10.337289073650087,10.717197721101222,-0.04551014654466212,-0.3472953260029334,1.9580112438095938,0.02404706838244424,-0.16487465977354793,-0.31488172542768983,2011-09-26 15:40:43.751845204,0.310022313
49.01227259526313,8.413954349101523,119.90706503168629,-0.26649231954039576,-0.045431888090152216,0.02094511948097111,15.026490677001842,-2.411147666403666,1.3715166321345311,0.5917062910885803,0.19675951139853537,1.9418521371985773,3.093964211277134,9.82466223200393,8.792861459643836,-5.303077247106195,8.781688249253756,0.4492058760857103,-0.05147772415830657,-0.6010777241402375,0.06732327410734466,0.015526571903048056,0.20399365502242456,2011-09-26 15:40:43.861827396,0.420004505
49.012678220917294,8.410946849138865,117.02055352811091,0.056832756238666335,0.005644143189676233,4.724911542740811,15.238053208525756,-4.028164274345536,12.859505346494142,-0.29132798962852324,0.07888029527692816,-0.8444550488377602,-1.3379213098702614,10.237755261215707,3.082783133584467,0.1732690837730797,9.880145754142893,0.022176472356547947,-0.09819642866514884,1.6516035382257197,-0.030956433632075404,0.043105513362499355,-0.09812374436756245,2011-09-26 15:40:43.961896217,0.520073326
49.0110955447617,8.412992347704224,118.02518247653633,0.049309462055403507,-0.03734846585213609,2.9776640058148622,6.425738961393692,-4.501467480231494,9.607971380378144,0.020491120049583453,-0.037976714965164346,-0.589918535911667,-3.3110444488631616,10.046304645760713,1.8151760432027448,3.1678513725031285,10.306275245802553,-0.012023736748333985,-0.17199134260982168,0.32551217745346267,0.38025784404971236,-0.07757472992554135,-0.3487471956326402,2011-09-26 15:40:44.071825584,0.630002693
49.011832982043416,8.408710307269642,112.66786264109935,0.06819532348894496,-0.020663289052488328,1.0119915680999108,45.67356368011809,20.158895610700814,5.990355528944047,-1.036448226764864,0.14433808175177765,4.066501632807022,0.5669235701295617,8.919210199746479,-1.1395985526225458,3.0082474161032153,4.968084959530135,0.07156455991540675,-0.03377249863824494,0.4320424188181544,0.048261586529439696,-0.08969156577063545,0.3624880603172316,2011-09-26 15:40:44.171917822,0.730094931
49.01085694621428,8.413280312682472,118.42752903288387,0.0030607746241639085,0.011457494977823758,0.07070526412707157,11.73639777286953,3.512225942525762,0.5605743041399744,-0.11989853600911651,0.2536965639902432,3.867605949445288,-0.39470600639195025,10.17363069123923,-1.1303448511545735,-1.9827800297903397,10.537827783925486,0.020220836462671442,0.050156685321623116,-0.08893695550532657,0.2488021585766423,-0.01700665454948576,-0.4499832625213934,2011-09-26 15:40:44.271894585,0.830071694
49.011526920635234,8.416159057375754,116.06002460218971,0.02394904757087741,-0.02959446053006099,1.7834431989113528,13.145388257948829,45.10587630471624,8.711188431572232,1.602482165081011,0.03208112093216846,0.9651086763032716,6.33973524663532,10.062604490018247,0.3028563211548919,2.9896289700777996,11.754299203939803,0.051755835763192766,0.06690622063257107,-2.182876033647931,-0.07496121158742419,0.020414268233983127,0.3588015795072319,2011-09-26 15:40:44.371810112,0.929987221
49.00610669023122,8.41364872796431,117.88320625508588,0.01802591097002171,0.0037427118735533487,3.938552754645472,-0.15027670303613583,3.073456304561087,5.371703607256988,0.11930767472488293,0.3318441928299809,-0.19879340904660547,0.43711952788452907,9.10624991724632,1.8034112070697037,2.452029994845368,10.207648078062434,-0.09580571944251742,-0.012329603374296678,0.7060579424242799,0.15229237426789582,0.10935317501073105,0.5145635945677226,2011-09-26 15:40:44.481821827,1.039998936
49.01267148340802,8.433764435455027,128.45376935717252,0.014195254158962198,-0.036898674327764655,-18.34712394056194,4.290869392541555,8.707854005830834,8.440310976510412,0.036387275767733644,-0.18069900800326152,1.044477373639134,0.6615084134961068,13.287165765322495,-1.218627334645269,0.694302824951327,8.448908088010926,-0.30635589471499847,0.24118403463155783,-0.16429457463159436,-0.05472508548501059,-0.13423637071258085,-0.526736625829599,2011-09-26 15:40:44.581823088,1.140000197
49.013180271541465,8.414129969887846,117.13060169841336,0.0599805940646294,-0.008757678818413172,3.0370598235759996,6.527700811029862,-0.0016090274334832344,5.28159214995822,-0.08233281918184805,-0.036251830350409214,4.384274995428347,-1.6851779635019422,9.816934844630342,-7.54064268175541,-0.04863089728932041,9.830279988091688,0.07037766455862828,-0.02377971515275045,1.4754679676828386,0.14139501902677692,0.1899244051553915,-0.1495527783183285,2011-09-26 15:40:44.692011047,1.250188156
49.01225526227823,8.408277110814868,117.20194278334957,0.08062095095700586,-0.004142734880342676,2.2725472233719564,0.021654382181917065,8.607106145435178,29.312614252296637,-0.13311996354591704,-0.0834064865237065,-0.7120406813383553,0.4216373596159818,5.054353849372979,1.8846290553537908,2.0322064432694336,10.249089374538041,-0.016879144862512546,0.22697545726219828,-0.10275239397400622,0.19897932218898587,-0.08624013591881166,-0.05460662333798849,2011-09-26 15:40:44.791805903,1.349983012
49.023168521472385,8.410668462181576,117.6880568314969,0.007336178049705263,0.06575663014651013,2.377767618259907,3.4946372163468835,-7.341526875060854,1.1532606792226954,0.12226284080876554,0.027438911314197404,-0.8663160075212064,3.965267656986958,9.452113453448646,3.767882483109098,-1.4608380437530444,8.91423615031672,0.043558807322907976,-0.10131885846864706,-0.017923719663185147,0.043625609467226455,-0.05598858747298681,0.2241999846928747,2011-09-26 15:40:44.891813092,1.449990201
49.011458754597534,8.412408970515923,117.95465232372831,-0.0032568646515342,-0.03939499534022952,-1.5063561015915103,-10.844020897957385,-5.604288814099207,12.256408455724168,-0.020692931359491476,-1.4969164759496785,-1.027956217738708,-1.0290406940308552,10.603664780986502,2.8358533774244776,-1.049679912849764,10.706559066167301,0.13226664713336828,-0.0822084723930037,0.4111391970812524,0.009761481519141892,0.038427206985870044,0.45091898029768096,2011-09-26 15:40:45.001860833,1.560037942
49.0115898843741,8.408028811396557,116.07821924390117,-0.04046037555063652,-0.0010827047476898192,13.785108495684936,16.44474274104197,-7.0149566779930135,1.8250820192504067,-0.15926389769937516,0.5368440052749059,-1.0843211123080845,0.1258959476863773,9.61241402817835,-2.4615163347993665,-0.9684401682756263,9.504502707947285,-0.027340493484700995,-0.08753858694632617,-0.27644825433435977,0.04086331570703563,0.09427818245721552,-0.032232277628198275,2011-09-26 15:40:45.101843013,1.660020122
49.01341541951635,8.41180976854036,118.38349084212737,0.036377663468952826,-0.029831128163869926,-8.712307662105825,25.405018208325757,-1.705161270611425,10.827270969070664,0.25234465289656854,0.30588103926782234,-4.348530081255784,1.1013919176918614,8.993708500683274,-0.30140378051764627,3.537359427324513,10.71437789229613,-0.021511634831752675,-0.04336602803668034,0.6014897495302072,-0.020582862547128496,0.13310492120879108,-0.5241325055590671,2011-09-26 15:40:45.202019634,1.760196743
49.01176536207467,8.411768199932647,117.6769178572258,0.06328859780109766,0.01381918433865493,0.5792862227506145,0.9984231523016769,-3.610223958737239,5.311749656797733,0.18163089498510754,0.24312928579608487,3.1688916393390745,1.7328215804608085,8.83616965593165,2.7204392300740765,-1.174410992102412,6.1910606007629765,0.06867799207496482,0.09257797819351013,0.5146391832422618,-0.02551435931226603,0.014630705253162422,-0.3279095885353437,2011-09-26 15:40:45.311837869,1.870014978
49.011472306834655,8.412493199744352,115.49829220732896,0.028833669016091634,0.031044867633947707,5.384932894632724,1.217446118757902,-5.171440973158767,7.367948427261701,0.20061152253400996,-0.029056701024248205,-2.11801104820022,1.4210515777012238,7.357444498297218,4.045692665437354,-1.4860492285801676,18.580294984268512,-0.03532236724060665,-0.8226791616408766,0.5361342524087114,0.06479070009573715,-0.08650553751904848,0.3567870008071475,2011-09-26 15:40:45.411869871,1.970046980
49.01043551775625,8.410749673256706,112.04034479323502,-0.039608822529497587,-0.04348171899239833,-0.8406362224263242,9.67569797080834,1.7771926686500765,3.7360691857181303,0.07552205131945264,-0.2700512799324286,-2.776311324731627,-0.5045928588006303,8.331406665161957,-6.030479199089247,1.8181059802408335,8.3376018608495,-0.021298990434612974,-0.08875775760213978,-0.31138457566570826,0.21505230792246316,0.0556322006764247,-0.2269015928312369,2011-09-26 15:40:45.511889228,2.070066337
49.01299688476998,8.413931584336346,119.08513510273754,0.12065869416770275,0.019895713303966302,-2.0237141474484996,-6.654007304855686,-25.140906591977004,-0.44239687347697565,0.2459557326797456,-0.3399544313935306,2.191056357438926,1.1508097311479473,10.45010778642939,17.868369992217605,-0.9819227897686102,4.201463062185173,-0.05329585889064988,0.02940261587373172,-0.128331280407651,0.01864211365782556,-0.007737465946372445,-0.7093390629383917,2011-09-26 15:40:45.621934015,2.180111124
49.01281973400653,8.410878469556827,117.83419078127217,0.050382980105142,0.003677125880963775,-9.246505773843817,71.84578804799087,15.844494499672443,-9.648637656383961,1.4042292940806578,-0.19993688073786126,4.292027869137959,-0.21534445548781578,8.416450184825992,0.7644549539840246,2.302483167811857,10.182554553193363,0.1336029386586264,-0.045958980740765785,0.06489198445694581,0.099006580770532,0.07557343968297603,0.5427866653692848,2011-09-26 15:40:45.721959257,2.280136366
49.0259514758982,8.408354876508865,116.31278851047209,0.05658191541060743,-0.019858553135796563,3.8605696872972564,14.92304625801469,-2.4079383357552056,7.3272732792352695,-0.4353170035603787,1.053623844081238,-1.7095895575786753,-0.3298972135877809,11.4026412703106,0.9286449841756306,0.9948516067456965,13.0242861115288,-0.08278020127381192,0.04589694852707508,0.3903672755434506,-0.28235317691609535,-0.1773291372936301,1.6272488783500019,2011-09-26 15:40:45.821924214,2.380101323
49.01412091218725,8.412709240265134,117.15534925144419,0.009768298752266594,0.08771832070518648,-1.845925585462704,-98.72486536370967,-9.146454778511268,11.421173383769142,0.057559803231375974,0.26841327584575597,-2.5177806442428965,-2.5973084946377263,9.356623024736951,2.014107008347313,0.7144221261528507,9.172154513433691,-0.20115949267889338,0.15970714269861008,0.15560086165901366,-0.009761515490979835,0.7819321715567448,-0.002311596525348316,2011-09-26 15:40:45.931949290,2.490126399
49.0097654262488,8.41386373542328,116.69987972106979,0.1401847642110057,0.028810462012693404,11.33262262340265,7.493971612449339,-62.06955415273055,-0.3941638061994963,0.1590245126916967,-0.004029283880919124,1.705152071268531,0.07109883518447746,10.445215973328843,-0.4509310488516691,2.7559952899139883,9.217689681341035,0.058715166125990106,0.08671525549163622,-0.3657870035251426,0.20294047381388405,-0.1500044742556857,0.6041331416241847,2011-09-26 15:40:46.031928056,2.590105165
49.01231084156565,8.41259546958927,125.5920862751066,-0.02943595433482371,-0.00957459135461402,4.171550225259827,11.031674707311932,7.945192453325694,0.5288868593779927,0.17675259974228894,0.1504071597669558,-2.1808433346875766,1.1257123673343639,8.92097754643115,-0.3907035202724194,0.5587466752192931,9.046434027385848,-0.04169645136439791,0.08636261830074202,0.3682230383646423,-0.02625384763310534,-0.03832231780350619,0.18336389854832252,2011-09-26 15:40:46.131947830,2.690124939
49.01109932979279,8.411844085239425,118.852624095269,0.01992417409083768,-0.01367071151200928,-0.5760275598594393,-116.61160506494605,-14.67162586134029,1.6938100435708332,0.24118576290014346,0.16294438616752918,0.698183076584112,0.4218315233287899,8.769783483064712,1.8884658045901903,-0.3325949656092051,10.185097262695153,0.35412220692307217,-0.09602772751358467,0.021583451443133603,0.014502192871520495,-0.08007881909923549,1.0962036613403239,2011-09-26 15:40:46.242074755,2.800251864
49.0124101890226,8.42097215353705,116.10022137278648,0.058098338706162135,-0.04318701697336659,6.827349067659632,-4.557673224570551,-10.170790076831732,11.891003692625969,0.3563843431053074,-0.845770227614169,0.5847613896655914,-2.3097122425329513,9.671649222878965,5.131003931035129,-4.2804945302675925,15.461627893932537,-0.08325028139460147,0.16020784747456407,-0.09028941313972971,0.10443334121789899,0.05637622969655321,0.21912708469714448,2011-09-26 15:40:46.341964026,2.900141135
49.012604302558344,8.41386179675126,117.60095402120473,-0.07706837310599216,0.029444644600765908,-1.626039263755442,-10.502565268255115,2.557327161658995,13.928228201706313,0.05257796409650273,-0.05835804986036084,-1.9536392411256738,0.21113890032264437,9.018899878206147,-0.20601109966200926,1.1006311308745964,12.416104361154066,0.0004066286935240429,0.19621911134518832,-0.5307583632873281,-0.28673386783160726,0.09491696532717908,0.017298286604107132,2011-09-26 15:40:46.451890234,3.010067343
49.01184581760112,8.409691277783978,119.85865300948136,0.04197753571058531,-0.08241928199295612,0.7853316932695792,104.77955212374404,-26.796628795873623,8.588172307212545,1.0751900855535335,-0.07338184615669842,-0.22828072875943092,-2.065953072328508,12.57733325206229,-1.722786861299115,0.4486183936629938,10.77980962622583,0.03556939409807182,-0.5824329379702389,0.24682046800535418,-0.06994516929492968,-0.6667163256705225,-0.2681300855565285,2011-09-26 15:40:46.551980924,3.110158033
49.009875146077,8.420640909484524,119.56592424454021,-0.08945278142934474,-0.017822213105592555,-8.395176909123157,22.071787421761627,-2.8246106907528405,5.2359886395007695,-0.12544825141419808,0.20196032277183265,-0.13502259297814392,1.8470660594523334,11.367252100484494,-1.7321063529195806,-2.117602676514575,7.8997479931783845,0.02210056416066308,-0.09323507854858448,-0.21598681854519033,0.05377426926444817,-0.049096275476964546,0.9651143874914653,2011-09-26 15:40:46.651983925,3.210161034
49.01341367047407,8.41222286200877,117.96491712646394,0.033115456794218956,0.2218839999054472,-9.250153761119075,11.588051911154237,4.386436845222941,3.9453459721065336,1.1313365945315428,0.10609528780122254,0.8430435852886706,0.9730721358072913,7.422949280794251,-0.36657139776060976,-0.8348440133947084,9.688174550372445,-0.11576198082978086,-0.008757896717689314,0.14547413754404903,-0.41719736532191143,-0.1217855522661507,0.2988655293962528,2011-09-26 15:40:46.751996236,3.310173345
49.01495128568934,8.416296374507537,116.97642711096339,0.10256665225782413,-0.0020671422400015587,3.9700080165194507,18.368441514538212,7.910768022585711,7.659620717831545,0.38453992482808397,-0.01688663772573544,-0.6075596926964515,0.5781453195020443,15.617160272480227,1.8885091004111985,1.8217303706199328,9.676235460229734,-0.031384170451742174,-0.1580043424680988,0.9422063218140926,-0.28895543941098734,-0.02116515576763205,0.0647807674637656,2011-09-26 15:40:46.862027067,3.420204176
49.011796160304534,8.411153744550116,116.06029161915914,-0.04066910833733103,-0.015464912269408042,2.5260911855124,-0.5054457895215201,18.90332190753783,16.052440951048446,-0.01332495963304622,-0.08584946098266612,4.222881955973314,0.13623414149173485,10.628215055213063,-2.557595227490839,12.434047527834117,10.30916608543882,0.058557582530589486,-0.0572317943607622,0.06323661298836634,-0.0740837702027322,-0.032206858691703893,-0.42252338170867315,2011-09-26 15:40:46.962003225,3.520180334
49.010657330038946,8.41081092929913,117.5636106007608,-0.2742214012541521,-0.04213364352054151,3.4447696567610855,6.4946912970979405,1.937945963369736,-5.556201575586429,0.2923241470818839,-0.7572092248737189,-0.18212830561949306,-2.162198570507741,9.834039911912544,0.8696700109690937,2.093566976248857,7.174872164273803,-0.19689321789864977,0.32032481644629685,-1.0403143630671592,-0.7819544125163617,-0.08467214050863538,-0.0560452283152679,2011-09-26 15:40:47.072053344,3.630230453
49.01188126502708,8.417222246207752,119.88527595429645,0.08646269837793027,0.00917752106307997,-2.6154236233551615,24.81905115829972,-7.495599885018228,0.5693369111143998,-0.08293535882030395,-0.1959231948482811,2.7938748975138226,-0.8608768156653095,9.582021376952383,-1.1057617443766754,-0.44968423521001016,10.411552083195302,-0.003679220779075735,-0.0638560375124897,-0.45132935108297856,0.0375839455195821,-0.07257224817913918,-0.8251608947834513,2011-09-26 15:40:47.172048973,3.730226082
49.011700453725844,8.403827144422255,119.0761695810312,0.08077582747233075,-0.015865157656333007,-1.0719397631072676,1.0985629845775113,4.58938005440151,8.875839489646388,0.12295583305313343,0.03606009688249291,-0.8614552734555827,0.3233851695646814,10.255862712386888,0.1951512695842646,0.2674056512456056,10.251586942031125,-0.018628835529958334,-0.02065239034812053,0.036442334365182155,0.056228672869191046,0.07607158592515903,-1.2105036578480854,2011-09-26 15:40:47.272149532,3.830326641
49.01230494871036,8.414769869481365,116.83087526267492,-0.0011733882096602935,-0.0539006558159977,2.655849692763087,15.298881590583864,6.68166936773796,2.311365314680015,-0.7249614214964839,0.03618080021451924,0.8655700921549228,1.6241605102519698,10.94678258706097,-1.7967850493063802,-0.5892365547239753,10.108131955654615,-0.08016069456065618,-0.10567480684971363,-0.3433025469346173,-0.05507311950995511,0.10639015648933199,-0.510961791034093,2011-09-26 15:40:47.381935524,3.940112633
49.010838707434964,8.412587330107138,117.76607427065082,0.09807409633759517,-0.036833734539780894,3.657725646559027,-48.90887033018501,68.41003389116905,7.041041156800304,0.2576036516250969,0.135087548671601,0.019695695900481647,0.501663456602037,10.40623513075288,0.509480511404295,0.02682541854407059,10.522527748011285,0.08204499351991204,0.03537184712493224,-0.8810000440228791,-0.00717183448353448,0.12279916110963411,-0.38416752178296487,2011-09-26 15:40:47.481976793,4.040153902
49.01162544655884,8.412474563817181,117.69380936941221,0.0020085375869980313,-0.036241224284656925,0.9418523865148581,16.647338886845073,6.219211573258538,-2.188454401642389,0.06694259500887192,0.7514835275168936,1.533757717859989,7.524629222913228,9.318241283760035,0.9661285268332523,-0.06787935215321972,9.468158439777321,-0.042153757064830516,0.07640340550440627,0.2585387878227837,0.09593393223890141,0.09200179250763092,-0.1201891465668781,2011-09-26 15:40:47.581947642,4.140124751
49.010291977021296,8.41479789232977,117.85677123500109,-0.0037587594879018374,0.04476335627556481,-0.15177554071545107,21.299302090629798,2.04662026624186,6.8989338238713955,0.02104760236375476,0.4176908169488787,0.23544447985131142,1.761027723691306,9.605267237143986,1.1009877135620607,-6.888182292951578,10.437635810201261,-0.06308407616661277,0.052088850637087514,-0.14479481483018886,0.04158124715549288,0.21928294055298678,0.44201300987012004,2011-09-26 15:40:47.692207410,4.250384519
49.012837056682606,8.42162994978947,123.5128213276425,0.046156754008313004,0.008937231245756863,3.339031548925889,18.608357746318028,3.401975916797054,10.212629276742543,0.045735032298690394,0.40008940906425994,1.976785718861375,0.7905417139004194,13.635373533916342,-2.699977929350904,-1.4465817694530403,9.769449215260236,-0.04975254106448323,0.01129254255120923,0.3462029151917833,-0.04170108681348563,-0.006302245776137741,0.5583104914372369,2011-09-26 15:40:47.791939729,4.350116838
49.012224233514296,8.405420182721816,105.97032791462391,0.012862099564118008,-0.04623194870003503,-0.933285517357098,4.378196228630921,11.106581333051277,2.0463002588900165,-0.5323907032096415,0.23219342285714892,4.643807022980389,10.858349176067538,10.52206197858893,2.084204494487664,-1.0690044036920574,10.398013588251143,-0.022674050835640204,-0.0542794070819425,-0.46382433529143924,-0.053538529482776535,-0.062348043579898406,0.714548961020834,2011-09-26 15:40:47.892001495,4.450178604
49.01294041270664,8.41017050360616,119.4240234942718,0.07400511843132067,0.036632649110880315,6.280227324354502,3.195942658621327,27.11298013335118,-31.10900148925999,0.34023485590503744,0.08886240042107336,-1.5515982793700729,-3.215648214303735,9.749292568032773,10.12636643764618,-0.5937599481632537,9.836903214484492,0.03774865781367435,-0.036054554233295885,0.14858434987954308,-0.013061471486488535,-0.10291344816199419,-1.8202825258109006,2011-09-26 15:40:48.001979787,4.560156896
49.011463741957854,8.411750126528284,117.25471106694553,-0.006763350209194621,0.01726638078132143,-1.3688350655762844,15.749931962364943,-4.1539661215899715,2.282098583847354,0.17789581390045828,-0.17467536130585956,3.5896753807874506,0.592513008403666,9.175139258076449,-2.003536596496237,2.465613001362998,10.923913589281748,0.13660828564807148,0.01607763487367027,0.1201059226428079,-0.14538978605509115,-0.139810795895233,0.29041047588959784,2011-09-26 15:40:48.101969730,4.660146839
49.010475077454764,8.414050565022421,121.68701340545356,0.04272199345424279,0.05906916075149813,2.6117184308054617,6.729418022376354,-16.50965909091337,10.421050705325833,1.240996714844753,0.2240696303401924,1.0169790318378076,2.7668031491735134,9.537502134854055,-3.752854926626424,-0.3149053705120749,9.414356206898635,0.038498941214481726,-0.015054023171744766,0.1436515772513623,0.00035688093090522493,0.12549004777913952,-0.0072902239001802205,2011-09-26 15:40:48.212149871,4.770326980
49.01164306719328,8.415866689212107,118.40393689424401,0.03454704907034547,-0.051516091054423084,2.6779750602821135,-6.09404734612541,-13.295261401987613,5.905275585189053,0.1258179615276367,0.1493266234395562,-0.2114197925596174,-0.9385475799017234,9.08779497391771,0.11796471269015868,0.23231889410017542,8.019462574968752,0.2952217521907436,-0.22202087876123924,0.14320568633442354,0.03621129268854503,-0.08102102167447534,-0.23707133065616853,2011-09-26 15:40:48.311952426,4.870129535
49.009852979779765,8.39721063473042,116.55788015766538,0.15126493293463628,-0.01818915607670936,0.13892196756690112,17.105660338472354,4.7746139787698585,-2.7076788867985284,-0.07894000760371804,-0.17151699981044774,-1.503597685475233,0.48168240909657034,9.923156931073274,0.5628470590614493,0.8116006546549706,7.7094679402691,-0.1092016793264255,0.11465186069815086,-0.06931548012999106,0.08617841179409204,-0.0036203842076365823,-0.016441794589024315,2011-09-26 15:40:48.411973216,4.970150325
49.013584739110655,8.412047873404543,115.29532394293783,0.004258112179900735,-0.00989389097924668,2.355295167269501,6.630886877300258,-0.06651211613208763,6.576659056533073,-0.40244644476072644,0.21444262072321899,4.103776509706343,8.81741012737874,11.567591686740752,-1.420087922771551,-0.7476070668315234,10.1654399007901,-0.013362039894485367,-0.048815062240593204,-0.5847536961987874,0.11363486696608383,-0.06836320150870817,-0.25384141482510236,2011-09-26 15:40:48.522028978,5.080206087
49.01291623457596,8.413406414368234,111.8504461973322,-0.24171772531732144,0.0072670406839593985,5.261915095360109,0.11632822501334861,3.2282219674712356,17.7917293761831,-0.3900297919909445,0.08864259248560916,0.03718360405989657,-0.45008355961083146,10.873043740978344,1.6790795985622642,-0.8042767595866573,8.80324096882549,0.05147941416076983,-0.43936443967554983,-0.48208390665900197,-0.06473926612162867,-0.021168583698020188,2.1066391864973624,2011-09-26 15:40:48.621991686,5.180168795
49.010869443790995,8.408148770203667,116.05051136052329,-0.0023061186979894607,0.012011575914576168,8.049711939903073,8.268871989580342,-5.790019446039671,1.9826249727236807,-0.19498080564169104,0.44691834799928737,3.096879649220135,1.3442542812534592,8.347565518113202,6.830870275617329,0.9735711915169607,7.757376872737549,0.0645181500192713,-0.02037649687578856,0.0863952140422225,-0.044474098703858725,-0.001723161101181188,-0.23437671081166714,2011-09-26 15:40:48.722006637,5.280183746
49.0119280820872,8.41136141212961,123.7484665090485,-0.03498398379547056,-0.017311767966121716,1.460967769461655,16.876462772961595,-5.940307143315849,7.3671304451351665,-0.0891974596022969,0.31030088295668007,-3.3925568378848676,0.502006597697594,7.8842478135174545,0.41926236105271714,1.9495713983668534,9.602875669145362,-0.17714292231273626,0.08811141580472018,-0.33880071025267844,0.07797566625482358,-0.26757506010079096,0.6892345156530422,2011-09-26 15:40:48.821996417,5.380173526
49.0129578363723,8.408796279855052,117.93346586680505,-0.024039914962572094,-0.011290776172368433,-13.34676283795913,5.30391398117597,-3.8596720133511373,13.873214189803658,-0.24026450656131926,-0.056788055337622795,-1.2326494560877852,2.5537555153660034,-2.407708419353689,2.3231387031636554,1.1131778227590197,10.28679285928246,-0.000690634284995957,0.035955802326962744,-0.2453844837329695,-0.09210104589564092,-0.08456853476395469,0.8829290496916071,2011-09-26 15:40:48.932021547,5.490198656
49.0119658305133,8.413680252786289,117.8457455864895,-0.015626459775790864,0.21655181841204496,-0.049404999864780974,21.490734307542418,2.5829738951131147,16.781904001088407,0.06601423969680123,1.013606800622127,-6.101629589149954,-0.7680981668922398,10.297528174966825,-2.0054014283212758,3.1299709968270184,11.737485050158277,-0.1726885713511485,0.015386699937313047,-0.6322083208799459,-0.007543332237053751,0.0811360499187363,-0.7280762141511351,2011-09-26 15:40:49.031999851,5.590176960
49.01022282202537,8.409259742940643,109.96753667597945,0.1320132924879364,-0.001838866292471961,2.1172257485071686,11.156738273106068,49.138599634820274,-1.3391590192104372,-0.14665606083178134,0.023436050101223613,2.0277601311713593,0.924281688302012,10.083187775243182,-12.237068396115369,0.1291365757633068,10.637617280393918,-0.0031734564126293385,-0.08247613333500396,0.1915622289205941,0.024094629987628038,0.022731511947912113,0.2850413317955101,2011-09-26 15:40:49.132099410,5.690276519
49.01033323953107,8.415436054594469,122.89055506888141,-0.006758571137695617,-0.015646534533854763,2.9232787400786604,5.921694403707619,-0.3205337910484533,-1.6862446266002653,0.080860346960551,-1.3759057988116863,-11.437821504539842,-2.262930050950213,9.105590112384288,-0.43432837678817093,1.9136176559652067,10.736476665700122,0.04895183293797407,0.02046068896890967,-0.22874473679479101,0.04175056090370581,0.06307739796141046,0.09251572612848238,2011-09-26 15:40:49.242145825,5.800322934
49.01217228959232,8.414465036289258,115.70865068394218,0.06015426472572547,0.006474225996822011,-2.741541762057844,8.429546479780214,0.3220748921733509,9.22737352452004,-0.1792158717243848,0.6401277745870113,-3.896462563592172,-1.4623211511283127,8.276608027676264,-0.457816729251653,0.42801344510592665,8.739739160340243,-0.007501276520121074,0.05494739082427994,0.27667783605965063,0.01945717323542438,0.11163380014975303,1.004787560954084,2011-09-26 15:40:49.342017866,5.900194975
49.01067881625694,8.415612226882013,106.92941637896962,0.010638779513576467,0.034041639761837356,0.3771859075465962,-3.827399350278787,2.8834885706389892,-0.27713174414965547,-1.296457093716038,-0.023945948126471522,-15.698563738510032,0.9511814781476563,10.356913329999541,-0.9774140682549946,-0.996045956696432,10.506192147808266,-0.08980210464743679,0.02598422391009049,0.4006526141534297,0.04781496518915409,-0.20174385109148568,0.19193491829134202,2011-09-26 15:40:49.442023858,6.000200967
49.01285785410513,8.38366036718321,119.06401624833552,0.12008987509812438,0.0733975067529229,-0.2559148938112543,10.031358421895982,6.721998891884047,11.76383121279778,0.7325653276685512,0.16646118721044081,-17.46514243919173,-0.9677619903864069,10.79564941281837,3.4559499969062206,-2.6651851355650966,9.934196559227741,-0.263806444556289,-0.04813669284905035,0.4098470351765527,-0.109388730396718,0.014814101678147057,2.6757633406955055,2011-09-26 15:40:49.552023407,6.110200516
49.011377188296905,8.408185880552384,119.21391665389783,0.14808069967392945,0.1840890146978874,8.050322714179579,-6.9239088258154124,41.07381486354106,9.762052374434441,1.141611076805635,-0.7618460386808549,-0.696056611781491,-3.05341415359261,9.232412621307665,-0.1565485870152501,-0.8101950635404161,9.287171035058494,0.00965491211816277,-0.06863875949821703,0.1942903076690298,-0.059582718057153095,0.030779798850921195,-0.4636706527114775,2011-09-26 15:40:49.652099550,6.210276659
49.01194375526745,8.412927061935187,117.52690048415874,-0.06554272315921633,0.0049477346086501724,1.3307925605184676,15.891131959005548,0.9787639063179316,-6.100334981220676,0.005961043023779124,-0.14198556605170304,1.8335880646989657,1.9117992974757718,9.35637820634875,-0.6383964426111455,0.7527973155836291,9.204768697248241,-0.1617103495207279,-0.057811827085133376,0.4517836567398037,-0.11261802559894422,-0.03606465854228742,0.022783603355667106,2011-09-26 15:40:49.752068730,6.310245839
49.01066649152726,8.413457883725624,116.33182229521556,0.006334803819051951,0.01463298933970602,1.5916581552233005,5.131778497031542,5.487010230603212,-18.146444503196857,0.12686831466327764,-0.16181547394696041,0.6325838238192643,-4.471553938174813,10.131575882730905,12.662901225117665,-0.4957276926201293,9.659783435957895,-0.22491191245743586,0.35168163938930413,0.012391364756278538,-0.01595734165045945,0.04510122734264124,0.02275970284247003,2011-09-26 15:40:49.862046548,6.420223657
49.01913720667482,8.400761293456465,115.37529146647003,0.319588064276838,0.07880298159573272,-11.174755820991518,10.194341221465894,24.436467892369905,10.753440893490929,0.03977020707314972,-1.413748357532856,0.6827831627780772,0.5114102332336312,9.988438004661672,-5.34433488826685,-1.4630662684576503,10.565770931396532,-0.4105750117355308,-0.06022386290606577,0.3765551898871106,0.2008962569111494,-0.03239206439005926,-0.12866879889712757,2011-09-26 15:40:49.962082430,6.520259539
49.0105364056236,8.40811043848394,117.40811895769858,0.018311500009029025,-0.02016044656588929,-0.6910091924839286,76.70785789216075,15.071596524954133,16.61740159523935,0.09724110136302398,0.4629590932218576,4.188156521936169,3.98220055733961,10.457427254637208,6.224768712687077,2.719672763272709,8.83917674494968,0.5172663189896898,0.02359470947180976,0.5095906212061442,0.0028253355553342074,-0.18756061060675808,0.578876736908222,2011-09-26 15:40:50.072205654,6.630382763
49.01260180072464,8.412740989893667,126.86684403332822,0.12762750273699722,0.012185073778088001,1.7855015749994827,-4.381794027528349,-4.989261526830363,7.729362893819174,-0.19784565342241078,0.04163525553684074,-0.9674835437191155,-5.072379097636445,10.246490657344292,0.5995129186212093,-2.1054454394415334,8.90631129655304,0.09684421148757019,0.08404579094614711,0.12226522715206233,0.5856867548049962,0.0439707600149143,-0.08110573678888304,2011-09-26 15:40:50.172188742,6.730365851
49.01082687815238,8.412117397526353,118.1035261146066,0.15692679513822627,0.03085754809495902,-0.363172892200637,-1.4711079479499496,-2.9873732200218313,8.093165333546263,0.07385683377472409,-0.2468110893603995,0.028662782424260555,-0.817538476889105,8.040840535507396,4.007530442896418,8.832350572593638,9.483606743214821,0.1298165448241048,-0.00927718029700564,0.7921005113034421,-0.05351255741274867,0.07982735060226336,0.4972307486479352,2011-09-26 15:40:50.272156269,6.830333378
49.00767989692673,8.411833939445646,121.41381306767666,0.10728392643062484,-0.18289629031877086,-0.7156714027542259,-9.537785401441063,0.11037084073347259,14.77395849872311,-0.07491267095326151,-0.23890239481309006,3.5104963377749603,1.7166306371883167,7.612723956220135,-0.8338141562413954,-0.5982072141035212,10.105189987782706,0.09163919058431155,-0.08008391991499524,4.527082197567162,-0.032620298736518304,-0.069786924225829,-0.2857139222595261,2011-09-26 15:40:50.372297108,6.930474217
49.01163210686502,8.409745732429363,117.24043785726339,0.16298992428226614,0.025643219149244036,-16.233028715713385,11.13592368155028,14.816214896650582,5.880359230666061,0.02172085938981959,0.04432112547694961,-0.26862304631896367,0.6255639441769815,9.585285775221175,-0.7263698036738377,1.3476638123097895,9.399498089622268,0.007373912488120577,0.0006490708142177538,-0.2517654206698026,0.05164142112934504,-0.4852552020224567,-3.239427911214928,2011-09-26 15:40:50.482135768,7.040312877
49.00744492288534,8.398894932167654,117.06931466512704,0.036512307653194756,-0.006651568033365404,2.7956845707075364,9.464555454280491,-5.398136896930321,11.702370374091736,0.06901920462904197,-0.2429678656575922,0.8939936438704554,1.6761609450651016,10.470320175426316,-2.5384291087378164,-1.411619099792632,9.283710207658903,0.013957141892089346,-0.03827360666243905,-2.2129673763305218,-0.002900128459161308,-0.02302137287711028,-0.18488824445759897,2011-09-26 15:40:50.582147838,7.140324947
49.01417611942815,8.410901552492259,116.62774289873941,0.042923920401816466,0.007295478492264592,2.9523164730054656,2.0994153078869937,7.747475511181734,-1.3464035363420361,0.742673716646298,0.2406551099533111,-1.5763824015999721,0.005415115483835553,10.319595122829668,1.9070514585420462,-1.0313234584369244,9.958888728413946,0.04876748489720843,-0.08157618180910646,0.6053511240388909,0.2814638749224068,0.02672129574659173,0.4367669585596349,2011-09-26 15:40:50.682303986,7.240481095
49.012128501834084,8.411987933748462,104.95280997341035,0.026311499377735314,0.03913145121072249,0.4010211727380304,-18.513998214184294,-0.11672558549190876,11.054266738543289,0.19352086627067022,-0.16836456576383033,-3.0858992975966553,0.7065524954928362,8.569120048915176,-2.749132582660113,0.5918629623257082,8.435459081689556,-0.017480549063324746,0.15184969197885043,0.009541151623817417,0.017075202096709416,-0.32142772023794086,-0.22026963695033977,2011-09-26 15:40:50.792099415,7.350276524
49.01167939894897,8.414429194845873,117.45047859016067,0.0459036829739123,0.031874649872279344,-10.42598131405872,0.39626086025136864,0.8851324819468649,-0.5242768769431958,0.4811369214253691,0.17699921120633041,-3.5663804668248646,-1.1467719504977705,10.534480994889805,-0.7400313566572468,1.4039648531144993,10.843084591487894,-0.10252870094976055,0.06882527242209001,-0.011393713936454216,-0.14047221647398142,-0.03232567305431998,-0.13175394966503082,2011-09-26 15:40:50.892068968,7.450246077
49.01318626066151,8.412004973583034,120.69208631250181,0.10860437621744576,-0.017156014153995182,4.688710946412199,16.853248204695788,-6.454301017975419,13.431347214375434,-0.06840193613691507,0.04582128840791342,-4.399874573647186,1.4206916163947056,10.087705486408751,0.018833089498201748,2.0325461451021294,6.451409191882853,-0.20529563409728624,-0.10752912314115887,-0.09472827857162353,-0.11033818987538302,-0.03079238204659945,1.00142080100663,2011-09-26 15:40:50.992096133,7.550273242
49.01164523514465,8.407665605342805,118.53942139856971,-0.6091997822263461,-0.07039180183877908,3.084782699813242,66.61813050800586,0.21820730456328963,2.0901117114491754,-0.030353263692218736,-0.1379802989654673,6.4714311098482815,-1.6001207609810795,10.738904418878018,6.060181741886436,0.7674981966231462,11.532387604288767,-0.02873262061969166,3.404390663355045e-05,-0.6017738221595781,-0.08663451245967024,0.09283079153209389,-0.9190463061887195,2011-09-26 15:40:51.102094222,7.660271331
49.0110283652574,8.413514019457514,122.12338192570336,-0.15442526261724576,0.18836235241885704,4.1757453320641185,43.45454796609973,-1.3520515232353052,8.257496189919939,-0.09627269182916637,-0.061386077593890157,1.3811437037243433,1.1810554814955085,9.47947055925326,-1.016032404479443,0.021614288218704952,11.508069881681495,-0.08802112016016268,-0.4645729042318913,0.21771434953901556,-0.029806597350790554,-0.46729694536474836,0.04964186343722647,2011-09-26 15:40:51.202308132,7.760485241
49.01037581946289,8.410271414296043,116.33580304475474,0.09220978751286737,0.0342012910821468,-7.846713903930292,20.041257448065345,1.365215716114141,8.052414004031643,-0.120169669282077,0.32309224256231295,-2.7226342297030244,1.7002407204072516,0.8010236737922707,1.6777857793728057,0.4222718416252857,8.55180110196154,0.004043398628965779,0.1363774865764882,0.07455325934997306,-0.042236965388686695,-0.10386373873153434,2.7316538849767484,2011-09-26 15:40:51.312128328,7.870305437
49.01259689085478,8.40777438658427,118.5619457604104,-0.0028376547732625185,0.014754916077644741,1.1061637365749806,25.663730487581958,-1.4282609154287245,7.767603817423719,1.237673119061856,0.0849568564270379,-0.14993343866660683,4.012681142351685,10.840535588410265,5.573259073861966,1.9446404830066248,10.88869100936278,-0.021175349657080178,-0.07422574116954138,-0.6959674507563275,0.3817585591134238,0.0730203249837216,-0.39765372142491073,2011-09-26 15:40:51.412116836,7.970293945
49.01386508709391,8.407589242725871,118.13662537447384,0.025988908491964197,-0.06263939768273635,3.5341148828981837,3.5335829274790385,-5.462660448699791,10.025706928142272,-0.11316415878241343,0.12120833730499947,-1.36708629888546,-2.893657315162344,10.23888658172132,1.4647581801206262,0.7057656629891615,11.14593732709701,0.02530800417994751,-0.11075727820437396,0.3185896489029485,0.032130879022198376,0.021700791050623953,0.06358895801975181,2011-09-26 15:40:51.512124791,8.070301900
49.01175444999027,8.413185657080568,117.52805500405903,0.06674688209341367,-0.014516693592687348,1.780699134169813,9.287591441529793,-1.7020326585421635,6.415263140885745,-0.05155921161941965,0.012527885275845849,0.9004442085582884,1.7912123727210296,10.400169518666546,-0.3796663129757304,2.238076308675483,10.305723917265977,-0.3599676984129702,0.11346099199907277,1.8881316884767572,0.0005323935710080351,0.01814086352090081,3.3402154183708674,2011-09-26 15:40:51.622185376,8.180362485
49.013422384240585,8.4104798858401,114.9558868540663,-0.053991600591013066,-0.07317852637112947,5.737255564537826,-2.4630915234993793,-6.715430454156672,-21.983567823275564,0.02399618034872541,0.0425994775205874,-5.854413916925531,9.242897968489077,16.22827214409386,-0.25267920059529503,0.46754023268880873,12.632028792500325,0.007425727013178262,0.04975675536872693,0.02747323505174347,0.001519027493481484,0.10374387723049185,1.6591116720840369,2011-09-26 15:40:51.722222136,8.280399245
49.01295144671199,8.420112895212572,117.1714706960833,-0.00032543074449172676,-0.18019012377715646,2.682981071940097,14.631373419935572,-6.272619732097446,2.6308934078383075,0.03532290146079473,-0.04440617880439973,-2.419476273805244,0.012747256297555213,9.392658357518517,-2.2046680727647487,9.723311160382346,4.125260743673428,0.06876814612523392,-0.012544905680433815,0.17447096314517546,-0.01941000581344339,0.09278042562987168,-0.28285720495624883,2011-09-26 15:40:51.822167163,8.380344272
49.01009735609083,8.413546915046824,118.35453154605128,-0.10342720319822152,-0.003106144999150219,-0.25436565560510616,-2.782029626264941,-9.364749752698733,8.607668591588816,0.03445211057917473,0.16281618923532534,-1.3834921815825,0.673245912426567,22.395100508766316,-0.7513242089280696,-1.162694179109749,8.124977920558578,-0.0519203958043685,0.12125322435128727,-1.2184496211961424,0.016888210992749796,0.08754512690821196,0.23962638797466446,2011-09-26 15:40:51.932165638,8.490342747
49.012003933311746,8.410881984322348,117.2242818942952,-0.059483028583596324,0.03866765171222842,-0.17051381892846473,13.475663028877149,-3.469590993641534,14.87329976505437,1.145614469482819,-0.1408416333028695,-1.0408147469907179,0.39178714849750046,8.20240268681351,1.6441806619052823,1.345223496714325,8.809861054107342,-0.025777059756844252,-0.0026635670616484905,0.13897619353912813,0.018454393042712448,-0.0316830712011673,0.5418618084872735,2011-09-26 15:40:52.032160758,8.590337867
49.01385770003372,8.413760816166173,115.05444157398654,0.06796136438454026,0.13307047186539445,-1.6739707449483723,-0.14969342297249444,11.003842528919652,92.96890545104716,0.020244164244096897,0.1845375145889739,-0.07339934396444969,1.4628687551040929,9.181593047704734,-1.543283901737682,1.2166741673097414,-6.954769434410139,-0.23222179666863496,-0.06004690732208264,0.509159583099848,0.07337352441434795,-0.029278663691235815,0.3275600631285694,2011-09-26 15:40:52.132178621,8.690355730
49.01360140408233,8.416337857580734,114.57943817889783,-0.002102472671354279,0.0034255401170419607,2.956245366252367,7.982851211274426,4.654917633374118,2.1564259247858875,0.17616706990573408,-1.0455266219702284,-3.788022329339905,0.17599416346594043,7.007159277636612,-2.5611915135878336,-0.2549924872534954,12.413973798537775,-0.12520133457634336,-0.3313595909650291,-0.566298166954433,-0.037843111265245595,0.06720615605126631,1.2126744372834513,2011-09-26 15:40:52.242258597,8.800435706
49.01138203881061,8.419711649507027,117.31682829023462,-0.5430007892386659,-0.1166705147649626,1.827241533838197,-6.921677707640129,-3.1746295487657235,14.09089348971426,0.33667610662357095,-0.27936469147063175,-3.4010292516055336,-3.7097972473363496,10.150199197515425,0.6705192538046011,-0.2142720598149023,9.403102803951125,-0.051368283575087784,-0.10472714112932623,-0.29150999367939784,-0.0730016748017183,-0.1373038379109018,0.45501595149644225,2011-09-26 15:40:52.342197221,8.900374330
49.01377159781844,8.412672025299734,118.30144122057523,0.012990830122488178,-0.17878715836814324,-10.51002595646974,-34.64482443627507,3.8447484057687005,6.887211033165515,-0.08917173040103127,-0.48049158922700874,1.9440261120847315,-0.6751812331361443,10.032296545071102,9.680161417689519,1.581501777834255,11.022398577017,-0.016747345060660647,-0.1438058108843495,-0.24432732220579947,-0.003849439122573489,-0.11917519860818146,-0.014059680493897572,2011-09-26 15:40:52.442167930,9.000345039
49.01002609680418,8.409209280781603,117.80556538281495,-0.010078873571125059,0.050971459189439725,6.993055829226472,1.9110607673399578,-4.478373174276288,4.519643865629872,-0.06054235439463799,-0.21175307114730452,-0.10787334969674581,2.2870974390717382,11.565297001979259,-2.5859919117872336,1.29053335136939,9.578415667895886,-0.025541583324529674,0.006502734433340641,-0.22091404217586863,0.3250494278592548,-0.23125275249451951,2.6040808506090616,2011-09-26 15:40:52.552218266,9.110395375
49.012145441804364,8.40973928888921,116.68020599046966,0.010137636765724746,0.041569859702589855,2.5252493652126473,3.4138711770043706,-70.14019007776925,2.39701094360061,0.09811000920140589,0.005469154002853471,-1.1076331972522753,-0.25562572861452654,6.99937852169309,3.4086879157103724,-0.19212482339399298,10.613946198020868,0.016262320130768625,-0.5179561013962961,-0.25205871488232884,0.09066341793321281,0.08434123312119711,-1.1821461413629928,2011-09-26 15:40:52.652200555,9.210377664
49.01180749779174,8.412568614413502,119.0577128992737,-0.06385695083363271,-0.0006059053673525897,5.925979061153004,7.2716117343696,5.121996737730671,-1.292821201370364,-0.23202607285577645,-0.1316975530183523,1.069684044113524,-7.102316371082756,8.817742191808362,1.8214091435494748,3.0736901586676,8.61900050259326,-0.10065878080036486,-0.12755031288700217,-0.28095130178522265,-0.035261266121268085,0.030287802391542017,0.04660313068414062,2011-09-26 15:40:52.752238681,9.310415790
49.012877211949736,8.414052563276963,117.61969644674315,-0.035146723754611725,0.029319237805609133,19.138378653413575,18.219733932192366,44.63806796249311,8.454957996965764,0.10540501865195823,-0.29383417082897345,-5.7595617755844115,0.22676949835585253,7.735512179736272,2.5329071032534927,0.42283238136071716,8.732826782247058,-0.10613743814716313,-0.06885813083355972,-0.030394608798224115,0.22455686626675436,-0.14040493625603306,0.03486730452652149,2011-09-26 15:40:52.862228465,9.420405574
49.001944840700205,8.408411987529083,117.28614107707976,0.05857900398319421,-0.06290024854475382,2.0355584798598096,-4.773879299124643,-44.20846335437513,1.9870165157340764,-0.10059655585854971,0.035769073433386034,4.893290027425563,-0.27000494278098824,10.95666676084153,-1.4398863607086918,3.820704360162758,7.376936186837361,-0.35176482923183533,-0.0674214278297817,0.13214761122901,0.008861185092590818,-0.1851283990672852,-0.2182349073624277,2011-09-26 15:40:52.962259484,9.520436593
49.02090967666557,8.412324676328131,119.0121070796353,0.07409000757331574,0.057605247179068717,-0.05141496193807682,9.695348752339358,7.931254719638342,4.655794818441905,0.31332729791246894,-0.10787476077567701,1.1873581526289587,0.42515431947276927,10.463084521662022,0.05289843560558458,-0.20290486786287845,17.80889754436517,0.02418427565263913,-0.05689227710989236,0.055960770652335574,-0.04371309280086503,0.021666349416590864,0.19445699163685629,2011-09-26 15:40:53.062224095,9.620401204
49.011391808230634,8.411583424915408,116.51032575788831,0.05315397671450001,0.010671958811745218,1.40478289523854,-6.806042588249959,11.039567983664874,67.20041601189762,-0.12008862537987927,0.07357450391312297,-1.9428862108581744,0.21414066071339072,11.239826490717055,-1.262125884519226,-2.3375607454060163,9.697704902338657,0.060469047620189426,0.12247644146260671,-0.3438654241098369,0.011231903367441703,0.15391828534224128,-0.39227479806424326,2011-09-26 15:40:53.172285735,9.730462844
49.011746982786214,8.410490494757498,119.2349917449997,0.05006112295120755,-0.011241684889880504,-5.425605788760228,-21.958129005268784,-3.034339402228349,11.029500506669596,1.6839277559013128,-0.7215090446485684,0.1986626562568386,-3.852294831811341,10.651422490263526,-0.10660086839580817,0.06572583395257128,10.683802474060942,-0.03717449557996668,0.12151327433343229,0.16658614272542052,-0.011148108939161329,0.06463625722566105,0.20631902287871876,2011-09-26 15:40:53.272474597,9.830651706
49.01087161387996,8.413733884630359,116.91654072488673,0.03931360065021203,0.02418796890040207,1.6266739129376417,4.888859032063911,-0.6649616149060522,10.140600999662379,1.2639483847116004,-0.3192820345377587,-0.15824106414087363,0.8118530363098649,7.564314682771778,0.008161324888236288,2.422624712296702,5.887920266238607,-0.08496038036305477,0.16350233440399398,-0.21175219905841866,-0.05830832631134476,0.009290355196784384,-0.1655396575161505,2011-09-26 15:40:53.372407308,9.930584417
49.01303956283257,8.415361995430452,116.84329303139639,0.037417004250820445,-0.022631756618770524,2.959250678315049,49.080741539052326,5.005910180186392,7.023186189765578,0.6155362938997759,-0.0910875917058906,-13.01974243808631,-0.00249576249766726,8.362971191255273,2.833456890513268,2.122262240178873,10.059031741489028,0.03823311440858232,0.0620727673938183,0.46839261027980295,-0.03462575290413896,0.005907194529682736,0.5277715635721262,2011-09-26 15:40:53.482263255,10.040440364
49.01207471410497,8.41320372685327,129.2298993385407,0.10030659534002481,0.016139590219507574,0.9108585543903963,3.9336830985915094,1.797427917607962,17.390866850567427,0.4554501480720737,-0.513082612965601,0.07021435684977007,-1.2192400708303766,11.159944429562179,-1.7504000121211005,-0.9045009447606788,9.81545488789922,0.14459603032036206,-0.02892153716883819,-0.4163809094151845,-0.018566655921724608,0.0977680902426073,-4.708016956249989,2011-09-26 15:40:53.582252902,10.140430011
49.0138322920295,8.41606688321681,116.79352579598091,-0.07649918831206812,0.028917264893231195,3.8133406137393138,-15.183930624361409,4.200637792544482,1.275758583345839,0.11708245308551651,1.2555643075414111,-5.034195305944557,2.1207345210388286,10.208651938271073,-1.2581402547827132,-0.34541880500884875,9.781229163001486,0.10994389296845294,0.09020595497000941,0.2037994756154092,0.0876792267834785,-0.10137243233969624,-0.6180712610836756,2011-09-26 15:40:53.682475808,10.240652917
49.013477510715155,8.424902679138082,117.29560456790739,-0.18744602784318815,-0.0051815824481647,-0.2714594308672791,7.012288460142256,-2.198639181277722,13.444555547810278,0.3651361949228622,-0.8380866436990037,2.102858812327436,0.44399393116102054,11.798038644734227,-3.8030166535804018,1.7628644498315282,9.2394215720069,-0.1226169435849551,-0.11317899614226272,0.26140900456720556,-0.17217889192989677,0.021102476147894355,-0.3443455266911125,2011-09-26 15:40:53.792257468,10.350434577
49.01273757159258,8.412551126353806,115.89164970239167,0.03600354774028952,0.003012370634835785,0.3431238199917581,0.3460172828481536,-5.097701352630489,7.004321621283853,0.29149148548457954,-0.4404754852968543,-2.063966727718882,21.29905868863001,10.310168419694515,-14.00953685534301,-5.203215795283684,7.270693660885007,-0.060841389962288495,0.19308630136223073,-0.6775189182271724,-0.0469840125320034,0.04035608233240029,0.20919793864174416,2011-09-26 15:40:53.892274284,10.450451393
49.012198188390926,8.411057051497053,118.22829066780662,-0.13620202847418794,0.030840393822095,4.7458811925652125,-1.4414468159707399,-3.1906734077004213,3.4552957198339476,0.09055057199592292,-0.11818367306956439,-1.135273612114784,0.03286794461708636,7.584518836668295,-1.841199867582309,-0.17454879147617486,9.923440132424954,0.04247695291284018,0.018075720653114653,0.9784763296540765,-0.5421640098847359,0.1170316548018305,-0.2049135612866587,2011-09-26 15:40:53.992262348,10.550439457
49.01373580211938,8.418590181871073,118.42817294499586,0.08327051089892086,0.014818275775349516,3.084028840709345,13.885252305476818,4.583488418267198,10.260894928755032,0.17778278844084985,0.11713223237406331,-0.9473075810138659,-0.3444574847343228,8.756403764127343,0.9932474062596591,1.431674279620923,8.550469885914167,0.007451706492971061,0.04379766418586012,0.08239812707969571,0.01610102061298833,0.48628702234759197,-0.19891787846603182,2011-09-26 15:40:54.102250682,10.660427791
49.013317713100335,8.411317414861635,118.94245652493339,-0.05651649088014607,0.008177181366318969,11.499217616429805,2.1000410659215234,1.5703624065802357,44.61927534516165,-0.17450839173855284,-0.20477728279848723,-0.5648625484799998,1.5381371243126833,11.998393810806167,-0.5369806482421251,-2.724745258495007,9.398621111785214,-0.33011023772138587,-0.01948454533731124,-0.4983665339176533,0.38639419885870513,-0.05260912927971837,-2.645560917111299,2011-09-26 15:40:54.202495389,10.760672498
49.01222249149618,8.409293758905854,103.67140238945336,0.4924495979604455,-0.029162353922159587,2.436902983450637,-4.946356764687362,-4.300218934320602,12.961330324984875,1.8373704844056995,-0.09031174018131964,1.296711565445925,-1.9098288047202014,11.400221037106851,-4.042592907860479,-2.7612477538829485,11.360423179204657,0.10855829697840529,-0.13072600429405784,1.5579859540262468,-0.09400952569708136,0.12027926268179726,-0.25095322492004074,2011-09-26 15:40:54.312263278,10.870440387
49.01242513014707,8.41186331923962,118.15590221776986,0.018935420027052417,0.01935767533886517,1.9698115938050267,-66.78756376438037,-7.17022639611659,-0.7011531572774388,-0.2115472361111408,-1.4459881000574142,-2.1704106557498495,-0.8095927060010281,13.049483128709287,-2.309547232364288,10.141902359704847,11.105007353248666,-0.19673996004244076,0.028857136288011155,0.05108627142180902,0.04551730295607861,-0.076903635737199,0.940732362333452,2011-09-26 15:40:54.412305527,10.970482636
49.01197965091269,8.41069832346825,121.07916037473959,0.0821903888656728,-0.24043265330935978,2.547347479001333,15.367342659352705,5.187328129903561,12.078721560888017,0.14387584474397713,-0.2389000933681118,-5.747525962683055,-2.124408247311561,9.78338952303617,-1.185805408879582,0.37140476600705996,9.28294035278549,0.03672532072491204,0.12486925597303412,-0.5724122897111334,0.02018718796406651,0.06733762942754208,1.1525938083418654,2011-09-26 15:40:54.512278700,11.070455809
49.013617081334424,8.413247139914724,115.57671853750584,0.05958391479026899,-0.0530770391812856,-0.4258713933560616,34.663132675508955,1.5732764063837825,6.836890594696961,0.2738339971440194,0.032316890850640136,2.550970325093189,2.2577404268955137,11.417047650332059,0.18120595148219465,-1.8386701490451622,9.742192917429735,-0.5129116416029369,-0.08651359397969205,-0.45313917266356896,0.0065571999544592995,0.08820619667004936,0.5834493167352462,2011-09-26 15:40:54.612289654,11.170466763
49.012364369221984,8.421141660892344,117.14247206149068,0.03600701462966005,0.034910864733949956,-15.272693472939615,5.019299213780418,-37.95737996128819,13.52357859859221,0.06122897879258328,0.14705049693277705,-1.4292421510506137,-2.347392232129371,12.810219988208638,1.6100968867905923,-1.213490040685881,9.629556232180727,-0.02253364050522176,-0.2388035138053012,-0.1854367912614393,0.007101889246565204,-0.04793682841867483,0.2659065972089664,2011-09-26 15:40:54.722368184,11.280545293
49.016875129436286,8.413799535717647,118.0177522715296,-0.007447236838868984,0.014405779301006685,2.655505773354901,47.45769911800052,-2.1917762611517224,18.030931683038062,0.03811980883255313,0.07934621351907775,-0.2365932642194477,-0.31967199120726336,10.849875104920894,0.2637202024360077,5.257809709913309,10.42795844692241,0.007190705429218283,-0.0005073455977085521,1.5070841499754528,-0.2802560391633739,0.09886737530770268,0.03549113715096812,2011-09-26 15:40:54.822312857,11.380489966
49.01445856526773,8.41313616965555,120.5815801696703,0.04894399134545217,-0.03799070667440888,1.4033608550039958,13.916953515823675,12.211062020534804,1.4946002134463132,-0.06370113355732897,-0.3064835311424538,-3.0134163817785544,-4.298434947488497,11.868827428363852,-0.37250115612963364,0.31775030226068834,10.727710992730948,-0.07917336100194082,0.0667091079990296,-2.6578225609374857,-0.10166491960731189,0.011502976422124663,0.8336457696648114,2011-09-26 15:40:54.922313994,11.480491103
49.01240858240074,8.410508828051732,115.26246132225485,0.06834293979513276,0.029117083684229945,11.23689422238364,1.8184728669235213,3.8509683353496293,6.861060149870622,0.13458396984115614,-0.06777093850462997,-2.741864194183795,0.2127045622156818,9.406748867593368,-1.9435769344817353,-0.27471735055595503,9.292675295274913,-0.10750570755743495,0.164799568660929,0.27438464614731894,-0.09549378980604377,-0.6185740997182131,0.16791757021650303,2011-09-26 15:40:55.032306766,11.590483875
49.01401524731986,8.407074248513482,121.04905149771179,0.03914192180928044,0.0017860908259814817,-1.1001207016020256,-0.048050602179140256,5.042280182703478,3.790751519291445,0.029529061816394607,-0.18388723394977075,3.010053329143318,1.7535771782356617,8.216428941638888,-1.380411504196276,0.23485378779874927,6.432951227442586,0.05300119761103867,-0.03326933940016946,0.009535005776233835,0.08105495543285428,0.47136767661222756,0.4303029937426389,2011-09-26 15:40:55.132350747,11.690527856
49.0179630088096,8.414750542276215,115.85586394855963,0.03153805909935472,-0.023897742152559798,3.5380606153196883,5.185771938152706,4.54692735745117,-1.0377724422709242,0.26554944810128445,-0.3011769755106668,-9.396528773492314,0.012411641242025873,9.751371847153361,0.41581226845954095,0.4800292480110005,11.58127105447669,-0.039017254872161906,0.022335336794298895,-0.04084472052850806,-0.016476481772768545,0.10471217860952432,0.6223466586284859,2011-09-26 15:40:55.232399738,11.790576847
49.01155446688722,8.418824794624003,114.90765495401313,-0.012272451515832176,-0.0049920559865970875,1.9591586783344155,15.09833145346153,15.091781415499998,21.72281086355325,-0.13288466360412357,-1.885834782432541,-15.752505022539498,0.18940186946822246,10.668079984657727,8.671308599230953,11.05031670011287,9.243783009785437,0.05642552391784932,0.01831871209276418,-0.304016085162758,-0.19318030406204345,-0.028058536536935914,-0.8541670636801502,2011-09-26 15:40:55.342319218,11.900496327
49.01274170318749,8.411232007018354,115.56190842417989,-0.36793939260650915,0.05059688811327466,1.944084315209131,60.491266518179835,12.264168287470312,12.203069305474322,-0.24596465848091795,0.3931129546994479,3.3495595329143977,0.6362622839284562,8.962557017527354,1.083999052793609,-0.19211457781493496,7.7041621031971275,-0.3113004200992135,-0.019117116191254155,1.6124382526700283,0.010027399756061617,0.047168430834517286,-0.5606220444312977,2011-09-26 15:40:55.442372606,12.000549715
49.01238542439038,8.408663102802683,114.93729481995972,0.002441623086864509,-0.05205522346124482,3.962182363659709,-0.1170399614848101,2.0965466582033874,3.760138636267236,0.2033409535858458,-0.3412282895755089,-0.0735783758947281,-0.9396582735276162,9.955257567808681,1.5572644263667528,-1.9952392656538516,9.281453262306185,0.23975630621561847,-0.043279874874493245,0.3537610279693231,0.1386910462351704,0.11986396805719575,0.15922929552069706,2011-09-26 15:40:55.552358921,12.110536030
49.012572965378446,8.41150454491327,118.41426742526971,-0.03420598312854612,0.07027545016460644,0.8665733732446972,2.913484536014256,7.556612218192184,-0.2678636560177168,-0.07565998643957378,-0.1849762839848405,13.171420684320895,2.1493591751615955,9.018871577741487,1.0305729679010862,2.449207411513184,5.500947710705234,0.3401763419525667,-0.030045906315927975,-0.5844082265384888,-0.07186465405228523,-0.023915888306067744,-0.19259551153169047,2011-09-26 15:40:55.652342606,12.210519715
49.014781753201646,8.412878064965552,109.99006822318377,-0.04549314322595857,0.1596414056154968,-0.12229231001889507,-11.1270282320743,-6.709192600782126,8.132367721358978,0.057554345315433256,-0.2325108790105924,4.876512674793981,3.1276155800006125,10.078479354607106,0.6329609769237979,-1.146297737153011,10.790160250468702,-0.01258424825133485,0.2606228909604704,-0.4369838012365274,0.032880976985253364,0.002040461825758483,0.41021437571024094,2011-09-26 15:40:55.752360890,12.310537999
49.00980184830217,8.409305595297353,118.96348336605224,0.05456995384039828,-0.0026123061393977277,1.6888756122894732,4.9111169152585035,-22.842845099124762,0.6808708360930993,0.09229664262452277,-0.6033250372016091,2.1403510364018707,0.7627422138271263,9.327093469877907,-1.72510671047121,0.48217691909405724,9.907011174651888,0.3450055045128712,-0.14972215117880008,-0.4807946774579365,0.06943428708799843,-0.018509667114470725,-0.7106724223988705,2011-09-26 15:40:55.862359142,12.420536251
49.01367101473298,8.415014700611874,113.86227355196252,-0.011025879580755127,0.04328074435110943,-12.544821739333754,6.2454960041900796,2.7740703419915604,7.820674511074115,0.21067887455820658,0.1305103949331095,2.868206699771415,-1.1537745891732385,9.878598690498459,1.2509660644370344,0.5256340995014734,8.739005996605853,0.41314969539915214,-0.017929051166751857,-0.3969756272747765,0.04695328143310892,-0.34221368948319947,0.035491809569634436,2011-09-26 15:40:55.962381474,12.520558583
