lat,lon,alt,roll,pitch,yaw,vn,ve,vf,vl,vu,ax,ay,az,af,al,au,wx,wy,wz,wf,wl,wu,timestamp,rel_time
49.01214786760614,8.411243011605071,124.13854384015552,0.04547530058064466,-0.0009911544923373143,2.159224925632138,5.892176619930697,-5.672928946918755,15.866551933014,0.13245079685645786,0.06548336040067164,-2.0537171993490477,-0.2987762973053929,10.352344183816305,-1.6864674379538904,-2.5510825093683516,9.897007591221245,-0.002212637682730773,-0.02436913139148596,0.5579815778486603,-0.034285347184008115,0.010272554050675273,0.33717591829514426,2011-09-26 15:40:43.441822891,0.000000000
49.01048224547556,8.409400433452006,117.10399746003769,0.6480751604101928,0.05923052648616429,-0.2639611663384176,-4.668266609164627,-13.777016931810435,5.5071485949632795,0.9663865375116084,-0.083819174548318,0.6107646015904683,-3.4355696150383825,9.736138949065488,0.3030393218556622,0.5420526679331306,10.12925177560373,0.1245864709905384,-0.12930306687506826,0.9883031270244912,0.058825346576697926,0.5324476233370059,0.40934114348186085,2011-09-26 15:40:43.551805867,0.109982976
49.01174629516121,8.423511566426503,115.60511942062392,-0.0035689187465033244,0.17211981745074253,3.7956382021059873,11.30630758276956,0.09355635765227,35.8857860886632,-0.10698008079891008,-0.003995327625409384,-0.7452422059392423,0.09890565026022091,9.583002186402275,4.345671730574916,3.1273412006746764,4.265026245018419,-0.07135950813434842,-0.09702265545705076,2.1462691789029122,0.0034374349770886544,0.5172571569511325,0.5406364898524573,2011-09-26 15:40:43.651817589,0.209994698
49.010186227670346,8.408375330815591,118.95657019165398,0.04548961376153962,-0.014362469422193517,1.8588219140230846,4.349087648846255,11.739088426937407,7.65154744059764,-0.06166386506516351,-0.14388255018174442,-1.59761616990935,1.119917787608741,10.632366692960241,2.9059866566447043,-3.335097521569564,4.432959052863539,0.037575229910201624,-0.1556760418945503,0.3721303542132589,0.015045482548417834,-0.038088165260761406,-0.6163358367855402,2011-09-26 15:40:43.751845204,0.310022313
49.02031230354632,8.418468899977714,116.46811317464454,0.08976968993605645,-0.0679748825683506,-0.1905585017995548,4.726577270668817,7.471771937558285,12.279408319000682,-0.02103310441459249,-0.2448546237710353,3.4088131020827857,1.2237377632068336,10.462202670161409,2.410006143497923,-0.35224921230698725,9.494027820422826,-0.017910781296277274,-0.011610514064274768,-0.07626368677990439,-0.028615103889522573,0.09124097876012222,-0.006512257996078977,2011-09-26 15:40:43.861827396,0.420004505
49.00192569247966,8.415153682670839,116.92370243654763,0.0006538668460034855,0.024600882637377638,2.1259165514234892,-2.038910365055262,7.386570567962725,6.204849358821466,0.10978680453633538,1.5661520538600704,-1.7398749840372105,10.330630440123455,11.185583198265743,2.855916676383024,-0.8761980967344033,0.017203048063178628,0.2760156409968431,0.008031099182841716,0.32476715109794835,-0.011356987527369479,0.03412665355695763,0.17576686119701923,2011-09-26 15:40:43.961896217,0.520073326
49.00217480104267,8.412023821898565,118.9564383375642,-0.0675025123518027,-0.03296950593413003,-1.851338192575316,8.566802291737798,6.599642634143333,1.7496470581308694,-0.06440916543798712,-0.00636047112159413,-0.22158150178876812,-0.9258003184136774,9.873783636763566,1.3820541189159372,-2.2399039588972767,7.659750662771872,0.03796259391842522,-0.021630681667307878,-0.22423362389171508,0.0392561151428534,-0.04794772673131717,0.5716539454439384,2011-09-26 15:40:44.071825584,0.630002693
49.01468497953238,8.406391884181563,117.84071960470288,0.06741126625790855,0.03721421268800448,0.9724428267114535,-0.680622191882251,1.1119036608437605,10.499616513881252,-0.30220227473310196,-0.7087295466146024,2.6651427987674934,-12.853356056605143,10.919636645465907,0.5391344155046259,1.6644776799037635,9.945767848238637,0.012247125438233995,0.0019073183494703397,0.10502438445806508,0.05139246655642882,0.10326311205369111,2.2452701625800127,2011-09-26 15:40:44.171917822,0.730094931
49.010282280213204,8.412781494676379,116.03178486796234,-0.020172939784527173,0.18137680675045748,14.034124051682973,6.283362159791867,1.6854429924641476,8.260242506602912,0.14309812499952265,-0.07049122133690805,16.670888949079668,-4.142852571095689,8.872414149505184,-0.4236681117940392,0.5262939309091902,9.360741401701588,0.02750452688541441,0.0037232762981822473,-0.0747107825779014,0.005901005872682408,-0.1766704300036156,-0.20231083635274866,2011-09-26 15:40:44.271894585,0.830071694
48.999645969661756,8.412475984270568,117.41388162074364,0.029078001607886844,-0.07701597435360465,-2.528308352921453,8.024164989056349,-3.6500506623615965,0.9543919189776178,0.43303570896527843,0.33618686975157314,-4.3587862230689325,-1.0764759453548316,11.151364252726811,0.0593839828009608,1.4076062159111984,10.735210148101743,-0.02318800228957537,-0.0074524064173785085,0.004539648454040042,0.0012121377636258243,0.07526003911587087,-1.5583060889768152,2011-09-26 15:40:44.371810112,0.929987221
49.01235730290754,8.411214418793683,117.72845349283786,0.042755379958207204,0.029736415652431947,-2.189273975034657,9.92670044896726,-0.04342689498361896,7.731188349133477,-0.04681157970419114,0.24765157241794983,-2.743910351258138,14.279296921627987,10.428006898895092,-3.553292274361384,3.106713391785237,8.664072326602435,-0.003963707178202602,0.008207512817630276,-0.6755505198269406,-0.011355984505994482,0.08622681278963684,0.1381517002059,2011-09-26 15:40:44.481821827,1.039998936
49.01125782203945,8.416743796041509,116.64716659853373,0.01149594631293818,-0.00454554905966068,1.8670284972207583,4.05390973899786,1.3337149285365242,2.6619710849307054,0.29363146705434123,0.056914030282248895,-0.42668200243516186,1.259525697816733,9.346923508883881,5.029057001976514,1.5075725255030985,8.138327371321484,0.04396250575108554,0.029493003348043445,-0.44064335940817867,0.10653797115386351,0.7882488153331245,0.4292418692339658,2011-09-26 15:40:44.581823088,1.140000197
49.01171817615689,8.413843515462165,116.93754156864927,0.01867936753582527,0.04799803550686538,0.5736275693399885,4.413622655919277,-14.508528935262797,4.210688775475041,0.28602613474752564,0.3409465639381161,2.1137698147076436,5.734709691022413,9.071226594527529,2.077776013760676,1.6403098944790273,10.598790114357218,0.011274394726356173,0.04858575638742794,-0.5254231700172507,0.07581576411927199,0.10017203021414409,-0.1111144050175985,2011-09-26 15:40:44.692011047,1.250188156
49.01419096335241,8.41490070370923,115.4825822704107,0.06542206473380001,-0.01495020502944288,4.331053533597367,18.20483322091709,1.825003780134939,5.5914777739935975,0.14573267745160243,1.8277003911144944,2.0582989686359263,3.2640344994666113,8.964320513250842,-1.0741089572296514,-0.04617432350424078,8.984044784038138,0.017401471902455102,-0.03790350059346441,3.769438192899659,0.12593472703101125,0.0071147601600231765,-0.35984135142717266,2011-09-26 15:40:44.791805903,1.349983012
49.013698146380456,8.413322649897543,116.46558267532048,0.0032173359609625717,0.0644944940745189,-2.5115689369654035,3.8163237532765137,-1.0495416852133288,13.625169550299736,-0.8612409739674743,-0.04180268075842416,-6.658119317153248,3.3619962527513674,8.944640898973464,-5.6094201434324145,-9.933146310089263,8.151277863818908,-0.046654784995569076,-0.0574238021698419,0.7732822303393968,-0.07133708927419878,-0.1423288117769314,0.15274974934272587,2011-09-26 15:40:44.891813092,1.449990201
49.01077779418527,8.415366636760398,115.8859494035164,0.05188849737819244,-0.03273993729149671,5.648560855727402,16.096210744392938,86.85891741961285,3.883812211413898,-0.16889608904448675,-0.009033730877168536,0.6805863797830549,-0.42902629901810163,5.467431826187451,5.686849469338181,-1.6221804217847087,11.30984051587194,-0.028102360228076807,0.10494477738880453,0.47268609530713895,0.06565965303727989,-0.08757818460250877,0.8576110343647578,2011-09-26 15:40:45.001860833,1.560037942
49.02201714212042,8.4107080195013,117.32749332129112,0.025054391391702215,0.014783394677844288,-3.9253106040510373,5.0243160950047745,8.378001827505853,8.152266465604859,0.41562346964689356,-0.3463406824488734,3.284342999620324,-3.6326483334597133,10.260080593074449,-10.860661210521226,-0.2064378775073625,9.006535237595022,0.03872980750367028,0.038247177479346584,0.14744635750396726,0.01190869671527733,0.05520341337299179,-2.561244601823694,2011-09-26 15:40:45.101843013,1.660020122
49.01294871165736,8.412237331953678,117.08370110371335,-0.003020300849586384,0.011462095131871117,2.485971536797733,18.425257236573927,9.273023296305967,-4.323127905968054,-0.18010962168437553,-0.010870882524845402,0.709850314754131,4.3626707992105125,10.390836454301903,2.3131385526857047,2.4889828034334087,9.871261470520878,0.08884987793978574,-0.05173932517471151,-0.26052078032815595,0.0593087491322777,-0.027413072119458724,-0.012235091405811693,2011-09-26 15:40:45.202019634,1.760196743
49.01235802015774,8.41029053898844,115.09010042238286,-0.03787919110970108,0.0002213576351011307,0.7914068783193977,6.422704357425584,2.053014965929064,2.2706567228536043,-0.10890417972958648,-0.03058802843517827,-0.352754636921784,3.0768666120955714,9.935671126609128,0.22886917321663958,2.2449222629390713,10.105519465892684,-0.08291595627317203,0.9038786989719246,0.23159973190841898,-0.02044024130658032,0.052993013752197934,1.1295969388766423,2011-09-26 15:40:45.311837869,1.870014978
49.01151486765636,8.426728256914025,114.82333557817519,-0.020199313410148287,-0.014294041794814721,-0.9652936154275962,2.291003312047862,4.436876344306222,-1.5526943843594223,-0.1611742642255391,0.12434557933311335,1.5914634886691965,-2.9497599917910313,8.596350991786688,0.46492392632346546,-0.31386787468656685,7.799841660462478,-0.008463642382610789,0.06193645686177235,0.24931821035541438,0.034199950033153764,-0.013917717249937686,-2.7365527824961444,2011-09-26 15:40:45.411869871,1.970046980
49.00950234291496,8.402344185651602,118.43040693219538,-0.022536410063688568,-0.011222733844326352,-0.7569656231737858,11.55014764817669,3.797000385376168,-3.077657544759953,0.1072525830802185,0.3533796151788281,0.6459454014071159,1.358857285668329,5.936764968528385,-1.2606297942823883,-2.398715715525826,7.148336153369523,-0.014935017616201196,-0.13366025178047655,0.18074339975217993,0.04647575484455325,-0.03948534459998942,1.649227433593298,2011-09-26 15:40:45.511889228,2.070066337
49.008033935341395,8.41392910094523,119.15108360487457,0.6335766709604339,0.023482346356447605,-1.7850171051392296,8.285342136371366,-6.845312757450088,17.332013893555782,-2.035735556443984,0.2455332721068455,4.784114455310757,-0.14964014879823784,9.633986278742274,1.4170282622676924,-1.9017054489286853,11.003985166640371,-0.010469506993903947,0.09375030722137304,0.45550382677992973,-0.037922242708962016,-0.09126644218587718,0.20435515266330945,2011-09-26 15:40:45.621934015,2.180111124
49.01130925213296,8.4132654921989,117.98236226219782,-0.6310241873049811,-0.02614373787060533,13.893623996281951,9.49348663509878,8.703212943120084,40.95950389689402,0.24553030353301641,-0.01930203458150167,9.034520198173665,-0.5821827154945071,9.00076768638452,-10.06190230865409,-1.6940932273818818,9.928850668216125,-0.023968690595131455,-0.0013053650523293901,-2.668061691714193,-0.039835598480138845,0.03213556141722721,0.33065737389585576,2011-09-26 15:40:45.721959257,2.280136366
49.01277396295761,8.41506493694863,119.89686831609194,-0.3619023569548239,0.004660925674495504,2.6223611591253317,-10.144088786099978,75.1453586515167,3.8896997886723077,0.11590758659247397,0.4098744096167115,-0.8876811556633402,4.375289111516554,9.929501921872028,2.9210947438892294,-0.2514510535147578,8.392647224166181,-0.09932658626604496,0.0032405048329825943,-0.4134201079384859,0.04717426660038777,-0.011648370326025073,0.017331529453392305,2011-09-26 15:40:45.821924214,2.380101323
49.01184640570382,8.41130021428695,117.52133258892951,0.01622342754921784,0.1050435190284895,-3.7876998727307503,15.38976184164766,6.086739141242498,6.544001556338916,0.20255208059529978,0.3649897403422623,16.06290741016048,0.5400272272246208,6.2280272780918615,2.124408341358863,-14.908009335903513,11.995232441579375,0.0477664768023038,0.010304568615886134,-0.08029191128729826,0.00648705432155583,-0.2269430499570889,-0.6061094620429072,2011-09-26 15:40:45.931949290,2.490126399
49.01384259650512,8.411284436705886,116.53688778405363,0.0744500542831421,0.041096245039360865,1.368778719063242,8.308152922667627,-7.686960499634454,3.1368713927825054,-0.07481576287304555,0.18792632280376723,-0.26346667341579505,1.5813128118415365,8.24808346978246,4.883058259340393,0.3520786259124875,11.216631965777347,0.04630413701737599,0.08172620478451806,-0.5456160272616029,0.0029978162673467736,-0.09112420286491325,0.655616766371448,2011-09-26 15:40:46.031928056,2.590105165
49.011771254126224,8.401271781268674,117.89150608105437,0.10909232252474602,0.018021007882035985,9.580433095441622,12.144331896728861,5.564454480359055,-1.8022696571220296,-0.14725043592726636,1.5888693217785341,2.065160421722751,-1.385127689846366,7.254398387759166,0.3016995890461346,11.106142144282543,10.11799403879732,0.12640464003938315,0.11466314000829753,0.36997976301447927,-0.007408405386534284,0.048133608201169256,-0.5558306031776149,2011-09-26 15:40:46.131947830,2.690124939
49.009630818713376,8.41155190995493,115.65818292440385,-0.09584868243428857,0.02579062932864103,0.6191265751653887,12.617599412092712,10.261736273204004,1.1356083319018397,-0.02422144031893092,0.07278834434224189,0.1778887830035626,-2.0394779333389246,10.453683206551094,1.2483280723924766,-1.7297478863067224,9.901011611520715,-0.04101404613056164,0.09361644542161983,0.10691897571910156,0.0820278005883259,-0.06803875184485815,0.0762520321836783,2011-09-26 15:40:46.242074755,2.800251864
49.01049288886822,8.411468004266315,117.78048023952572,-0.29531421329796276,0.028358554645292765,-0.6750951373451706,-13.368283897237042,8.419164447867495,-33.125925099723,0.13919871480148213,0.0008472734091093288,-1.3557009357429293,1.6811069831057774,10.885540893757314,-0.8299623082070697,-0.7961701108972992,10.005153866041105,0.4863127477286365,-0.4418494519401288,1.3413128592630754,0.041316778238328154,-0.06169674839878634,0.13896282582174585,2011-09-26 15:40:46.341964026,2.900141135
49.012056786472854,8.414754096830706,117.93327681570716,0.05194970775729571,0.16650479043771005,1.3065355650936818,5.372040985394891,-3.694242902194701,5.382494394067039,-0.17539169986239384,0.2682182940705122,-0.18745009954935749,2.0955339213673083,9.447616521622207,0.6296150220938573,-0.5902512990481276,13.134240216719517,-0.02795354260870627,0.023197040678293934,1.6603415356163256,-0.018907709937100284,-0.04954301582404569,2.890165342977231,2011-09-26 15:40:46.451890234,3.010067343
49.011390077034854,8.413848703304936,124.87259644279663,-0.009256369994470291,0.013248608484825727,-4.200674225036373,16.056672258383852,-3.8148267650161025,11.63175544191943,0.3171659639368547,-0.1742918015262551,-1.820499027347214,4.844176779865966,11.066269011172366,-7.3129570685065275,-1.6054538332755548,9.714997738920596,-0.053618940597603595,0.25476846589221325,-0.7979640403439284,0.04689993183419903,0.4701498808688017,0.6042906936896119,2011-09-26 15:40:46.551980924,3.110158033
49.01205587753097,8.412698791979803,117.66687671665896,0.05856764661471657,-0.0152694211411626,-1.5747301341683047,-56.58400676299098,6.742540486069849,17.47097281031029,-0.07417806811071932,0.09604468777831918,13.86535528066622,1.3340771857378477,9.492342996281074,1.4445518234727202,2.162222426041978,8.523171696926081,-0.10447944556581301,-0.014504014440773063,-0.26712282224158285,0.09844200810017437,0.027549642924845175,0.6628986593108763,2011-09-26 15:40:46.651983925,3.210161034
49.011761492893555,8.409861842933703,117.26772625091262,0.06570504810640808,-0.018817099968029133,5.516916327829894,5.540673469569191,6.640534614654813,12.459776766824035,-0.04570853941189275,-0.16667126875006527,-2.5441303124522716,-1.1221105007380885,10.481530794830736,-0.03002504082611046,0.6641634765272275,11.369373175150661,0.05463251565034537,-0.015060788792978655,1.8368265344065537,0.02822034196365536,0.07271514129531606,0.3426351705678488,2011-09-26 15:40:46.751996236,3.310173345
49.010611012888575,8.40687819235711,117.71193496586724,0.028242858993085013,0.01453629545792718,-0.34652193747559834,15.268360345354328,-5.404057838489994,10.01233391066586,-0.007520567697997905,0.019317137589295756,0.39546606634909937,3.553249552792838,11.69471727564172,-15.154267548537058,-1.506109106648564,9.50991699450219,-0.052972914058224435,-0.06234548015633024,-0.11557670600829616,0.08416806486607939,0.02520196501124153,0.01603296915096088,2011-09-26 15:40:46.862027067,3.420204176
49.011599370401804,8.413622916822419,116.30576558540564,0.09677688686662447,-0.033817066977331375,1.7448136655505573,-11.692155123564493,-51.51985303128697,12.374800400405679,0.24332374792495526,0.20667333508715974,0.8318898247982544,-1.5885927977143601,14.460689429902477,-2.350659644924158,0.6947665076392465,10.95900400792996,-0.010666447291207385,-0.04111157015278119,0.4275219609706749,-0.03908891205249269,0.1426304394182347,-0.045500482356827306,2011-09-26 15:40:46.962003225,3.520180334
49.02645692539015,8.406188650640793,118.22376226989451,-0.0542847555024827,0.0024518682813691657,-1.7062846595459074,15.260054442755782,-5.988908970647218,5.864493766126965,-0.040874533167792854,-0.09104090204974735,1.6189875837493677,-4.242294406746116,15.723240869955259,1.4723526610950408,6.452593301645699,9.108551652737926,0.10191461984931906,-0.09658078749811154,-0.24312630482788816,0.0002092090555701866,0.009630571769877182,-0.030785304088594284,2011-09-26 15:40:47.072053344,3.630230453
49.01057305096335,8.415336223037338,115.77702556030998,-0.06244053559683982,-0.02755196666075589,2.2217896223649527,32.463882254970834,-1.7918799357284212,-32.611921588471354,0.2105029493599387,-0.04774459848214812,-1.2099549946632697,0.3045500347183536,10.720905729120904,2.7972748142733628,1.1339787855956935,9.63135515342315,0.021781266561912004,-0.06522636114895389,0.6037444505404939,-0.05896601845215341,-0.08669454121855062,0.09121116753495837,2011-09-26 15:40:47.172048973,3.730226082
49.0161559236735,8.41252259755517,115.96431651222464,0.07878883151349096,0.02514393367190527,7.7104179467840215,6.213990351700932,-8.89008345057701,7.151910437135538,-0.09528264314788565,0.10294112377649185,-1.7381166752884585,0.2064360881350068,10.503195770958706,0.3794050212017248,-1.990771723274834,10.238454800594498,0.06379460856122714,-0.10545630403889306,0.29505604509718103,-0.06838601299739054,0.04335764895098804,5.639911095476753,2011-09-26 15:40:47.272149532,3.830326641
49.01054776060654,8.412348243789562,116.4688280631812,0.0756827196535114,-0.018899440167292086,3.5958867626012836,4.708739763969907,29.061556416872858,2.669838496037289,0.2731972944608178,0.1478595706325856,2.001599226149278,-1.7799761787431874,9.12722836489921,7.947665423268477,0.8504360690893777,10.343417587964273,-0.0018568267008524791,0.02116835820967404,0.5190120805971565,-0.04342182882646242,-0.0036161195668581755,-0.4770345874407058,2011-09-26 15:40:47.381935524,3.940112633
49.01186167476079,8.409431109507764,116.93388930683483,0.060416038138596806,-0.019778656807614314,0.05054355272602029,18.15600516108708,-5.9508864028029596,16.395255557486706,0.11184105693886177,0.1741124978780424,-2.44570813792252,2.411422071557488,10.819488585748461,3.4567218012708816,0.3722994628376528,9.356111371520482,-0.3178932959148586,-0.12780383267476028,-0.07759134155966979,-0.06509975579894253,-0.025019258599711523,0.5708590392263695,2011-09-26 15:40:47.481976793,4.040153902
49.01265785781248,8.41512049644091,115.57003242337262,0.10530343314886423,-0.04234243127382643,3.1361634476824065,-2.365684196812797,-1.023269999631232,9.183003274424834,-0.11178498886046281,0.29589835044784735,-1.0117759424404738,-0.3876819226992488,13.786764292786778,0.5343054956640931,1.9185924038665103,10.771169651484295,0.014685150354935474,-0.33972279270811495,-0.05210684162124227,-0.033038644570439576,0.13829006884301925,-0.3437978947296309,2011-09-26 15:40:47.581947642,4.140124751
49.012001830393835,8.41362271091801,118.01289594839152,-0.012304916321169534,0.0035491568292910954,2.9898225894836115,14.734365384292659,4.134335614765607,-57.83476738894002,-0.3100903418493158,0.28254522278616895,-1.7999640759368027,-17.505938196740235,7.793966241364692,1.2434415755799946,0.24348747259846001,8.282219180627717,-0.0006426974015064368,0.03630749045855899,1.3922839852469722,0.024815296229270114,-0.03148785510049805,0.7068432031495983,2011-09-26 15:40:47.692207410,4.250384519
49.01128680223218,8.408350363371172,106.32712597483122,-0.18490539912597637,0.014747313457952363,0.15216834735477325,-2.662089134440728,-0.3319364067631535,6.512571331121045,0.1488102529360148,0.10699938009462118,2.44857610755754,0.26583933414095795,8.014886322107959,-0.08077534212442755,1.3961644606859742,8.780824089179585,-0.045753749459218965,0.10342552128227671,-0.43798719492479277,0.06604510648678419,-0.09557477450864009,-0.8034010841074226,2011-09-26 15:40:47.791939729,4.350116838
49.01852227159379,8.417436274287681,116.07425297562469,0.02370985284879833,0.06764280735203115,-1.4102694492187242,9.102541844872487,-11.741496158746067,2.2245877561740244,-0.09642615774891507,-0.28956183777068806,1.3056560087126106,2.831161734619462,7.457516700282447,14.885784755507355,3.426646872628771,10.43914802548806,0.045719006653085086,-0.02205037199926248,1.5642089749048471,-0.031243726638231203,0.02052210575155858,-0.27138116706309123,2011-09-26 15:40:47.892001495,4.450178604
49.01160111413451,8.412353303480959,118.09377675277642,0.20570038929751905,0.011082883952589224,5.004094533005696,7.349968242148229,0.10610119700970522,12.193258823193315,0.020462954361304908,0.04298904666541327,0.9262985671781939,-1.5349598003529068,10.284368311953402,2.3537987132463742,-1.5018441402314748,10.300004394526647,0.005812291400399249,0.1961793506238551,0.47027522544417744,0.02729133039758747,-0.2766603717291298,0.23904466183480952,2011-09-26 15:40:48.001979787,4.560156896
49.0148054699209,8.412343130947432,117.67287810141143,-0.3348784789958244,0.045439325652690196,6.2996168282724145,10.091549119102133,-0.48150902481053715,8.406408594079606,0.03933264031097953,0.3374690465867909,0.09561986696196409,2.6577464389663144,9.412486671469587,0.25492896828359574,-0.30878954491182964,10.099279165669161,0.05872657247169719,0.07728625342844989,0.4567234782969993,0.06336836581347549,0.1631598645943494,-0.36090504625687525,2011-09-26 15:40:48.101969730,4.660146839
49.012115744581585,8.413877051138806,121.35945209480717,0.275828141377091,0.05289346280164501,-9.143058979860747,-7.348824105051065,4.758794497989154,9.707092184369804,-0.03485612817067334,0.09143402528332317,1.8788807505296448,7.001503974852427,17.991419723606988,1.8136922059508673,0.5859739924583949,10.2163511502085,-0.016440828394422426,-0.014714826818711845,0.012536372599560412,0.03718948477197167,-0.05953460591948043,-2.5796782021612845,2011-09-26 15:40:48.212149871,4.770326980
49.01220695401427,8.412628894479097,118.99087107669037,0.04841860704337883,-0.01275940078944025,-1.828242130115744,5.0662338419170805,7.498147439817095,3.7454656518895817,0.10339735746277146,-0.37702242270359715,8.962700200739173,-0.6752071365889277,7.931684322007855,0.10995045131789849,-0.5638876998937118,8.841115912869405,-0.04546234961729801,-0.09017047393928149,-0.016765471374638845,-0.08760897600813873,-0.18749017739153162,-0.0010175432764158165,2011-09-26 15:40:48.311952426,4.870129535
49.01182788797791,8.405059855269837,123.73784670642219,-0.049686117109931226,0.009998528240733625,3.5485328552722155,-24.723338051050618,-11.937058258902647,4.215454913549447,0.2245241352320445,0.13281889038546568,-9.442253489526523,1.1047723070239752,9.985253010131412,4.110311002851141,-0.909073781454666,9.587198832507232,0.004673745318203243,0.11615456558538215,-0.5428447683380235,0.017895115853412913,-0.0024550224071309065,0.0014656009334354306,2011-09-26 15:40:48.411973216,4.970150325
49.01256912050266,8.419424749830469,116.52383782089224,0.055809741272968186,0.007599715205658606,-0.1251670261328619,-0.44858396119778465,1.5308076307982255,14.375814501002166,-0.9589002236279682,0.008292195645044,-0.3304115398525694,3.7622460717881006,9.889766459399036,-2.231649620732603,0.5819418974685405,11.588536992178465,0.009618529519596845,0.03757204264108682,0.714298751235655,-0.0720767594716388,-0.038414443190807765,0.265285628286448,2011-09-26 15:40:48.522028978,5.080206087
49.01097469886502,8.409316204144076,117.72560789347455,0.026903391002544356,-0.007982976769963646,-2.2316362252100133,15.952547562268105,6.550587001357622,-0.9374265271481077,0.2749142931414787,0.2697941120036519,-0.7489917833032362,2.0343271278059927,14.174909312270916,3.328409948314471,0.2445755387781926,9.43030792061867,-0.051636437820286235,-0.028526209653969715,3.504710565278344,0.5120007357497852,0.06119334896720008,-1.8553936715483978,2011-09-26 15:40:48.621991686,5.180168795
49.01227799483497,8.398428927935868,117.06566630388453,0.001404146171709697,-0.00712824025662383,4.163198331520335,7.360154944843728,3.3019714412120953,2.8948394089245584,0.08354073854743235,0.0703472451392356,2.0335619225580723,-2.001966422965598,11.428941622767216,-0.9146744325313687,0.9538238849702811,9.45792012350154,0.10110861735712479,0.08018189803445855,-0.30965151526590196,-0.008213781879784648,0.16227350410026165,0.3043928111823463,2011-09-26 15:40:48.722006637,5.280183746
49.011783215260394,8.41255274719494,119.11728764431733,0.02378967763511106,0.031679877995477,-0.8383401917254094,8.49424475392061,36.45646476296301,11.910651439369918,-0.0337270715258529,0.22933054617914245,3.826638423559223,0.15897307630120439,9.932845461342971,-0.18889295423926727,-10.569631579727686,9.799301258083004,-0.0891851830236348,0.009752040070761267,0.10685131075226456,-0.06961936461144749,-0.02416318183094934,0.7999710029037529,2011-09-26 15:40:48.821996417,5.380173526
49.01053051587513,8.414430408531102,119.85100781042624,0.11347833525519582,-0.006968893775471702,5.30593722594081,5.165197950511712,-5.164736036064715,5.190120299735198,0.12814288578910388,0.20191232662177538,-0.9432279165468525,0.25718885444606443,9.903121338141295,-1.4338779462590416,2.336773753416539,11.317413649143027,-0.05951267315920671,0.07039472029115029,0.4247337220945329,-0.014803261929855325,0.10914125093788037,1.6474022508187365,2011-09-26 15:40:48.932021547,5.490198656
49.01275554977005,8.410166863697357,107.91271014622838,0.6475251358324325,0.024629473126363138,-0.6707987877200943,4.484486473124706,10.863833482546834,-2.434815965518907,0.09408586582371889,0.6415379739699331,-8.28297522064346,0.6325178082863175,9.247921068082675,-1.4079006170091546,-1.1031967275328338,10.754670818497907,0.02764797558592257,0.015000962001095783,-0.1246753887768842,0.010901316251053644,0.3022247108187925,0.2582311778503721,2011-09-26 15:40:49.031999851,5.590176960
49.01118563286147,8.411282996265378,118.6311745917535,0.2803017065697227,0.027678497988774944,1.4147958410764228,3.975381321788044,3.733533202769746,9.654962266658568,0.10743768869552967,0.0015140375513410381,-10.610037183887988,-0.37120064945213715,7.3164560717620875,-2.9849059346001474,2.566275157155751,-0.781941905545521,0.011413971350668788,0.05565459064322111,0.2198406634313339,-0.008260806908542655,0.08538021657045508,0.5210876046663515,2011-09-26 15:40:49.132099410,5.690276519
49.012410927461445,8.415074630045561,121.55721895046973,0.03562757806089783,-0.016570976641322364,8.37813458593838,-3.3054211231313797,2.3277832411385355,8.966222406675666,-0.31345629548379006,0.40195495761636085,4.419798163387365,-1.231626094556749,9.901773286233677,-0.24653277880927627,-1.1290696625115566,10.599546272462746,-0.2154087332580518,-0.01658771703666418,-0.06257291703218429,-0.01430026096644453,0.0394078301362442,-0.035100421653329286,2011-09-26 15:40:49.242145825,5.800322934
49.012252659227784,8.412309633381522,116.65951654287224,0.06558150419923497,-0.0793363849846696,7.491380563014628,43.799738271904815,-9.990162565828761,18.63959778558141,0.3302127966611818,0.2860665970307029,3.5510382067536046,5.008384335331909,7.998967422412274,2.854976695899065,-0.6418944584512032,12.700970655143756,-0.003218992458943276,0.4245422851184057,0.7636891327222862,-0.01774147348722406,-0.029449871982399407,0.2525657521865273,2011-09-26 15:40:49.342017866,5.900194975
49.013321914457926,8.409662477579825,117.06551006880437,0.11699439280537569,0.018611937576981392,1.4490876306373077,11.165734642836243,7.032361489756996,3.2454391044715445,0.03168686128489968,-0.025523186147566698,0.27769535390958056,-0.3368316630064032,11.142938513196711,-1.9743231632027822,1.7004999491870565,9.485111099238365,-0.03264079840342441,0.10332457958169272,-0.1190243659437206,-0.09765959958430871,0.1190250075421648,-0.06627203616404277,2011-09-26 15:40:49.442023858,6.000200967
49.02464453443259,8.412526193560385,125.3434451015189,0.006787448094517562,0.0235104809935207,0.8901606254815703,-14.150724650793023,3.7585890118069556,4.467706164200909,0.08532752028210824,-0.06167790171768213,4.260454488652532,1.3079604586472424,10.553782665571447,1.0123957165363655,-3.4489868130318184,11.405652665603128,-0.012174218125032128,-0.027143076427165028,-0.04493873233920511,-0.034728219003455345,0.14143715970576265,0.44255071552201714,2011-09-26 15:40:49.552023407,6.110200516
49.01210782350023,8.447759206054068,120.00258367985161,-0.015027942271042045,-1.1004257284159477e-05,0.029852362593755455,58.10651931409553,-23.83717488773113,5.679019014713621,-0.17090428186064657,-0.04505986848805728,-1.9992877066098835,2.4849582651142836,10.948119153784255,1.0626906518352082,1.2359182522697216,9.762749951006981,-0.06314795793391294,0.10118234923730514,0.5234712455478644,0.48284517075979994,0.05258192043598049,-0.33462885195955494,2011-09-26 15:40:49.652099550,6.210276659
49.010122937418174,8.409512146455507,120.40196338085175,0.017354078082062255,-0.012951378067875682,1.8450565898810447,-3.733816376491572,4.805038335273657,14.851704883392852,-1.8852673684455103,0.09223957621363278,-0.6317789443996488,-1.479699319373442,18.237857747681232,0.33842521408677084,10.075720120309388,8.39862221651098,-0.03045243625903458,0.043743184217921505,0.10159743692207715,0.18219370537112328,0.39666536859993123,-0.15769315342189794,2011-09-26 15:40:49.752068730,6.310245839
49.00803382114891,8.433124611764567,118.35029460420844,0.03199320562389331,0.027785404957132685,4.506933915952242,9.573073056949323,2.285994293491255,13.05180129567799,-0.3217255681828584,-0.035790930359186235,-0.08533099908872832,-0.6057285381293311,16.811524677208695,0.5235702889562187,-2.1814950355784757,7.535046534120082,0.012110715256694576,0.16792725852549786,-0.21761349409246092,0.02686939035827007,-0.04053996168427088,-2.4635951030627004,2011-09-26 15:40:49.862046548,6.420223657
49.01136940898621,8.415349031331205,117.60359263508003,0.13473732455641696,-0.017793226429777643,3.091992425754589,0.06298156481914852,-0.6852082486798092,19.489113541559163,0.4679192459103333,-0.08663424054748599,3.73231808361351,2.6307155949916177,10.353613818792331,1.5046029399662673,5.326470574529163,10.161423363386058,-0.03283699145478391,-0.10554808446817349,-0.4371096288683519,-0.0853454715280648,-0.10873773347406362,-0.31898493261786637,2011-09-26 15:40:49.962082430,6.520259539
49.011936234302055,8.411878325536373,124.06325045380983,-0.008773319447986122,-0.26231132888531994,2.873979203965705,3.2974859909807748,-8.43021196623859,19.660268919059174,0.22693829052629813,0.45769082442181347,1.7733116401368982,1.1479940281045162,9.635807714281212,-0.223545658253651,0.6942280368222951,11.320789852126145,0.0459586814675092,0.03320053971202091,0.7473861204147036,-0.1822752214937604,-0.04006745565428251,-0.8882345900066317,2011-09-26 15:40:50.072205654,6.630382763
49.00733482303159,8.426736323788392,117.03460407345159,-0.37935826778950005,0.02880426018994988,-0.2103775355503057,9.485733606007363,2.779617473729554,12.084568441165663,0.24382606769619203,-0.12116570819397388,0.9012071386218722,1.3217340752158857,10.930856139176159,-0.7186708788938855,-0.9801105714006803,11.5183633983773,-0.025081167308010285,0.07215317935952742,-0.03853160525166913,-0.015512247017479393,-0.07070483712886844,0.14322482512682422,2011-09-26 15:40:50.172188742,6.730365851
49.011553955067974,8.414694814299821,118.27967422698359,0.02327777582315608,0.04483917774251889,4.145935358297689,21.934455744255175,-9.324806498810343,12.652015895752637,0.4751976430688593,-0.13968366678741406,0.4879357808423563,2.1279131961767512,9.019865846702556,1.2623072764591112,0.576752927605889,9.468673959235428,0.004716562654970064,-0.005716077001499726,2.231685380127173,-0.04369753418915529,-0.04222618035671985,0.4152843677014747,2011-09-26 15:40:50.272156269,6.830333378
49.02083389153524,8.416610016367695,120.12608465655117,0.020626674041522963,-0.0058218899927986725,3.0691980500892297,-3.0765856631876742,8.275740522285531,3.1317723665824238,-0.2953838439562681,-0.06317817371945586,-2.4015048016632736,-0.28533675668994163,11.003733157438647,1.7677705791605451,-3.7306073671538185,10.79991043237147,-0.003726062559705567,-0.04562363625473236,-0.6615594209715789,-0.014933460974992013,-0.02568574443177496,0.6526452456025595,2011-09-26 15:40:50.372297108,6.930474217
49.01259478218876,8.41089996866923,116.89082974406203,0.1167766842627471,-0.034867586255682564,-0.11267995667071706,59.47357666933975,8.472502823777226,13.699684517038591,1.2231650832360423,0.05264018618113621,-3.0885233382143418,2.9231557814544065,9.091384193526704,4.008639063615739,-2.1813393275593875,10.022123815614403,0.05588210260136238,0.11106144200682906,-0.6394050122546597,0.05068178223529696,-0.06096844177616487,-0.01960475854836352,2011-09-26 15:40:50.482135768,7.040312877
49.0075959181356,8.412589822128394,118.4603245378915,0.14466328524960625,-0.3072584899309737,1.8344356699656466,-11.547900222132824,-1.357454923493945,9.064279054373875,-0.19239459901938105,0.2519699034296056,-15.468027870122215,-0.026285503686253264,12.235799392441324,1.6593298058776433,0.24863745147691735,11.458872791726497,0.02058538036713016,-0.14185618644617667,0.38104005106164374,0.1038113482707999,-0.08061139877519005,0.41756126583352376,2011-09-26 15:40:50.582147838,7.140324947
49.01389966068946,8.410540556672343,116.489761640541,0.014651519938548456,-0.02575822252182256,-1.4349540600395012,4.59502047803872,-3.792911620565314,-22.331530136487387,0.14593982624411328,-0.09333660367733712,0.9720731301940472,0.8286411095992903,11.19124135345158,-0.6051736240275436,1.06256708471325,14.25400594959244,0.01692356455495824,-0.058182979395910536,0.45767263517765205,-0.2637924710417481,-0.013784162940941608,0.36304612273113,2011-09-26 15:40:50.682303986,7.240481095
49.01362941421795,8.412553886279515,118.3651562805716,0.014883717806574444,0.0742592173650392,20.67541727478547,10.075629628744894,9.885622430133873,0.4456683094621203,0.15843386634747308,0.785583801957401,6.7692624094308975,-3.310078341960171,10.690704164866624,0.5413915979149868,-2.470569734852383,8.06834435086084,-0.2594963421677203,-0.047280896891860325,-0.67348701219987,0.034474184757281784,0.08168586049850148,0.2377760423364783,2011-09-26 15:40:50.792099415,7.350276524
49.01362637497791,8.409367018956658,128.40311342354204,0.09271075016321499,-0.023554862048632497,4.002412228698642,7.771534579543088,2.3651574233195385,-6.187219565011478,0.15413955047235672,-0.10410506358228706,0.7904911207158204,2.5981225520053477,10.77807869930012,3.90659342733325,-0.5397458542993113,9.043323692592468,-0.05258577794444079,0.055818812964249405,1.0169038316947288,-0.04450387317290119,0.0817524718335923,1.1294303517398214,2011-09-26 15:40:50.892068968,7.450246077
49.01249247979967,8.41711110448514,122.8886628223395,0.075376450980322,-0.1454463690705553,-0.3801736258770403,8.062777987379688,13.741151985544358,0.3532596929967564,0.004536668429952376,0.3362382919135263,-1.027328687145831,-1.8372347548505354,10.41505369851508,-1.3431435541863024,1.3645566568020806,11.273498751598348,0.00017061768884756717,-0.19163643585623302,-2.4743050613381095,-0.032488786569032924,-0.0912786467313581,-0.39741072396099353,2011-09-26 15:40:50.992096133,7.550273242
49.01344868708642,8.39694528948009,117.72603692659021,0.07773589389740358,0.008558942556516744,-1.5283334517326699,3.4579459926020055,-2.994245815129829,14.731192042885525,-0.10999040266341188,-0.22061966644432257,-2.4823966134592945,-2.2026419960762476,8.550973989377473,-3.11565725021635,-2.447300514867394,9.99237773416035,-0.13886650024964356,0.1294503681851255,-1.6563667474459747,-0.10655029755807452,-0.052166693381232455,0.5673679852015017,2011-09-26 15:40:51.102094222,7.660271331
49.01192064630677,8.406956994883952,118.10886191527132,0.11136528680765992,-0.04483891305038485,-2.2005357665359764,4.018534126565994,-2.6225504288289527,8.966898019431834,0.3420723414998104,0.6340028182955161,1.5727182241838642,-2.791749395750259,9.92778341238231,1.0199261209523154,-3.1999694025907073,10.127011793519353,-0.07644209482042025,0.13252185002597242,0.4319366966706389,-0.029166176641383615,0.015883590473252423,0.4834963668855395,2011-09-26 15:40:51.202308132,7.760485241
49.01382735123138,8.385883834128299,116.22673164521328,0.12371598412229481,-0.009495318924418326,3.71199152266764,14.931086877009598,-44.36721624162052,5.943883199253416,-0.1447208930666462,0.26602842334802335,0.8197090321739803,2.952255355135698,9.290956627292088,0.0632456104980135,1.976433414777315,11.116445254560015,-0.002778381671413234,0.07485469362271868,0.6167446147029557,-0.10048787014238139,-0.14865697320241308,0.3644548886512947,2011-09-26 15:40:51.312128328,7.870305437
49.01332106859318,8.414699471366543,118.69917061751286,0.053295659814722486,-0.03853601089321591,2.357856471725369,14.785203528714902,3.660015780291167,12.853169235424142,0.04030102317401375,-0.07881955473485537,2.0160842466032816,-1.318183369932498,10.300658020913277,-1.8887733815581347,0.5244052714335639,12.963179872167899,0.04479920068864267,0.5507761378447907,-2.1647531354448843,-0.043482516574287436,0.4221675079247126,-0.23387591162148236,2011-09-26 15:40:51.412116836,7.970293945
49.01400137262293,8.41051191595819,109.30870498673553,0.06268709421591287,0.025638227840401425,-0.12037692500763475,-82.40615351875934,-5.8122652453160955,0.9347183700294162,-0.19630997363666433,-0.0650375454945408,-1.2962730381050982,-0.7182522639909309,10.171944647436288,-3.4050865623714643,13.84581157629365,9.832902928234029,-0.01690172107862706,0.030099572909759863,3.1544293073848646,-0.02919516420165416,-0.04022442138724967,-0.3331144406833858,2011-09-26 15:40:51.512124791,8.070301900
49.0131290780024,8.412394698669111,117.41925147612069,0.03922152332259985,0.014309400125670321,6.271576383999145,17.203313898869848,9.24309695595212,-50.96631695027674,0.0969957066927123,-0.19312022498658646,0.1757478719959774,2.1334016680001193,9.908561125053014,3.7910449240048854,-0.8082487546329645,8.512779670299604,-0.03991453376309599,0.23313815680388153,0.1365747753644324,0.07703059162892945,0.16774945540531608,-0.7524018318660579,2011-09-26 15:40:51.622185376,8.180362485
49.012075186472124,8.411805485646903,120.02573498774893,0.0014065741899609852,0.09715010240959722,1.2501386771392409,2.636201851313105,1.2072184781525095,11.40305385388487,-0.32156544777767937,-0.00587230499644284,2.4890231345956972,0.9834844451073064,8.989541093665737,-1.8924283712366694,-0.40546646760234767,12.208174692831333,0.022007197662196883,0.00022698534953818905,-0.16982667168141347,0.09725281270163652,0.15390260817733015,-0.39923229241726466,2011-09-26 15:40:51.722222136,8.280399245
49.01176257487177,8.413570279180773,118.53197452810208,0.09729928214539893,-0.0031220669165827955,-1.070860645834691,12.802993579003461,-6.3583255869960285,7.724298973826363,0.2841476729319598,-0.11094177700824606,0.40994046725074523,3.331651152777944,-1.744608041373679,1.6838149505252262,9.82961687880381,10.309215387226864,0.7760745768179599,-0.10113821953843156,-0.09955914868837938,0.057609566294027525,0.07825905677736578,0.5122649225307161,2011-09-26 15:40:51.822167163,8.380344272
49.011650634714755,8.40999807327384,113.90438298392098,-0.03720684973981917,0.028254175673044103,2.1409728123692116,-7.197665966864304,9.760205341468879,5.2086235961790734,-0.035731686792798464,0.07359986452586768,-0.37342550676715336,1.670412061733179,5.165974126866288,-0.22312998474613285,0.24266090896596934,8.702007102370608,0.11194597769983226,0.06656647663215927,-0.7385935823213782,-0.09165253898556125,0.06307518318306421,-0.5031504826452843,2011-09-26 15:40:51.932165638,8.490342747
49.01371585428476,8.410962022316868,119.39238732032938,0.04137437139992072,0.05769614673814105,-4.141925532882682,-12.004095173067462,-22.106883047014463,2.9763514755825424,-0.751842828704569,-0.2741491679223523,1.1938250393714727,3.4761311681727385,8.728449146902863,0.71791158802933,0.8811473165736561,10.055572155050474,-0.006329205509748012,0.0796988762266706,-0.28190650894144553,-0.10882411160672491,-0.03408622928712285,0.17748135216418737,2011-09-26 15:40:52.032160758,8.590337867
49.01058103816286,8.400576537593752,119.81274384842733,-0.02209702900233297,0.06687866645731443,1.93614641218468,-10.92565366125796,23.574468339640333,14.534918900995073,0.1221774838880608,-0.016403239377646955,-1.867486095885909,15.725453776263162,9.00985664406901,-22.539838015568225,-0.34721570131163454,10.100480811562125,0.03385577466670835,0.20007121335025532,0.313259297088146,0.027691884258621426,0.09921029802498293,0.2256084456252433,2011-09-26 15:40:52.132178621,8.690355730
49.021274564465365,8.4126076697027,118.64592884571206,0.07393653009727062,0.08657041950999021,0.3852475929047505,7.525313111216097,7.559898570429181,7.0148614061259265,0.8840762740074075,-0.1267824295056339,-3.6542464770715277,0.8098562671793978,10.556833869662436,0.15218810035700245,1.8407460569074758,9.509655893934024,-0.032846355934393064,-0.12089244053438092,-0.2351563258937726,0.00134775509551228,0.04529769250508517,-2.3979230167429058,2011-09-26 15:40:52.242258597,8.800435706
49.01591095435641,8.410146837672004,120.82183127250029,-0.05094004235844256,-0.021992352760588706,21.029576097566927,10.749666832482164,-2.682127971232114,-16.395755413759446,0.21121370360536548,-0.05443468396166215,-0.2570175732501375,-2.983228871014338,8.199645769177451,0.40704810264667224,1.1271724008201665,7.7278262267304765,-0.015578867797614762,-0.1503230465443135,1.2539680053568805,0.023445550954484747,-0.03155028527382006,-0.006304887666922592,2011-09-26 15:40:52.342197221,8.900374330
49.00595291136264,8.415214463181965,122.12058528782647,-0.011129870809663683,0.001903940115424333,3.276954949835398,11.54726554167679,-14.256794931369951,6.392012226310139,0.10871948624768654,-0.139585151477527,0.2646801636758106,1.333768563472644,10.762092543024638,-0.5877474061415022,2.623547856203327,11.191718586137274,-0.011052785915669786,-0.042838126878041324,0.10699587578985148,-0.018950008057035343,0.006132097594150593,-0.8676916863018932,2011-09-26 15:40:52.442167930,9.000345039
49.01224019807877,8.413289506528315,119.18984077500131,0.00836723130750815,-0.0072909822621869055,-1.0321184881494434,14.965890279202956,6.283879018492229,8.062252938657236,-0.2736380915460531,-0.3596342435315967,-1.1358246018831686,0.9004102110909491,9.82588739298012,-4.010853056204011,0.19096378433450029,9.901243389235063,0.00927543061440334,0.05924292568161567,-0.7160257581535712,0.08013466366318515,0.12792752837016166,0.26327499936080434,2011-09-26 15:40:52.552218266,9.110395375
49.0123650822625,8.413180243942953,117.45509811519649,-0.021161054102780373,0.01679322666613197,-4.6863705707210475,-10.2425816972362,8.881198944153903,14.602195381206549,-0.018240743375044804,-0.14150472695825883,-15.39661538108963,12.401927262505057,9.556203038359872,-0.3613870767809437,2.0122772298454494,7.019624247786394,-0.01781092364444517,-0.06298836129690388,-0.026593310921190598,0.06235980609642119,0.026195604844555995,0.17252924044031337,2011-09-26 15:40:52.652200555,9.210377664
49.009898328261855,8.413609845311548,114.94366748358505,0.05955438193121814,0.07700898759588866,1.3297823235098674,-1.1042534788054699,-5.52687702360182,23.0476298756239,0.11763418349560235,-0.11114822825230986,-2.144026797587199,-8.51341196040638,9.76675255993315,-0.7274043724494614,0.8676339703879323,9.23726527502091,-0.015798476092843742,-0.149448163003336,-0.1913445139194485,0.03961484926589897,0.04915429551367988,0.21116455426599887,2011-09-26 15:40:52.752238681,9.310415790
49.01207836665075,8.4056132076067,118.44640803230008,-0.09939760195126146,0.01071158093686431,2.9735252942778008,26.208296425987225,-3.2306263494124967,11.606995515284545,-0.1362706557023292,-0.39903949841675546,-2.7427057267877464,1.009987376403982,10.22624143228241,-1.3386623629943615,-4.728365250473563,11.396187016861498,-0.08215732268415152,0.09460484333044773,0.1525811128976565,-0.06707259449982256,-0.09499945899018306,0.45685450983038983,2011-09-26 15:40:52.862228465,9.420405574
49.01433524426227,8.411612328897672,117.71828802708232,0.11088744076477701,0.07033345600034191,3.3646556860321324,6.803145343802369,4.81802314012535,16.83516262542802,0.02158946080163969,-0.5488598144548019,3.9340686830185283,-10.798371913223507,9.243735670581449,-1.0207620004222593,1.8123903730989477,12.688954696485396,-0.025796164083767607,0.004171625890900275,-0.11443777516198468,0.05263090547498254,0.048081126110960125,-0.07165065015061627,2011-09-26 15:40:52.962259484,9.520436593
49.01592710115528,8.420077206399842,118.530323465109,0.04886833241245973,0.14744846347100637,5.613603053870046,3.7827359006195618,9.033447745411559,-41.98007662529891,0.22867575021215,-0.17922130588312746,1.5113712460989055,-2.14403084043788,9.63137014437305,-1.760133762179301,-2.0921095312744167,10.671276402702707,-0.009446013924230204,0.06605012894288209,0.32669930968444183,0.4407516804689198,0.027807496245123988,0.3269048384750716,2011-09-26 15:40:53.062224095,9.620401204
49.013799046612014,8.410994949160584,116.75584298287046,-0.026745555351365774,0.022527686190428574,-0.8543281677818042,-5.628695073614789,9.232150887553038,6.3766029038649314,-0.02641979724568131,-0.4024454986501848,0.10446009188362708,-0.8885918054537545,9.707753212682894,-7.115191360877825,-0.3044320547529372,9.760581122287897,-0.3323214492931958,0.07172123758236934,0.8495720394385516,-0.26273458470119604,-0.04175743165450597,1.0764934635620427,2011-09-26 15:40:53.172285735,9.730462844
49.00893335878748,8.414125938999527,115.6213887001057,0.02937838160536723,-0.001041616234966368,-1.8464791289848137,-4.928285753121793,-2.6494578345089717,8.94109148623192,0.18548409464890714,-0.004180945924633786,1.0501901916676923,-0.5632979750240054,9.082811125827954,8.40081106221965,-0.348326666895977,10.380444807444414,-0.01616963834990774,-0.007383539976225206,0.02944364654966128,0.009564469272302617,0.16408416943617649,0.7854353666560202,2011-09-26 15:40:53.272474597,9.830651706
49.01077022952076,8.41664040777027,125.7591795461637,0.07592068136480343,-0.05137329954071691,1.9059341258554576,18.923010114679276,57.61176908760808,0.26570638643274513,0.20873714130830903,0.07959697155920116,2.818759141987343,2.0370004169184677,13.112945682274251,2.0152566296592354,-1.4749521214793648,9.928876299690524,-0.10212336394818584,0.20159525731074388,2.6094359144089943,0.3025933586634446,0.008416695340235019,-0.3875175121948129,2011-09-26 15:40:53.372407308,9.930584417
49.01314896197754,8.412950574272802,115.05981633048808,-0.039307993238418534,0.2343866357990619,1.3187548522665755,-48.4989248440249,3.913010117079152,-3.008898507982157,0.3762564357221724,-1.1028305938812049,-1.0486447121098839,-2.070526260922854,10.812699751696854,-0.49289816255783225,-1.722734842430927,10.813985705042743,-0.10157062996577951,0.05798348896179464,-5.547573287120132,0.007903190370558491,-0.10112857048214356,-0.32264314530432353,2011-09-26 15:40:53.482263255,10.040440364
49.01012623524927,8.411031324478882,119.7802968140531,-0.2355135097208924,0.003836546221500179,3.7560520505502524,12.869052295921156,10.184355202997345,5.27100204107575,-0.07267273444115135,-0.0758444109781995,-8.954697607688967,-1.9997804636201848,10.42900487754535,0.8685784786263403,-1.3736412063416004,7.7537297503137825,0.09655489513216181,0.011684966058377984,-0.39479108387744133,0.11864097592371428,-0.04024550302019702,-0.7646172307989731,2011-09-26 15:40:53.582252902,10.140430011
49.013212926174255,8.412960085685608,116.7158460034493,0.12604571398721282,0.08717032845372766,3.957073617801371,-10.800557157809124,5.499198279941261,5.271677631799134,-0.024940698587906013,-0.3993196729920705,1.1354815862135297,0.7246746931765425,8.330936011448152,3.269640253621545,1.382329164755507,13.901232044375249,0.08950500939087844,0.0027979331366062253,-0.7325217406950805,0.0017815284540231915,0.15732659284143038,-0.05405981569304251,2011-09-26 15:40:53.682475808,10.240652917
48.99948940439364,8.412818529911311,120.76902228430949,0.07701611274912629,0.014926766057268673,-0.5668087844282417,43.58308098647092,-6.508835878630782,7.2852699970839145,-1.6755269432302722,-0.10162181103531283,13.210317718936015,1.47196111657707,11.05427743975546,-0.8157336070013611,0.9552390640985136,8.803144468035207,-0.38658357209288613,-0.013176627576638539,2.1105652556284142,-0.030909649757429408,0.11218340053212081,0.3427372995316052,2011-09-26 15:40:53.792257468,10.350434577
49.012300860355886,8.41130718042228,118.05385596318567,-0.02718134610246299,-0.0013848210990681578,1.5028952654154761,-2.7235875021528146,-10.133761906133186,0.7665925051763596,-0.30973396754226507,-0.08548258215713937,-1.344728924065385,2.2441470841299433,9.843432771769331,1.0453691523854516,11.990871728883581,6.6007974455988165,-0.04556468359681391,-0.014880078622577321,0.15597449760316742,0.026926440506122543,0.1565873735006641,0.001677606720828082,2011-09-26 15:40:53.892274284,10.450451393
49.013044988868906,8.411872728713242,118.76209105388773,0.037717761444878435,0.0625270704693083,-0.38831925323997263,-3.74470541785709,-4.490604424439003,8.045811492251405,0.8019305780526174,-0.2563512108025944,-2.382480069931401,-0.5743018731147074,8.235501506036293,-1.6880792457469493,-0.5486347181188262,10.281207172043874,0.014931303020941086,-0.08614291937565803,-0.21596835604884163,-0.029978239508896228,0.13250120438186028,2.5298331081985794,2011-09-26 15:40:53.992262348,10.550439457
49.01149561461947,8.412944818872369,116.3112778907299,0.10564419875345227,0.03182648870506717,-2.615337898357736,29.541216918215557,4.96026633951896,6.051577177401925,0.1942906665103295,-0.12379295492465328,-2.943073689533051,2.0117345702812375,9.845289790380978,-2.5828489663762526,0.6141146703132804,9.893732150258957,-0.004911624185765662,-0.15133318311846042,-0.29939527045261827,-0.07726515125911163,0.002217662742731507,-0.45275195944762775,2011-09-26 15:40:54.102250682,10.660427791
49.0115553411645,8.413112969084386,114.89116812853077,0.04645546589957919,0.06149109551139484,12.585448986720618,3.1313137809675435,2.65810605714207,8.116779322403046,0.12034820520751917,-0.13113429192963177,1.9821395836193303,2.003696453335947,10.31698046525278,-1.0157344869933855,2.2504091233654053,11.123584768940244,-0.06589102977339169,-0.34122114360467526,0.22744746126942347,-0.13613886594937494,0.20190767106446122,0.30777641059737837,2011-09-26 15:40:54.202495389,10.760672498
49.012855181843626,8.40802687984772,118.44275824757821,0.04846004322061605,-0.004000568360546179,2.0811804435318355,8.340834450282125,-2.1333643204744757,7.959555309899208,0.13258210387663785,-1.765534626893965,-2.349205803435189,-1.6879863790292056,10.535933597597525,-1.7122457747878195,-0.27435947050336373,9.741461921011993,0.06987139999732928,0.010911842116223557,-0.41270651196561675,0.3826242112383306,-0.10513920778416314,0.12822203640989538,2011-09-26 15:40:54.312263278,10.870440387
49.0120773479647,8.402384388775866,117.3835317257127,0.044544072264737056,-0.018447914404901317,2.827482856808569,7.529633117034447,-0.6998553402029354,12.542534798173872,0.0391200622002849,0.38760417372898504,2.213176691243743,-0.9750962714328756,10.09899282670504,0.7620794422895125,0.7371345926152728,9.896332294893519,0.06616166840797298,-0.21127062478609604,0.09077360304984948,0.07058084226057837,0.0677577873193635,-0.4099213773566156,2011-09-26 15:40:54.412305527,10.970482636
49.024439671919914,8.41052003082158,115.09098073084289,0.2424190043828723,-0.1669211337539576,2.941057134274492,-8.253036563587038,43.73093761596392,2.9880926759514876,-0.20420967133573842,-0.0799327665583335,5.19561874980444,1.5380414932517295,9.574708731731178,16.329340363939977,0.3197890680045491,9.541388100573029,-0.07553064588947353,0.027209855149269133,-0.2982713689506862,-0.04995317558114994,0.020267055294673278,0.01259039041597696,2011-09-26 15:40:54.512278700,11.070455809
49.01140027845715,8.408596996256144,121.19943753029264,0.15349956656347763,0.03378440479449556,-0.5901928205091567,13.35930752774787,-1.4174279729388024,16.05536763348688,0.11459959418455071,-0.11193328731446789,0.22266828121727533,-9.83165342172741,10.138761532514282,7.183696397728668,4.973188208178452,9.876138308711926,-0.050996706933046136,-0.03787975520342004,-0.5671540419678704,-0.05755822713657795,0.04898971561084532,0.15498867690652124,2011-09-26 15:40:54.612289654,11.170466763
49.02325703599292,8.413968309295964,117.54513843837265,-0.023372857835537986,-0.0020468316680982215,0.5808615533812864,12.662401993530894,19.638344590757406,-0.24197376370065626,0.022360168231125344,0.2578095988572961,-0.1554967287004343,1.724283258872986,9.21881609392732,-1.5949787116345036,-1.1044020329742639,7.982323170317366,0.04977027631978867,0.01071160749079847,0.5048049860082807,-0.01791857491702047,-0.06890440418962868,-0.8147169326769018,2011-09-26 15:40:54.722368184,11.280545293
49.01082157328475,8.415895238024724,117.30602666565744,0.0012954338336873955,-0.05283610182917432,2.7608433490511546,0.36871131506979626,-9.039198739334037,-2.406143913317365,0.13091303715517816,-0.18135103442868325,-4.1513047826199045,-0.7763881889861173,11.659568762591807,-4.2746246373102785,0.691711036874125,12.057785680361901,0.005828660343360115,0.05402004674115117,0.07782909556816091,-0.08111995687091865,-0.0570638050668091,-0.02612753340910726,2011-09-26 15:40:54.822312857,11.380489966
49.013965782455074,8.409914064980349,117.99283168316815,-0.0032511933435005434,-0.2008981583796196,20.23833229856561,17.906432515249534,5.488735037879953,13.173428632003626,-0.051223289041994524,-0.1276141886871043,-1.3025120225698608,-2.0081385905300477,11.155239110882597,3.148474010252878,0.07488179426546511,9.532021938743497,-0.0062884685609683605,-0.04208641211630538,-0.06721737498119601,0.05657467449918385,0.18524525577966386,-0.19325029928235338,2011-09-26 15:40:54.922313994,11.480491103
49.012921140293635,8.41154512675012,116.17167625821243,-0.056046931858104956,0.05928399954747471,0.4514690706629345,-4.751177279971435,-37.899071275367355,-26.7525606494339,-0.3634074598978377,-0.24241625987523702,-3.731810671448171,-2.027112780068045,2.7033917888165515,-1.1353288503963377,-0.06933873166995201,9.822746663259846,-0.06888441655635053,0.011846149962848256,0.12033321041004165,-0.10761402863357115,0.03515651366460429,-0.2650753535137334,2011-09-26 15:40:55.032306766,11.590483875
49.01326863710846,8.414190572896391,114.9311230171078,-0.038562627417821155,0.14931819127267554,4.481604522226635,5.859645756580572,6.238224710891329,3.377561818561152,0.08098690935389447,0.26365017791406226,0.7186309158906463,3.2894978476003263,8.299430259242435,0.18756539002198847,-1.9070120416186138,10.579414033502877,0.03663453016959544,-0.006066949733783075,-0.16905408729377128,0.07098760021897955,0.048805156945738885,-0.559826467246684,2011-09-26 15:40:55.132350747,11.690527856
49.01224231017009,8.409070078695954,117.11167083047074,-0.01617021238904638,0.030520870266522716,-0.32605476804228206,15.134292646367673,-5.602942751871213,4.3750708767214395,1.590116563909718,-1.2848080409094624,5.788055852248355,5.95142812114921,9.213703603234201,-3.1514649989282977,0.2554151837629201,10.170039148220852,0.019141896941353074,-0.03292024337244585,0.0650831549184856,-0.04301722272537576,0.022825997126794843,0.07541282386959135,2011-09-26 15:40:55.232399738,11.790576847
49.017133470076615,8.409639850313795,119.73117980314855,-0.18096153707783572,0.08361666271251211,0.3521786640773652,-0.46457920004530706,10.164780938567914,2.3266937468428597,0.20380990363577933,0.17968760893436286,-0.58342898909644,3.447024179003737,10.647582205806547,-6.411265089401155,9.582182003934546,10.613993394171773,0.10869710304396209,0.02753715768675237,-0.14950730198902598,0.022741433596792225,-0.005846927187693056,0.504439367784378,2011-09-26 15:40:55.342319218,11.900496327
49.01119727891323,8.412110062051783,121.82217529221873,-0.11135757260748856,0.00831997179487079,-4.337622194473377,-6.739727416709803,-40.82677992974508,9.205532045755566,0.6022584133554695,-0.3471412731184458,-3.547827367675124,3.575648351799373,10.326867411665665,12.210653051603256,-0.49057451592699225,10.455952510512768,0.05577164634201438,0.10923304278830215,0.15139046564914257,0.09854094771726972,-0.07655260415704761,-0.03622474063332226,2011-09-26 15:40:55.442372606,12.000549715
49.00814226469758,8.416162430976707,103.33163955325425,0.4632935320433557,0.04383038431167396,0.5154502337502027,1.0006438188420708,2.755089888150253,-0.4140507054888962,-0.19759419733991404,2.1018538425225883,4.410124508638993,-1.695878055512088,10.608773760925741,0.4904585196963013,1.359828365071634,8.396301646537244,-0.1740258352272979,-0.09639778839429058,0.21364615674917772,0.030343992461854666,0.07332928528283342,-0.3266466841556143,2011-09-26 15:40:55.552358921,12.110536030
49.01466147958734,8.412817297159831,119.38458509056882,0.010139827833440033,0.06072525018749742,3.5250794625509645,18.59271372305378,5.763333222965773,11.668039958863769,0.13044790020742925,-0.08971863961437203,-4.1217353230819676,2.076515114440699,10.411418529324898,0.672159880974915,-0.21256250690684286,9.775189722653879,-0.0686405411083757,-0.07399663097303993,-0.22179083766084354,0.04876797486902787,0.010082989595907775,0.17395749572632246,2011-09-26 15:40:55.652342606,12.210519715
49.01306114702213,8.415504851712432,116.97706250437184,0.07381620321012103,0.014287799242145979,1.0859102185133316,18.14271234576792,6.767103898826077,7.198396927806128,0.09203257264234982,0.12798835303982184,1.1085100747431293,2.041963468695143,8.469767839665533,-1.2036401590776828,-0.851441871047371,9.937417603443578,-0.04823268276701999,-0.09657452420236388,0.5938232054814473,0.025805605938742024,0.03572133004038187,-0.21263174347763927,2011-09-26 15:40:55.752360890,12.310537999
49.013047579077494,8.41443135467858,116.65855943091131,-0.02039874110134759,0.005351768026019723,9.917882571529175,12.296327594111194,-9.534932890380809,6.153757426719471,-0.5424048767130941,-0.06802531895443135,-3.432679885136141,-0.09883301962512148,11.15917263120091,-0.7714510124896542,-0.0714092881685558,7.8076972569253,0.12606516783756108,-0.13590160482434283,0.1813249588288254,0.040539380851334406,0.01380727490918477,-0.4973256503356471,2011-09-26 15:40:55.862359142,12.420536251
49.01243439007432,8.417844538619338,118.24448726206778,0.062335412922392766,-0.020098376293152892,3.810752273063029,11.987167012327333,-1.511004400203614,15.375511003163343,2.08370299911787,-0.006988930911948681,-1.4084178628632187,7.695237519186661,8.449451557102845,1.774396482272286,0.08126909754972705,10.422751956885584,0.06921143734682035,0.0060490819458420735,0.24432074444294316,0.020806284380940544,0.014095984366698119,0.8075034918557384,2011-09-26 15:40:55.962381474,12.520558583
