lat,lon,alt,roll,pitch,yaw,vn,ve,vf,vl,vu,ax,ay,az,af,al,au,wx,wy,wz,wf,wl,wu,timestamp,rel_time
49.01196211714138,8.407014153722265,109.76642044725054,-0.10374676103847749,0.003418837767232603,1.695842741931188,34.704528040321044,11.338007647409023,17.63264956973985,0.26752371092552996,-0.19850989917610462,3.689834714370925,3.8294899823675186,4.56714420876021,-5.328911875995271,4.135544396151078,11.147736359604947,0.2542708925380173,-0.06948793289976482,-0.1841157333003755,-0.07006238010160262,-0.10963959266105729,0.009512374524772355,2011-09-26 15:40:43.441822891,0.000000000
49.01160166486399,8.409192188972053,118.9871428974687,0.016361641782264777,0.042010783915562795,0.6434407869362206,30.08394462811735,7.152790321497365,5.582179394664851,0.08601120456444336,-0.16019679214979968,-1.2871133303550026,-2.515508252115802,10.911010299728794,14.914093940077962,2.0578699681345953,10.668108840459121,0.003917297970632342,-0.10532230049027555,1.5263637160733627,-0.049015705679153296,-0.08063786068642874,0.2241082508273846,2011-09-26 15:40:43.551805867,0.109982976
49.00997415478734,8.412095428703564,117.66732082301027,0.02818084249114098,-0.0199201771982172,11.498637908789984,69.47499549510742,0.4661027436746762,8.159547093590188,0.41261112440359965,-0.11550728634633096,2.58786392568879,0.582085274090172,10.374337988878194,9.542258374961577,-1.468434829194507,9.43638089382186,0.029266317047948538,-0.07168194235765707,2.5357505863275613,0.0647051455835817,0.14615513315673262,0.172198441476077,2011-09-26 15:40:43.651817589,0.209994698
49.00885844600639,8.410926939981504,116.82753731784486,0.058798652524077934,-0.11376530170341086,-4.248656707207964,-3.896239740471124,-0.5380283469308871,18.231131006550637,0.03283066938370128,-0.030661675192332625,2.8048859966207362,1.9693260164340938,10.416895138577075,-10.435917378267416,4.6892642513040625,9.763213157400957,0.46628228495504853,-0.012125572469180931,0.09892906051105735,-0.010897100180815522,-0.05000588121507919,0.9260349915661985,2011-09-26 15:40:43.751845204,0.310022313
49.010007278644665,8.413344071240447,114.79946233750204,0.10198254668707372,0.028953901056870124,-1.1548242720373203,15.173364379991282,35.79596353375368,2.9705001962873743,-0.7779056204298596,-0.10726268665952943,3.2154633063559377,-1.0997525315992847,7.424191108271597,1.97678252667692,1.369591295600645,10.964863577313313,0.04311637169906576,-0.4216033998030128,-0.7367898730065239,-0.0021416116055977936,-0.03955288012469164,0.2738069968522854,2011-09-26 15:40:43.861827396,0.420004505
49.01071591939515,8.41610305095528,118.56576527535849,0.048099057825814445,0.13409291466775602,3.310507026487861,54.65731125763602,5.360716065415328,8.238068603740938,-0.07517381524717877,-0.7857690034974693,0.057213371874550445,1.497106361569717,9.697317560012962,5.460620789885583,6.078284902050019,12.867926535499247,-0.3397868376633842,0.06786788044600822,-0.24000661354674238,0.01681671831219419,0.016517210525155167,-0.031007857541924977,2011-09-26 15:40:43.961896217,0.520073326
49.011417054962926,8.410699012925404,116.90168314756373,-0.04655344584218247,-0.017711951392463704,-3.688410440282727,15.978027217900777,-15.088570670539758,6.424292645014689,1.3204776767269557,0.17327422361248507,1.1753332461744024,-0.4661908686520654,13.085393734633353,0.6430587501817002,12.136375732483053,8.39654432116205,0.47102617958296683,-0.08773171297373233,0.8016549969520038,0.07916322669284845,0.021573563059115963,-0.013498729184622825,2011-09-26 15:40:44.071825584,0.630002693
49.012491516762125,8.41169865727906,123.10727791919098,-0.05214742627023659,-0.08201697629068334,7.118572762871748,6.979307223860362,-7.636225062477814,9.22884855276064,0.30188821851652653,0.48699423292209976,0.13202999072392718,4.58198417213676,11.322343035035104,9.104353811656258,-3.164336947825796,9.13737055646336,0.0043913140226195906,0.4018556045331855,0.02198459830661035,0.07648148674635015,-0.06921753346370063,0.6294902719151317,2011-09-26 15:40:44.171917822,0.730094931
49.00617750230064,8.425376187498054,117.93129904017744,0.07251590931567224,-0.00836228650795601,3.7872814635956553,5.540072586415127,-7.361909321640063,8.91974223863464,-0.04127658776352313,0.70745945847488,1.141976628900108,-0.2147355420548696,3.678078456629006,0.46462487538925246,-0.4817045680149223,9.090521227166079,-0.02192863151854438,-0.0852856846573545,-0.08820743434866501,0.024789856875065082,0.3163163845908393,0.6701650165078598,2011-09-26 15:40:44.271894585,0.830071694
49.011122351630235,8.40730788814421,115.60866407737029,-0.11593315870206826,-0.012943040367605262,-2.5296348401327187,55.452488323853665,-2.179346095008637,12.24214455958461,0.3815534610801693,0.16579449466285906,5.350587393443669,-1.5921951556499665,10.291823240057198,0.8927155607019677,0.5886786331247458,10.41367211705186,-0.011423968761814889,-0.03361818341458512,-1.4653732244582753,0.3718676884179106,0.13787424968518647,0.35392835798909505,2011-09-26 15:40:44.371810112,0.929987221
49.012339616003025,8.409849339030496,117.88103788819606,0.10643490996390328,0.04014670029130657,4.168772096599862,3.428690442532904,3.34618773004296,8.198282954937607,-0.2096497181013517,0.1787036236855544,5.8507215235855945,0.40880794885357136,10.94257364258692,7.785421736045715,-0.4884471440530026,13.048449242164638,0.034420717652710826,-0.07674569964254957,0.08876731390821499,-0.013543265934617944,-0.36264792486783515,-0.29623559021187196,2011-09-26 15:40:44.481821827,1.039998936
49.01070499272257,8.4146464376794,117.25734840854354,0.20357816085914343,-0.07102406384025846,6.758999267326974,-2.7002913044076466,-6.648941293036463,12.728960015630719,0.10334974776532965,-0.12148087301801816,2.2734909898701092,-1.945041649817103,9.41006876122908,15.81046298754618,-1.0821941390504046,11.969784347714045,-0.02363743931044477,0.08271881227612526,0.5849135046007075,0.029928879177869933,0.38220278599910207,0.585443934973712,2011-09-26 15:40:44.581823088,1.140000197
49.012625420900775,8.416628150022412,117.38813519815035,0.08316515907168776,-0.01873025077308463,2.6895326398512367,10.205463816652045,13.957350672965877,8.823472919943136,0.12598969366478296,0.1158331493213185,1.2149936873430827,1.397750749257702,9.733885012409454,-0.24608489752514917,2.060004805762603,12.182272215372123,0.20718564504481554,0.08286353966979687,-1.0224144498196928,0.31687475034020934,0.0184372892425802,-0.6663055076049277,2011-09-26 15:40:44.692011047,1.250188156
49.01479624527037,8.413722780839072,117.17791049617124,-0.0019557148515952152,-0.026353836770705796,1.4720053741768497,15.868996349144865,11.252195754324564,3.0874213917089994,-0.012106779261386633,-0.06875821258593195,11.012620229723353,6.867455289542081,7.6039797146053925,0.40774700636892114,-0.2832747238720156,9.570261099427551,0.09678365015805054,-0.5941572340140711,-0.13127039847128352,0.0034110205696959058,0.012993179219380046,-0.050299630927817224,2011-09-26 15:40:44.791805903,1.349983012
49.01089114648794,8.414614149650326,118.67983037008712,0.010469444451855128,-0.024528140251132802,16.97087288697681,-0.430964842979761,2.9038481874543924,-5.808601581230933,-0.26872132792467684,0.18757517009051178,1.3679861848987853,1.1936431123905136,10.11743953519933,-0.4973464746832023,0.2567640855922134,10.73340790001201,0.01537026675053358,0.01954550759500869,-0.24034895650624327,0.019292788501898268,-0.08258720285039149,-0.5380283461619227,2011-09-26 15:40:44.891813092,1.449990201
49.01284952178098,8.41528245879594,118.12410352702979,0.09987278280663825,-0.028191257679218172,5.6943393927398205,0.9918244161120393,-2.0136797520966523,26.806676961368623,0.7351232227819264,-0.030946050475898462,1.402483586718942,-2.1243898255972495,10.016192219407182,2.0522688280222683,1.4456432465574403,10.182286551959935,0.1430031019232307,0.014092352074545855,-3.7655295631277568,0.016158221912507518,-0.5367979173803074,-0.129565711868098,2011-09-26 15:40:45.001860833,1.560037942
49.01415406923022,8.41185582888403,116.31092845990185,0.06781775547587365,0.03512563662024654,-11.128493218367383,4.622165329878805,-2.517830561011382,-22.925518631993683,0.4764016582773463,0.024948933559792885,-1.3227452726290336,-3.420005479068228,10.660017898568217,0.6257040042693031,1.3707070520122906,10.1968835245306,0.015555432347428134,0.1155572541322638,0.34138534473550586,-0.049358066683026836,0.053353879285480514,-0.4576706673477229,2011-09-26 15:40:45.101843013,1.660020122
49.011975416000396,8.409377522641115,116.95985642068113,0.010779225452857265,0.016053502372411106,0.5201762598610588,4.849597427886721,3.722093919252842,-6.31217650177752,0.14443314489812012,0.2906708179021133,0.29182474330822883,-0.10756441202482059,10.754263040122357,0.5137624501795122,-0.7057278783657178,15.089788673039134,-0.01854401660734268,0.016826126482156797,-0.23046401220559795,-0.31437620187386184,-0.06583581528467009,0.09190848591288402,2011-09-26 15:40:45.202019634,1.760196743
49.01187792237613,8.4134522950818,118.67084052798131,0.039781972177288995,-0.17508751983137902,1.2860956601309854,-7.24965898616751,4.047838099707272,-24.4641807681062,-0.10650579161400843,0.26182173948856047,0.052803029746121166,1.4475808643869534,9.831283723467791,-0.48459470870101795,1.6984079345572898,10.048918429739045,-0.026725266450124737,0.0022495830597367844,-0.13730952710049488,-0.00016581899904280495,0.03683908738902042,0.37609754497449055,2011-09-26 15:40:45.311837869,1.870014978
49.008981613079925,8.413271819868045,117.93394806994263,0.04962091928644879,0.036272495448472365,0.6868133993405919,3.9106967114032116,-0.5936429810816363,11.458781289789002,-0.08588970666274424,-0.26552945926211063,2.883869352597722,-1.1083607576632273,8.761374093252739,-2.379191496293101,-1.1678494237255856,5.872412496501088,-0.00933441686421775,0.0456241382738381,-0.8874490921833635,-0.06093419149383981,0.12561238853000464,-1.7887257038557085,2011-09-26 15:40:45.411869871,1.970046980
49.01237381489031,8.425225555920592,118.32566848284335,0.32236933743253876,-0.012591619794092117,19.987632874481232,5.015268175024073,-0.4713007780264338,21.25801125718923,0.2243704556787128,0.17929902161246328,0.9398333648689113,-0.5502094469010157,10.153271841688802,1.0040576762579922,-0.057480755581565235,7.425561852176397,0.01494075883038275,0.0419410729416611,2.0851674787489087,0.05355226655642459,0.015093215530074928,1.651333296469588,2011-09-26 15:40:45.511889228,2.070066337
49.013486780282484,8.409472333023148,117.34537865313864,0.10312598209303692,-0.023691817812613453,-0.5482615210016002,7.558527761268837,-10.44143811495809,13.999719156736429,-0.08356817904471188,-0.11656336889365987,0.5207277985225209,3.603841917376056,10.26946744374952,0.9895362600901345,-0.9251607742056622,10.622502756632095,-0.051653516905105515,-0.13899316626511812,0.5009390773673196,-0.01335558853450296,-0.03193260643899306,-0.08634556732701548,2011-09-26 15:40:45.621934015,2.180111124
49.01126339886156,8.412368230538963,117.24368249023743,-0.03463913614014608,-0.02398259672009262,-0.7652249544069134,4.827122478120591,3.570073824551924,10.410896511914558,-0.19217969956971176,-0.014286477542389264,5.117079439336183,0.4883575143985671,9.959406605008915,2.2404601956746317,-0.7626439370257305,8.670219073834758,-0.03926483541372686,0.07385618387118956,-0.23898486176484834,-0.043449942468178376,-0.029199550313630564,0.48262323734995377,2011-09-26 15:40:45.721959257,2.280136366
49.01141305826196,8.411890474580801,118.96822648497846,-0.015062947832494733,-0.020272122160502996,5.130093738281007,11.91120262396636,32.492738810850696,-4.92301850806762,0.14826531522628678,0.059420253154565957,-1.0018833106006946,-8.638231471990254,9.695224684634173,5.227834545725893,-0.18968694871793942,10.897531164623846,-0.11389042569042249,0.07282438489162127,-0.4235696073936495,0.013140283007955765,0.05066024279346595,0.05084262753482769,2011-09-26 15:40:45.821924214,2.380101323
49.01260709660952,8.414186635463892,118.26325594504817,-0.07990980478874066,0.051315404409142576,-0.5636049871149065,5.759692294330241,-7.4833728196422555,8.193373405368865,0.16758256417874287,0.4138355232104472,0.5774054982945667,-0.20091578230838275,10.228640426935835,-1.6432323800479616,-1.5135349567394825,9.788925458817321,-0.2550633242926615,-0.05489252648142705,1.3057356310461448,0.14940741935740898,0.19980110146744545,-0.1717237320283664,2011-09-26 15:40:45.931949290,2.490126399
49.022864752737576,8.41310140860791,119.2383270318403,-0.03885351160332864,0.01288175990482375,0.8879534527467354,11.1975916739769,8.147304473709976,-3.317666723520502,0.0036993934458326855,0.03390598574934149,9.714285169409736,2.1444402145434394,2.0372342040366203,2.8343295008119003,-1.5518337232943074,10.022660090367548,0.09589010670890949,0.05232401100580329,0.370931438218678,-0.04999816782886833,0.05291535916724459,1.2897367212240278,2011-09-26 15:40:46.031928056,2.590105165
49.01088019296013,8.410016057368345,116.65936274767317,0.0710745182204799,0.026692389441089884,-0.3884837487415358,6.430835819003747,7.111023196404817,9.440216755224686,-0.42905127703817086,0.19960371409668254,0.25084603996950866,0.5263763526728964,7.4102106101629195,-1.7371785677715825,-1.0710879973235423,4.670788343258639,-0.17197838573246466,0.020683220575218687,0.11124596161090777,-0.18805482173142912,0.033890608482215576,-0.13417689763677598,2011-09-26 15:40:46.131947830,2.690124939
49.0116553917229,8.410027037402587,116.00897148317347,-0.04468935060998066,-0.02444085157650861,22.726910697357248,2.979877318246543,1.8031895130725966,8.188773301955141,0.3100150777096634,0.3063109645214214,-6.088376846400525,1.6269694341981666,9.88375389722197,7.473744355785085,-0.37862871176402274,10.548133044380126,0.08410414341303217,-0.04193674393466281,0.35860019276665356,-0.009831485612071622,0.0039433146555824024,0.07964647063637305,2011-09-26 15:40:46.242074755,2.800251864
49.01346996230101,8.412769843271256,116.3144290038395,0.09908105115067031,0.04464785510306485,-8.24096717338378,3.6123028940521116,-7.675741403802519,13.876880069816394,-0.07980647586418843,0.09139010448040363,0.26326935881666425,2.0815268569602274,7.048586798919759,0.2973357584500921,-1.865204624418718,10.075405231762062,0.01979031133896564,0.04888514081540256,-0.7133627837040132,0.04209611653368714,-0.010014541633745214,-2.852121851996771,2011-09-26 15:40:46.341964026,2.900141135
49.011906221310824,8.408345629312835,123.39337358350443,0.07068264318565472,0.012099983283699258,4.205902594915484,19.995186211183825,-1.5354207316165782,1.0726389413985977,0.19164229121856136,-0.14195535547983795,1.4338241089673744,0.9175836788311619,9.389537223457175,3.734605131821119,0.22146684656869337,9.118952412679102,0.015918546150965246,0.07883835548605568,3.247218348383273,-0.03410877636000474,0.024582691867173337,0.5213996865078616,2011-09-26 15:40:46.451890234,3.010067343
49.01060108887964,8.410856758593894,120.01446671172593,0.014131484025132705,0.005850227302471861,0.16646755847671657,7.47687951625537,-4.616438587940239,20.03440352922741,0.18985530328061678,0.18769953706764148,-2.1061262348922902,-2.4640641198271047,10.552577899173604,0.3449651412699991,-0.9483737986262855,11.312703643689515,-0.23632451072561025,0.13971891421988217,-0.21047051606978182,0.07421383672743105,0.12143867757304307,-0.031122193641806982,2011-09-26 15:40:46.551980924,3.110158033
49.010968238944095,8.410705857057671,117.54680732859522,0.07341499677218477,0.01924942780754654,-0.5596171924903905,-35.17369678832209,-4.908603247951587,14.788488177025055,0.08354389444328972,-0.18371478352831966,0.9464066398101917,-0.13819451074722378,5.929778040679442,1.4215828695010393,1.8347984512615976,9.298732694763457,-0.006240573671998036,-0.8201458875287,-0.701339160292135,-0.045410782313604195,0.1112021201928704,0.9919389683760894,2011-09-26 15:40:46.651983925,3.210161034
49.012500916415064,8.41753170658163,114.887441717135,-0.019977041567998545,-0.38052833148805343,3.9507274099028606,-6.479636930451455,0.6306452623617032,9.300010370748298,0.04263931710348525,-0.07980140898765344,-1.1382791121404172,0.6345956480583801,10.198597238293212,1.0325855623417866,1.45446487880914,10.377548296816782,0.023318858805127,0.02190584391998633,1.349497708161321,0.020275357791744338,-0.025957395899974128,-0.48799050139547556,2011-09-26 15:40:46.751996236,3.310173345
49.01403301208965,8.408214945539417,118.68112792117083,0.010265173041821365,-0.20987584522830688,1.2342584209197833,-13.581119136404187,-1.1850528370080675,17.174641377963088,-0.05768298249410134,-0.09935199310586443,-0.11122954201339019,-3.9525530186007187,6.126859323230838,0.2529762659997479,-0.5147252006153736,10.780367515958282,0.07647134953628851,0.07085707277779102,-0.40821883145826254,-0.05965006722821225,0.04618307458869959,0.10125996262305957,2011-09-26 15:40:46.862027067,3.420204176
49.01066287082739,8.414951226761609,121.52041065030832,-0.03453522171299641,-0.013005964475968034,5.050836414784645,-10.413922022552107,2.0942605641377967,19.153673603489935,-0.0010192508899169103,0.10648526652301568,-2.6920267166705867,1.0398904292433797,10.72551126409692,2.328428616748326,0.9326236187657773,8.717096009851522,-0.056699934230600824,-0.030525125949207157,-3.6293959547642274,-0.38638002317501735,-0.874788821666959,-0.45468945299569496,2011-09-26 15:40:46.962003225,3.520180334
49.0110742807063,8.412973923225447,118.4873315277927,-0.005176776733708997,-0.09340316378023981,21.4132311682069,-32.75745312098552,-2.771171405151398,7.563571151964503,-0.024719289591840797,-0.14053661681888213,-9.128663786188676,0.8270577205187166,6.173538243396554,-0.19960709627670503,0.23327548203722945,19.287562602067162,0.20874190648386867,-0.03959601398050082,0.5871676335275594,0.06871694936172446,-0.05878387655444716,0.49363210454728185,2011-09-26 15:40:47.072053344,3.630230453
49.01126769439132,8.41349824424128,118.1649300167344,0.03730836010336819,-0.01937982688325827,0.5028717582018841,5.62969511810352,-3.912408818896193,13.909017904516167,0.6279829004933604,-0.10241774132158399,0.10299666512749542,2.393253606495785,10.723451596292225,3.4988005810629716,8.955116308660854,6.906693047462424,0.0464849122487182,-0.09819179821463844,0.46493918326132677,0.007704188962069678,-0.10402663540284117,-0.3413147012661485,2011-09-26 15:40:47.172048973,3.730226082
49.01574122037355,8.414345695731464,118.92742276217852,-0.004799550897832967,0.024594281257157385,2.2129769438267304,15.926278124619643,-4.172722789994572,10.216019302852837,-0.0656272126448719,0.09698459155817521,-1.650262870340044,-1.2530675852435111,10.738991854956154,-0.13906343844565633,4.1102257429203775,10.313649138006268,0.007629787453596295,0.04230209284362688,-0.4474583444870186,0.11385916106183974,0.022090468226611062,1.4676349528561117,2011-09-26 15:40:47.272149532,3.830326641
49.01150550563735,8.412844210771507,109.0353497025125,0.0027761212173087954,0.0008319965221600814,-0.7342503105189515,-9.663886804155858,-10.633126270282702,-6.04524705738963,0.13352670087060364,0.4589704325803875,0.01465585717450446,0.030979887290753516,11.242628466574534,-0.6810626138764344,3.216519398332394,10.85336443356973,-0.07873787997175105,0.028837243958055016,-0.49358463914817496,0.39686929568661117,-0.07599188915659867,-0.5271465047068205,2011-09-26 15:40:47.381935524,3.940112633
49.00583491144162,8.411616820128183,119.99272940306541,0.052827654038144295,-0.04373677164485773,-1.101268419317145,10.127692596988828,-1.8119078926876973,10.097461454967512,-0.23800887660861714,-0.7418214098198609,4.486828216135415,-6.98220911364334,10.840857997259612,2.4015746611907227,0.12093547154426582,9.186832976944938,-0.0273029257342913,0.009606903826230745,0.3502924872707161,-0.02358644635572469,0.07331264246605933,-0.2205581593663415,2011-09-26 15:40:47.481976793,4.040153902
49.01246547422422,8.40561062040487,118.59851281895632,-0.013994991744105623,-0.0009365676677592284,2.70973846854897,17.223393692743347,0.05430837540244915,-0.8253358666568076,-0.09427888532352421,1.9802234606205251,2.480587155323783,-2.7910773474687245,10.030359603741513,0.02538675803973245,-1.5575863327102226,9.122491896887741,-0.09554290136705851,-0.02238304006184598,-0.07485541077825787,0.036711343262562056,0.011006544197895107,-0.046711682904004036,2011-09-26 15:40:47.581947642,4.140124751
49.01021819261148,8.407353461364462,118.61835846409996,0.0722016038712732,0.031192422606582025,0.8614307008381831,9.934285990783884,-11.815658275830977,9.153903371358204,-0.1345462445383501,1.239576668311074,2.3621794097610014,3.126663762313537,9.250273087877558,1.6691402270950193,1.7014974287637545,9.21007474345403,-0.0001714276211646458,-0.0025666059180160725,2.6830018825304673,0.06433990888013089,0.10567241921458602,-0.04669093196321666,2011-09-26 15:40:47.692207410,4.250384519
49.01740951673439,8.41044012081342,117.82284679800875,0.04320475664579466,0.006972768036605346,1.124211658858513,-0.3237578947393205,1.2180851652097648,15.377354886574373,0.09287226558108386,0.02835989926108825,-1.4779394935117638,-1.8513563672881947,9.75809774677018,1.0297861393137584,1.510730347520153,8.821962369558024,0.054687809221511896,-0.06574565527569158,-0.13632892897747725,-0.02268712328337462,0.04091994147241731,0.0012091594336290559,2011-09-26 15:40:47.791939729,4.350116838
49.01295774177273,8.42390328186263,112.20586844802929,0.009720974435752611,0.11686865196239421,4.4849996162232175,3.2503785900887925,55.04231868120556,14.176468813951479,-0.28805973236216753,1.694476647547247,-1.8793189266936599,0.5111737999452272,9.131137613446262,1.0059065191297833,-2.347992693401294,7.774175237629127,-0.0676701624912048,0.07684493634560195,-0.5253619077278008,0.06105814512091232,0.5686124395423263,-0.08565199051115283,2011-09-26 15:40:47.892001495,4.450178604
49.01209713144419,8.412282596582251,116.52188027178039,0.10016481014919867,0.029813944594914488,0.7694029300063734,10.519412413216665,-5.5852858167988835,16.55785290899627,0.13396330531344303,0.1881629912423333,6.2574935642389,1.063247670165747,8.939435905500993,-2.2478409953043275,-1.6141833427272427,8.961997034802366,-0.002814138506969755,0.06433977872037634,0.10804210651351977,0.061920156105820565,0.1434586385992789,0.09561496678373108,2011-09-26 15:40:48.001979787,4.560156896
49.01203695510025,8.411757934783893,116.57067592810016,0.11709709777599775,0.0037043324607062135,-0.23520353408795858,6.564813850126873,-11.402941373015148,10.50675846067117,0.07885780484008313,0.38694485972329434,-1.3503338543050523,-0.858082440801569,9.573601918475397,1.9211426381604082,0.78555559997405,10.793645076236192,-0.019827576299425775,0.006989590838105183,0.16279549904417184,-0.03805011738378643,0.07732617153062608,-0.5090774925122039,2011-09-26 15:40:48.101969730,4.660146839
49.01205360599033,8.409301116651331,116.70305629451693,0.07928887418044528,-0.13117457377035355,3.770848342713269,0.07406887648693772,-0.9194112606139841,3.3140779262967754,-0.05491567425588802,-1.7371714845139312,2.50298352479263,-0.3243411163170782,7.096197775183475,0.04763186625361368,16.517162651601062,9.902302377803045,0.0422609930349093,0.03410579575691636,-0.2505898470085246,0.025854352375460486,0.14827187430491817,0.052172785895416754,2011-09-26 15:40:48.212149871,4.770326980
49.012310785853664,8.407285629432314,119.68419143972872,-0.044232177783635945,-0.02867248630611475,-1.7495915142432634,-4.867927239085673,1.017980666135684,9.488409006753564,-0.21271350639877495,0.3458642031047768,12.20666216691189,2.7600179421099935,9.625513872720505,3.9787358676341493,-2.455363208812432,9.207898104717131,-0.03643367745256788,0.32439468067671495,-0.5041775663869638,-0.008009586301058778,-0.05181077391399454,0.19424341661297184,2011-09-26 15:40:48.311952426,4.870129535
49.00960574648893,8.414500525211857,116.77789413378227,-0.06557681606194482,-0.03900782000120184,1.570542049108891,-29.696610919305705,2.4133826185483755,2.4680690231183675,-0.6276658357513252,0.8190189513959906,2.171975616520271,0.028945387197476358,12.540581268207989,0.27333685322352363,-3.6054319894836944,10.292273509219923,-0.04008144241343235,-0.03282896559262391,-0.45773040571008466,0.09731575252975389,0.009695354792718318,0.10542389756568306,2011-09-26 15:40:48.411973216,4.970150325
49.01119714273813,8.413119336714164,121.2288372077616,0.06874209915790572,0.009064796425036437,2.1388119283642433,14.341771393815577,-2.777926831004554,4.830024288993799,0.0048566929909835965,0.028952223795384112,5.843067801868234,2.4836707339584705,11.200004604921418,8.289975474541599,2.5518308375189607,9.498238935869997,-0.22845405026143265,-0.06984089834043584,-0.014269382017619604,-0.3533444853040922,-0.3106282809128091,0.1387773995876482,2011-09-26 15:40:48.522028978,5.080206087
49.01212646901938,8.413000559484933,119.11459552833193,0.08093450429627175,0.008211873292249306,3.432141525467395,-4.70617923013819,-3.2700200152644645,19.445743853087208,-0.11867763188387066,0.287705649950289,-2.803238136762173,3.4916679448736865,11.125668678907001,-1.351705105883288,3.4761544931790507,10.154883257140936,0.018528798101140657,0.12766350281895736,0.3194089564808412,0.019526546867536743,0.12027702869658434,-0.21738724303784157,2011-09-26 15:40:48.621991686,5.180168795
49.01341199317276,8.411439630950703,118.80973226235585,0.3478283214541093,-0.05958878853584525,10.530950102029479,14.402287535352613,8.282827974104382,50.61659878451617,0.3795986090985156,0.08566488320742686,1.5306148865856137,0.3651531645866646,8.981017174089432,-3.3964397082159494,-1.213029041295627,8.742645834090352,-0.017311928937128185,-0.009785718600760676,-0.0029929768292224455,0.07087833712206537,-0.01870015846318365,0.34439668445514904,2011-09-26 15:40:48.722006637,5.280183746
49.011973217280264,8.41761150865328,119.13524513038263,0.30108930797881894,0.003648963645495528,6.630715334688794,3.988521986894557,-4.921585153399313,-17.581470646412,-0.20804776306372524,-0.058109240391657394,-2.616999334247657,-0.7050659663262004,10.049122026051924,-2.6598176959810087,0.1331935564569138,9.546273209891718,0.01865078106998401,0.09686843605429361,0.31029562068196204,-0.0562734236636186,-0.05491900362615519,-0.4432283482445168,2011-09-26 15:40:48.821996417,5.380173526
49.01569909310084,8.431406227968065,116.6921389441759,-0.40163429038687715,-0.035132114129654106,1.6365203932705108,88.53116527807714,-5.812806302685857,-5.810476487569006,-0.1013507781795645,0.6445580257706782,16.57629306579543,0.7592546781080094,11.454621543272697,0.9502560503921222,-10.115039189727392,7.852961526610829,-0.03374929196777372,-0.06631981629690357,-0.13129663202482753,0.0495933559938711,0.08110395030295907,-1.3212916864922906,2011-09-26 15:40:48.932021547,5.490198656
49.00852009006558,8.415739304833822,116.13693157096374,0.08881798379357524,-0.08606558471419933,12.984339435907673,-3.669200164292426,-9.3125544355089,-1.9227278368034844,-0.022431690852224684,0.08299546725155088,3.040361902032408,1.2257737139492308,8.832581041719077,-1.119545668127424,0.7960524644161808,8.445706687848796,-0.09287343938903712,-0.02074204126899986,-0.06418423649693497,-0.05524059841209322,0.0649903562790501,4.652485151602062,2011-09-26 15:40:49.031999851,5.590176960
49.01314340907949,8.414455725828372,120.98850942826618,0.06451655530533515,-0.011687008811583938,1.946437563413717,12.008797100315117,32.043089158821196,4.111650169650385,0.3890220959992743,0.24444253504341548,-1.5804961994809976,0.3590243204639205,9.085803077057575,3.877998704527478,-0.7956930034945034,9.497075124974033,-0.4416635509876896,0.023176144261842863,0.30368797283386256,0.01950099768177774,-0.20876274605898795,-0.2762389738309049,2011-09-26 15:40:49.132099410,5.690276519
49.01380962044753,8.41110369887833,117.18682651238123,-0.012459409814916576,0.01980211042918988,2.9836239788591614,13.207018088174745,-1.399092883106416,24.49098277069393,-0.29428527789997083,-0.04811616137673097,-0.07244961774491179,7.32717915003179,14.062629014757082,-3.6671053098490223,-0.8797735123972239,1.6797835661968978,0.08456463174016592,0.0009602460172039489,0.5734362051349906,0.02073445996670989,0.18910168144382092,1.9769595854174615,2011-09-26 15:40:49.242145825,5.800322934
49.011778398695526,8.41257540056247,130.28071489185595,0.05853911580996032,-0.015346981953578765,3.9273331495775397,13.606813713828142,-2.822577575755333,5.127398396650868,-0.0695878039069967,0.4859149070968843,-2.0126663305739405,-0.515253123742316,8.312772319533062,-5.936756974871942,2.938542303097315,10.585210971967964,0.26925195289394205,-0.27028120781062925,0.5182111291134428,-0.20836061658643,0.0852440067275537,-1.511126610639291,2011-09-26 15:40:49.342017866,5.900194975
49.01365667559551,8.412557348888754,116.43254592533793,0.024297452083020723,-0.03441945287980593,4.979770564241889,0.2615223023206985,5.133791081752895,11.262059311999002,0.2752696397629529,0.07970026369044109,-0.1591110146061584,1.4616896613752524,12.034102820312606,-0.202615714368739,-0.1857105385046872,9.84928646730895,-0.014872283801392081,0.1167283719766623,0.004631063540234671,-0.011199987528300306,0.05513563982346249,-0.6951975319626711,2011-09-26 15:40:49.442023858,6.000200967
49.010319569394824,8.392907633981876,114.67507190842683,0.04009481115563447,-0.05430087423933343,2.4734681307948296,-2.0958447167972203,-7.888286653780376,-1.5051380586046639,-1.037093486521745,0.16917097573712103,2.4825677432514093,0.2954729713305992,10.295977294652902,0.34674217607512137,-3.466545283459257,9.50252468491804,-0.040066244772029136,-0.07575992550952008,-0.6501077951986626,0.016262351953683807,-0.0728988483004236,-0.08774171810095334,2011-09-26 15:40:49.552023407,6.110200516
49.01148582338342,8.413357823726896,118.05963549973694,0.004341968298818617,-0.03172962096425459,2.073576429133605,5.234119416712086,-6.3647148298043,2.089231376623043,0.04460196909680427,0.014072598982293169,1.4868355282267307,1.9426926972072396,10.028566917340793,-2.1909301957647505,2.0323944261906997,8.70119453617687,0.06663744170656447,0.1486391280525765,-0.6169334169709915,0.011781465386805972,0.04060649869833885,0.1762004017636412,2011-09-26 15:40:49.652099550,6.210276659
49.01113627835993,8.411601077198725,119.63263868399667,0.016986002928659014,0.021511427914918807,2.4721349707455147,72.27347827107933,-1.138064648972279,9.781680787328312,-0.03180264471552827,0.07226711153798172,8.67174241034212,6.950520979266278,9.616391410438764,2.0274555072465703,1.460450675027257,4.495632874612698,0.006771022344655254,0.1582465218139277,-0.4503123053716039,-0.15058634242980076,0.07148210390023842,-0.007992165287315327,2011-09-26 15:40:49.752068730,6.310245839
49.01268452067861,8.40965780831668,120.00991602102094,0.05112370026539433,-0.06398277417326734,24.8813509540297,27.66365947347112,-21.142666481892416,-1.1070603633418301,-0.030080456426693276,-0.028350091655348273,-2.8838426666178982,-0.2620460381277281,11.87604479954057,-0.153158031119279,2.10708168096827,10.910955937635855,-0.008938322921583738,0.030129546565154364,0.18443889051818627,-0.03610204987967449,-0.3622446350795667,0.5684332880597206,2011-09-26 15:40:49.862046548,6.420223657
49.011608047477594,8.4122867083099,119.59037348559905,0.07212607100442862,0.031236275935955453,-1.3765851588421794,20.416424586407427,-11.136893782609597,13.914939854820213,-0.05545783803645637,0.049624236464016154,-1.0318284428537652,9.09781677668932,8.466691279233032,1.7793537694180293,2.2274995649696727,8.947016190042728,0.01599970216207871,0.03140885834277907,0.8564089865575157,0.060000579335212446,0.46509159942551154,-0.5666445094461073,2011-09-26 15:40:49.962082430,6.520259539
49.01268660268742,8.41629302176226,120.1097460058071,-0.04477181111659727,-0.005828020497071255,-7.272335736835869,7.433151348885329,7.952288197981654,3.2145715621832673,0.2755315659046022,-0.1336042541726551,0.3998925517077608,2.2830340216526963,9.42673377848536,-2.7554878372769087,1.9259574654930702,10.696127717436537,0.025074169700406154,-0.3030765092909717,1.4375623269558109,0.10403708910027189,0.13097589213311944,0.056684444305604695,2011-09-26 15:40:50.072205654,6.630382763
49.01255770579398,8.411827429190273,122.58393865698392,0.045495758522144575,0.09959867758306554,5.351472091422011,14.350605537943757,25.56782387302638,1.4919803288478501,0.1859824236539383,-0.020576251970604253,1.250284052129567,2.6846383842557824,10.485879549193438,2.087142760694053,4.124411617954466,11.117182979769687,-0.046843364928362094,-8.917657182122389e-05,0.22252212314285397,0.23459228832522455,-0.018846660134120695,-0.7414907823860195,2011-09-26 15:40:50.172188742,6.730365851
49.01068651804255,8.426843676522688,115.16920693961052,0.017422219939836718,0.15497099339204676,-1.0137517621340695,3.7493040758254597,21.36375762070737,-1.1162137051695389,-0.08525542537779937,-0.2972209190843733,0.9823963472075261,-1.1582814837593756,9.099272594337668,0.5843573526762441,-0.20402676269846023,10.460011178962297,0.3007662158633485,0.013063057373412979,0.15898915599839739,0.01569730228245041,-0.13875362410633935,0.2267650278596142,2011-09-26 15:40:50.272156269,6.830333378
49.01090652200962,8.412129807341339,116.6629197191022,0.039915260041888945,-0.06916147300476637,2.530089349964492,-7.044641320467766,31.253694110704792,-1.7760381901166271,0.26557798134207744,-0.1296091787262165,2.560626565705883,0.07104848814982967,10.490519725448182,8.740731262544086,0.4429646159128551,9.030819535864149,-0.02727502510645523,0.14338132699021872,-0.06469455305217842,-0.0012923469764042263,-0.18116572638343148,-0.7246896922829806,2011-09-26 15:40:50.372297108,6.930474217
49.01145365495947,8.411150517723424,118.44289940961053,-0.13921781844338615,0.003608000006558694,-1.3556941599258743,2.7946794681335403,-0.22751868580129114,6.594383236191993,0.040453123915381695,-0.19077450628098028,0.5079895601046858,-2.3609043892258414,10.097946668679965,9.901132656168095,-0.9379226286767193,7.613104697636313,-0.01623498793337718,0.02107741757887774,-1.7239873855640746,0.05079290053957894,0.13112178243890737,-0.4401781638210352,2011-09-26 15:40:50.482135768,7.040312877
49.02090998348094,8.408401968353024,117.9544975784986,-0.38343048457724765,-0.0378916743834364,3.550497864269606,5.295389707423145,4.97991906966716,9.170301467930729,0.05511859745496108,0.03080105784887175,1.6631722086818548,10.580228513131711,15.334040149714534,-2.591992681545587,1.2741899039119338,15.140963047808587,0.05450494798405249,-0.07727118687301865,0.24243148475096185,-0.04684460534334134,0.11044901477900046,0.13246320151927082,2011-09-26 15:40:50.582147838,7.140324947
49.01265822755833,8.413414284395541,119.08535051679694,0.14280169881147542,-0.03468524356439176,2.674883581816066,2.502144687467271,-3.008708643725137,7.210044152576459,-0.07366456300717104,0.08686071516445422,2.319768909657641,-0.18181561207489827,9.454057070954862,-3.6228809841962772,0.4376947284806296,10.576797596581763,-0.048942284514218594,-0.11814361720143025,-0.05398475276061788,-0.011020499508982758,0.03668202125646093,3.0807771668452903,2011-09-26 15:40:50.682303986,7.240481095
49.011922013472706,8.409061652996144,115.94403806007864,0.16144606398269112,-0.017356326153272247,-2.08085550171664,-6.508328760564335,-4.964093543667747,4.81877344949479,0.05232266683666501,0.0746217855036718,0.47152216806937886,-1.1647588244901232,9.18275634933156,-11.231962175864219,-7.976574307011654,9.791205883210244,0.010973923806966834,0.09537438531629412,-0.19696131327738697,-0.06009199143051573,-0.0481795972514033,-0.42769804671652445,2011-09-26 15:40:50.792099415,7.350276524
49.020701297169666,8.412759310132632,117.78254366325679,-0.11859564791206594,-0.030505516413854336,1.6901044394725675,5.439040713856006,32.27509033192974,9.211143593170872,1.1808003532697615,-0.019224446193578743,-2.391360745398184,13.514790679531698,9.877261851412232,-0.9532624202286397,-0.18882469397087442,9.905500646731847,-0.029335209307188356,-0.03836323805765984,0.3188064916492852,-0.09720502291554013,0.1329304833188948,0.9182219785293242,2011-09-26 15:40:50.892068968,7.450246077
49.01374382368784,8.410367158998495,111.55897264461144,-0.026889349294582927,-0.022253461683547374,3.1250009922241397,3.4569394238262268,-43.102211993258045,20.488314430921193,0.1360697386521809,0.22686010379693647,2.3621450775101756,5.439441295555884,11.264187673885635,0.3441483978145027,1.09569641115409,8.335093951289824,0.041814527531521185,-0.00887097830471005,0.28565446837740216,0.00020343121144692639,-0.025189681390553807,0.15613890480720477,2011-09-26 15:40:50.992096133,7.550273242
49.01288964644094,8.41226131864849,116.57230350971214,0.011221222790651637,-0.03853686153994673,1.6270261626950366,10.17666521696323,-21.845966389658976,0.5151274201307547,-0.09802523751137074,0.07568506884131275,-1.149948487955401,-1.6931594219527983,6.974985015269313,-1.5779122651369415,1.4919170319292372,10.189829872456817,-0.09550659843991433,0.10856607191386916,-0.1626762700016535,0.023676503381336096,0.0629617908809353,0.19542541136177602,2011-09-26 15:40:51.102094222,7.660271331
49.01146257209083,8.408194417332117,118.8389475955373,0.042626510616961856,0.09876574063915725,-0.7498009906205807,4.4925716612714455,1.1332616740275765,5.437790763388621,0.8947506732703804,0.24195509352368133,-0.0732354900177069,-0.008790112103235465,9.81647102494076,0.28265424746480544,9.829207424807048,9.506291874227639,-0.008982074061077868,-0.03329424998627522,0.23131993514683052,-0.09537350039694642,0.0035392251906463685,-0.2123102067467551,2011-09-26 15:40:51.202308132,7.760485241
49.00906202473134,8.41495687713743,114.62512879383172,-0.048844451430666014,-0.06573906335651947,3.299483875704779,15.701629786359026,-5.053679187008924,18.543817016402727,-0.1699240454834287,0.2736439851930466,-1.3666608862989775,18.773656920032614,5.252776945481724,1.583951324562664,-0.36700761419781264,10.917848042069938,0.029488803362173736,-0.12662037939513338,-0.00030840063825145984,0.00874877227162918,0.2791052840775961,-0.28900223220120513,2011-09-26 15:40:51.312128328,7.870305437
49.011659393965864,8.411172987882406,118.05463730193493,0.003237987682605196,0.02771400258880726,1.5276474500836865,36.80528333800531,3.8965487056673305,-35.21819586528452,-0.04821624938958751,0.08189538363875856,-2.7588945609435966,1.8182232574562827,12.916520724324211,-6.577123684661216,1.343327618455297,9.422422613582784,-0.12968559804342167,-0.01172971645875786,-0.2363910922719139,-0.06698439127116737,-0.04862791122641641,-0.7867571370921297,2011-09-26 15:40:51.412116836,7.970293945
49.01432603368829,8.404596697443472,115.58826927456212,0.08001495299826522,-0.016277277748519926,5.885050388371023,20.100006818683948,9.715573005326535,-56.888005237805245,-0.18215045906869212,0.19384780477511848,-0.5014303673802162,2.065223097578139,10.209301820158622,1.9068284946625458,1.2116362213014056,10.64176452460079,0.0661277151212363,0.021802846478506558,-0.5606340411648952,-0.09054301451355595,-0.06573480303297598,0.1341628997067678,2011-09-26 15:40:51.512124791,8.070301900
49.011898534708756,8.410887038888061,117.64680169093344,0.11386780295782988,-0.0014545162612328182,9.969255154609506,6.840009230919222,3.3608788178957667,11.531131364192964,-0.057834245646102636,0.12101921080999359,1.8939149653565375,-1.328766825984814,8.900297726938136,-0.7885781367980883,0.30628957926799105,10.922432934841973,0.06038801253714015,0.2184766627247717,0.347241918014354,-0.4798850307476044,0.08363697512828876,0.035826695149338034,2011-09-26 15:40:51.622185376,8.180362485
49.01450036835323,8.421494195619145,118.28570111241494,-0.05977468850165304,0.017899980040936424,1.469831693650896,7.39281032051216,1.4097406359563722,9.520934575540732,-0.017694607021812747,-0.08949422247589839,-1.4371691919898004,0.4274074881278478,10.04801828202739,2.669629753150867,2.123616908220966,7.696368666078996,-0.037540588309214105,0.007158711631027645,0.2315842347908329,0.03227197808811879,0.16687033283543581,-0.07151682001384337,2011-09-26 15:40:51.722222136,8.280399245
49.015915679474986,8.412479854061976,118.12338448304169,0.3220326451199557,-0.05324169262863279,-3.9754041183629294,6.110633876339735,2.3925311387926436,-0.6362018374024041,0.3773560938184544,-1.3084415078340885,5.32571356090178,4.848425676000302,10.03616731056762,3.185638193068195,-11.303883228867067,8.546868885555321,-0.05721980839711115,-0.019081684715922365,-0.17185724722628803,0.2546565178849633,0.14155921252369408,-0.9710402194834068,2011-09-26 15:40:51.822167163,8.380344272
49.01346048235018,8.412652551974471,115.67063505251329,-0.03144047911136184,0.05297498868771536,-7.27775347184816,-1.1621393320337399,-5.385129102549301,-0.2883330447477972,-0.007681287739186277,-0.032777502676909084,-2.638641950860107,-2.4266627269800285,7.698247799596799,6.753436809928327,2.408327692874118,7.662783705038606,0.039833315446126505,0.1295670484567817,-0.5102622504765247,-0.01000846025977031,0.1475262096238905,0.41214127482197005,2011-09-26 15:40:51.932165638,8.490342747
49.01222025731429,8.412159550159316,117.25525673880202,0.48201388216251384,0.042560635136626716,1.4704041498502276,9.236413716434594,11.054388084835685,-4.9231553853614205,-0.06073268885138057,-0.1993959788560451,-2.691300266576205,1.6553025689134482,9.429983151623265,-1.4914756729920928,1.625700316272127,9.531813665587311,-0.08835299076863115,0.06861541205815758,-0.3156346861554473,0.0046965854911471955,0.06619641002681653,0.10000958845530009,2011-09-26 15:40:52.032160758,8.590337867
49.012126281067054,8.414085586237475,117.43461762335777,0.017037551457266858,0.0422242036259101,2.473579805218433,1.5958360639505047,4.6040126401251324,8.022483050336957,0.03190347138759837,-0.358917281807223,-0.22301447148795064,2.646084257175931,9.563773425180361,-3.97208629313616,-1.500404999298817,10.708492489068899,-0.03066597996920039,0.1602702556065916,-0.08976171776490585,0.15559544816233306,-0.20859759148411544,-0.27025054539197474,2011-09-26 15:40:52.132178621,8.690355730
49.01322192478762,8.396787968714495,120.36308589188762,0.01494483919369105,0.04187131323407696,3.053276033221001,19.382789899717825,3.1118522092192125,38.832989885191,0.19333091504282668,-0.5797220292712002,-2.4421308147300533,0.21910775163725715,11.277573784795537,1.236631148154733,-0.8604705219163121,9.329723125734317,0.14311996521039444,0.01811067368934887,2.2664743520905817,-0.08385470812241261,-0.02917233800654385,-0.3153318595269929,2011-09-26 15:40:52.242258597,8.800435706
49.014537916516105,8.405586149021007,117.67492984033497,0.04329127857612193,0.08120741869588255,0.37635782990131883,16.38183228159831,-53.34813172575376,-8.8593429310148,0.20817168119213272,-0.21063522172181068,-0.040239023244640196,0.021025306321661552,8.714611362674681,0.22976088924504645,-0.9180244966827356,9.722082783089792,-0.0005832197463398955,0.06865255356846281,-0.10493105616723933,-0.013390227821514174,-0.08095044909229696,-1.041310823304866,2011-09-26 15:40:52.342197221,8.900374330
49.01054692618179,8.410879444601209,118.19521980132012,-0.1780613612026079,0.002781876499875196,0.18293088457915285,4.102630569603796,-5.4814117328564596,-4.565970715584698,0.16577893679419056,-0.2618914410807109,-16.236638444554607,0.8807003303717779,11.38296680694913,1.6502735834848425,0.8858248730523404,9.570097918419142,0.15404214569848898,-0.11198969256737878,0.1840972246429357,-0.09011744118588749,-0.03714153665040176,0.25546199249166296,2011-09-26 15:40:52.442167930,9.000345039
49.01129078809433,8.387431720558718,117.2659967171932,-0.04069089830888026,0.04748159333059353,4.041720257114114,17.71663351457158,3.436617885253743,8.268916741261341,0.1854767771607524,0.020285145305655616,-22.092292465274948,12.794760658231915,10.411811605869525,-3.295988435595239,0.252927022589444,10.466289390587399,0.008391898895979522,0.01989902269405442,0.7062936041112157,0.022704401817323746,0.013378901477239778,0.06833125442894523,2011-09-26 15:40:52.552218266,9.110395375
49.01237787890443,8.414726415799292,119.03795866044429,0.11718890414210226,0.010393719347713076,-0.0009656950116248009,102.44491072057046,0.16416458720879262,11.255012282829282,-0.07589915107566525,0.35635898767402485,2.107181028906826,-0.25476698725393515,8.083273414889163,11.099944404120466,-1.0557158137538452,9.07412636733953,0.030006002545531207,-0.3649101966384562,-0.4077338354079851,0.43664194378013765,0.1141283706357738,-0.1254711195573119,2011-09-26 15:40:52.652200555,9.210377664
49.011842476266025,8.412194402816263,132.15015703005852,-0.04897302341505857,0.07971543525554098,2.5350995309827633,-47.075337474873955,-53.552979869991226,10.405924763926912,-0.3930636383557432,0.11772840173022647,-0.6328875594899013,-0.9362479187326687,7.614426886957455,8.68712773569299,-2.8450896826278003,9.061700779353547,0.021798315749234562,-0.7408561995160584,0.511973095628889,-0.10719186076952646,-0.05669358278297395,-0.09577983330548216,2011-09-26 15:40:52.752238681,9.310415790
49.01069508057137,8.41629936303537,114.98094649738546,0.07081480864877021,0.07562505333140224,-0.25124720288060054,8.037337840848272,2.2241593368730834,11.228609755090849,0.3842639336256495,-0.2752758679840622,-3.7682815269739858,-11.21176443851222,10.081524448256534,-8.049582483748225,-1.0301175032330452,10.49677327400601,0.06936512139354359,-0.0860615689844572,-0.5144111936928787,0.03310278715009407,0.0291111417518201,-0.7716935691988914,2011-09-26 15:40:52.862228465,9.420405574
49.01292581852227,8.412131434689126,118.54540323390346,-0.041533311337288284,0.030169289659587074,-3.7264609155701924,0.461302267619625,13.801398025476683,15.313248556068324,2.065423699511325,0.4489673149019938,-4.115471931157924,0.7018437934948772,10.156084962480413,-6.07511142975774,-0.13163095150779172,11.114869910926187,-0.05862219331351286,0.7257054453516484,0.24428899847393346,-0.06487221392726236,-0.07283025331038492,3.2368224768767253,2011-09-26 15:40:52.962259484,9.520436593
49.01347712045014,8.408290255391183,117.27401054197756,0.05383693977998694,-0.028253180922386614,0.4133549765891886,10.560241799449019,-3.316672836840405,4.672329126850821,1.0959439082992954,-0.05905748336375698,-3.3569666020233333,-0.4138594166734554,11.310590388578982,0.4153228665321662,-0.3397313938075378,5.641586468365226,-0.10326134730318204,-0.012529523978426434,0.16020563027021095,0.004618969393120079,-0.5841959142770274,0.0277293924719474,2011-09-26 15:40:53.062224095,9.620401204
49.01148769547723,8.404903833568671,119.68374754517225,0.09465089204540579,0.008785741146661384,0.9182143157518821,5.216876002123336,8.589023082478446,-2.538765147344944,0.012618539936738525,-0.02629565091290506,1.9193472471897235,-1.2771341013526811,11.610865059865349,1.8223061014775843,0.8404521987242171,11.310926571283938,-0.13695425982371975,-0.1363743975633422,0.5235213397264333,0.06478270442269499,-0.28479190319715597,-0.06058554189303769,2011-09-26 15:40:53.172285735,9.730462844
49.0123382382623,8.409807209869877,116.05899757081208,0.03408537690683363,-0.00030953800240711427,1.1243673030849977,7.811364131654558,6.268262108806643,42.29109089177923,0.14346744600423855,-0.08986532629943372,-1.212804158561941,-0.5053398396122853,8.447490035060444,-0.615490290477912,-5.5002419756950065,10.958707636350606,0.2762291320927476,0.10087775686486636,-0.4496450345929778,0.016553962617064447,0.14025841897303182,-0.2039696109260589,2011-09-26 15:40:53.272474597,9.830651706
49.01422930444794,8.409403857428261,117.95793909777545,0.05032924060476993,-0.011253764878772762,0.822511418511421,19.30369284168308,36.65428565697788,12.320502172157774,0.05894462990805351,-1.7284621655500625,0.5961366966374673,3.0823711619396463,9.633643826628687,-0.18309114948606572,-2.138199279131283,9.595808349441025,0.07134384551905575,-0.06158820049705345,-0.03627701501076537,-0.017250394129539888,0.19920366899277192,0.17879731224845183,2011-09-26 15:40:53.372407308,9.930584417
49.014546599210334,8.421025240867564,115.3041302872433,0.5183002343452658,0.12010296341334897,17.803546482407473,12.191431655914602,2.930668090200378,-4.982918486014719,-0.4022325012028052,0.1275720092130429,1.135717953481888,-3.1641465268882345,10.628640098450738,-0.5383839840310802,-0.632754888967391,11.19378497603202,-0.006345668593494922,-0.004941506148653765,0.18683294072413784,0.06614403736012796,-0.07231360528341876,0.1129724722321102,2011-09-26 15:40:53.482263255,10.040440364
49.01113305167416,8.41702545522415,117.90525015005583,0.022888537515197916,0.0541884686844339,6.908060834614685,6.275188922889386,-9.821064069434541,5.628420936457228,0.18921598598195805,0.5700546739392196,-8.49280227037316,1.269374495285092,10.684384369655302,-3.1023536085655286,0.3964678436986995,9.308367812756412,0.05735641304571101,0.05125165443054801,0.20744233222008168,0.07455596343965601,-0.018859987951533458,0.22599124345175625,2011-09-26 15:40:53.582252902,10.140430011
49.01169410381469,8.423389724233637,114.73704908898429,-0.01306902022147767,-0.03257127803631467,-0.11955484368080693,-11.099463450020824,-0.41735104688839264,41.443775026260305,0.1069034909161846,-0.15129944204193418,0.5254778909966562,-0.02789577639545293,8.79980747427721,0.8486921016872151,-1.3970539672768154,9.780301048457837,-0.39466907053582756,-0.07115861095569288,0.3398205577445982,-0.008141161103030842,0.16319429033921087,0.8340714204620427,2011-09-26 15:40:53.682475808,10.240652917
49.01286503781729,8.408284182777347,118.72301940532853,0.1122829691900731,0.014972968351489598,4.160647705307789,91.06843042773846,-2.755847432352445,9.02927767141919,-0.07114117898907188,-1.8804610456828592,-0.7009309299193476,-0.21233612113624856,10.339653470427779,-0.5845651409392582,3.153322522701598,10.346444456258494,0.069438298327136,0.10601824634278185,0.26044252105669613,-0.019925838003411748,0.14705322031257306,0.1500121493805661,2011-09-26 15:40:53.792257468,10.350434577
49.01192352128472,8.410720546910882,116.15460207591696,0.013055240561903284,0.0358405910395442,4.296358817037769,23.498557980606886,-4.226681543577876,12.246580545024035,0.10150506547888045,0.03310355713206152,-2.1758887455201643,-4.889236697446908,10.419148974790648,-0.24667000203367365,-0.6874677128249449,9.870031354615534,-0.011962283556891766,0.1010243986484731,-0.02849520184436764,-0.023818538638657964,0.029651185020640018,-3.2577370042797322,2011-09-26 15:40:53.892274284,10.450451393
49.011959108027455,8.409568179276373,119.0000843474333,0.0710093707708426,0.05321513210078965,4.095004428804042,12.658833616987902,0.9379701204258879,5.850601316428168,0.2553274877264259,-0.19618128346397945,-0.8933892474743785,-2.0239121743126516,8.851131933595939,3.222673975148074,-0.5778024391043204,8.243367467596237,0.010705510197161115,0.044824004535476934,0.5569508420006648,-0.013945880961637194,0.0795209872710729,-0.8098957501492738,2011-09-26 15:40:53.992262348,10.550439457
49.00990533291602,8.409382686088112,118.5228533976171,0.08524262056977884,0.0046044574539256256,-1.264458293734766,13.349248471875649,-3.094007435924682,13.533896186105522,0.1745419844111352,-0.031378283444153124,-1.9055775424280839,10.600441545040178,9.141206832519668,0.33409214074988725,-1.3897054033142457,10.298904313831502,-0.019317491609128785,-0.1318794093863378,-0.5289347823865648,-0.019855110168367704,0.11138660941827737,-1.6577135252401989,2011-09-26 15:40:54.102250682,10.660427791
49.012763680043676,8.398787000561308,118.16118296334649,0.0832170688086655,0.04492420664354539,1.6796283227829127,39.05222480301612,-2.5648082074254965,-4.941531397474192,0.13983019210531045,-0.3600625076715317,-1.0867120952230842,-0.13445332423849504,9.564648347752444,-1.3434954647032933,-3.760639823020419,9.285798763442088,-0.07050582228975766,-0.053122784022908626,0.5338705520235988,-0.04841156533621263,0.05267918950591491,3.4345464559521335,2011-09-26 15:40:54.202495389,10.760672498
49.01263865085738,8.410735389829545,115.56217980706995,0.007600815955626162,-0.006926610429281756,-3.435305283518051,9.930213349003159,2.3143682112884836,10.343171969086951,-0.33542042658404864,0.5876292452192269,-3.6827191574889753,1.3766582983544229,9.540489128614748,-0.9553764224880805,-0.235417729142249,3.984105028520635,-0.1020887414853054,-0.10157801129711108,0.24177782737833337,-0.06935988454668424,0.014398837002164704,-0.5617353628290885,2011-09-26 15:40:54.312263278,10.870440387
49.01417992472489,8.42375141243555,116.57483426253113,0.04175486360663126,0.013301502574930964,3.26188307758464,7.464208652764456,-2.7939576115933247,27.453357746367942,0.06497887099424533,0.12712537468840562,-0.7191581773167013,-0.4461056634729743,9.990923575853595,1.62071711505275,-0.9241027619867858,10.852614824086093,-0.04835000213551034,-0.06175876665603211,-1.2110262858250347,0.08893090739231965,-0.7738530527875945,0.07273789612388039,2011-09-26 15:40:54.412305527,10.970482636
49.011494458817765,8.407547723071747,115.44012383476442,0.14470208425028006,-0.04808402845691741,2.876161962100392,15.155369383548901,-4.588623601815834,-8.407871220542578,0.23903688941982348,-0.19286786879955242,-2.4081258702836026,0.27069270880003604,9.220340179562411,-0.9998717381676048,0.5549255223867828,11.057636298799324,0.07445880113835784,-0.01962011723568991,-1.432661672935647,-0.10099147885986898,-0.01643095740848102,0.3115500697967743,2011-09-26 15:40:54.512278700,11.070455809
49.014506423456034,8.409823608644304,118.80259461119284,-0.394717242334135,-0.015829034681479354,3.3921324612420776,9.423914431885974,0.9785740016387561,16.968757570371164,0.3008198669942491,-0.14752396776888382,-1.450376532249344,-1.577623544326872,10.082865194572834,7.731334227098446,-1.827836568833917,10.66033477649643,-0.045292573686410376,-0.047052325782000186,0.40387783225734547,-0.0848503746926784,0.24012485431598443,-0.008805096924879621,2011-09-26 15:40:54.612289654,11.170466763
49.012664016346754,8.415833254937349,118.75793435250431,0.12707191945351276,0.05508650517706204,3.881976858025567,10.605849193660143,-8.986564875071553,8.391651580389691,-0.05840897041839753,0.031956732298930736,-1.5153449164560708,-1.8261984146738675,10.426645234273922,4.533757254156274,-0.2491487488301691,13.31707727641571,-0.12149765921162367,-0.009192701604064973,-0.4287624266010699,-0.06958169354534956,0.03848009911903606,0.1161997614154757,2011-09-26 15:40:54.722368184,11.280545293
49.01476564666,8.411268907923771,117.15150544091621,0.03672443164054792,-0.006772634365882536,0.17544029448694176,19.09773180377028,-13.432010590024586,0.24317377702116794,0.3792809530740212,0.12980750291473117,-4.313090211132413,1.31364018037384,9.867310621293578,0.17938861807058326,0.2713785836913464,9.60902232645035,0.0449564270705619,0.11310071935286423,0.3163221664897249,0.03751147532729501,-0.07406848661283133,0.29732410356649036,2011-09-26 15:40:54.822312857,11.380489966
49.01283618803738,8.41113867914968,113.81543699031417,0.04035591280707279,-0.020601936443924752,1.6441834654510956,2.276557972139094,-0.761588471179154,12.52128269802731,0.14826675112031953,0.07231745155147228,-5.46752686718722,0.17378065928302444,12.216333366552941,0.06210779888315088,8.557140208942867,10.8130817546328,0.014602172983216005,0.07870845886642219,-0.008867782439736132,-0.008187100770384962,0.0066922998942998725,0.1068817455845049,2011-09-26 15:40:54.922313994,11.480491103
49.01135212522483,8.413396750567019,123.7254661730647,-0.03802751791476024,-0.05300686047270708,2.500898023588216,-29.033724594675938,-14.275607951896596,25.19947261278273,0.057116357407275734,0.14339976133910048,0.7184029956633198,2.650249823924617,9.791742905318916,0.8847562087765874,-2.905662875133477,8.101023848275807,0.03639465462359011,-0.030133506762889846,-0.29058773705355284,-0.004401489795517018,0.01808588744417422,-0.6956260390901278,2011-09-26 15:40:55.032306766,11.590483875
49.01342157389012,8.439079492792816,118.26374988906574,-0.040477355179342686,-0.0008918189540318561,-1.1279709397679085,55.610671280980824,-3.803953285243982,11.098104887542034,0.08663115124111925,-0.20919717070963345,-2.9684874688371483,1.217750365621257,8.438788728038707,-3.366138663576557,20.79278523760343,8.306079374162657,-0.031996290252642445,-0.03800500114757753,-0.2528465343951448,-0.029044948640758725,0.06556478449224604,-1.080897138630596,2011-09-26 15:40:55.132350747,11.690527856
49.012283963628654,8.414354501355863,123.72711506619774,0.010122903386782433,-0.003648546363256514,-10.608897633700796,-24.05082077029033,6.0978798244255845,12.45258816085271,0.06406864311448522,0.08804661011840692,3.13701338421301,0.4224522392989332,10.08400468211872,1.3275327929268863,-1.9440149373857454,9.785424593316929,-0.03868630253355664,-0.053829021117540066,2.73761255791641,-0.021885434412576878,0.3616475237549175,0.17597719309564291,2011-09-26 15:40:55.232399738,11.790576847
49.0100172514858,8.408934322310817,116.66119644077477,0.03255302894553576,0.018912925376233684,0.5992513463342378,-4.139217679319482,-5.729887788974094,1.2016066188423045,0.5361991820974451,-0.2727031730341181,-3.7772522150512393,1.6404133179743365,10.056019196469656,-1.1893468604223554,-2.58859881596892,12.597761196362708,-0.08026177958862424,0.0109920869014848,1.1193604391409417,0.0632346223016535,-0.09574395473179365,-0.4528108871643272,2011-09-26 15:40:55.342319218,11.900496327
49.011098771803375,8.415145378971689,118.44416277437303,0.02285521164775247,0.019887527083752746,-1.498386388104269,18.462101704057737,5.449200610444483,1.9420612277451754,0.17295315325709032,0.03304375984228278,1.3463447315142911,-2.7217758404153445,9.11916353641024,-8.002589753142185,-1.6485902749279995,9.020868065927827,0.046927807644919675,-0.41798138679322544,-3.65814162387348,-0.09418260792759879,-0.04421197682227059,0.1206688808375343,2011-09-26 15:40:55.442372606,12.000549715
49.01407891705679,8.415554132155977,115.66166520553128,-0.018834517051523524,0.02802674439839406,-1.5429759889831627,11.424228626097076,3.285152655374508,3.456778142282406,0.07251267437672781,-0.035145950822920644,0.6534543865045106,0.439989901657504,8.952132836103448,-3.8520896913106064,2.090030239270529,9.409270369172187,-0.04083013557259084,0.06194548976455848,0.7845685163403753,-0.0019048216857635684,0.045572311600397666,-0.7522729673284945,2011-09-26 15:40:55.552358921,12.110536030
49.01017926787389,8.413578294935418,102.44701152998151,-0.0031391238461033616,0.03616512072818681,0.5813503787090425,84.70972008472658,2.268168564377315,-22.33702144055461,0.10639957035857474,0.19873484985721995,1.3395331176689218,-11.226935727551052,8.67143182102342,0.043414096089611,2.3618435201409134,8.304281420403244,-0.23797554358511086,0.0013604624047220334,0.3136671957684694,0.06806749901104192,-0.011343741937006978,0.902861017728697,2011-09-26 15:40:55.652342606,12.210519715
49.01411455342283,8.41245602158452,119.31838589371407,0.014986651636799561,0.03412781127696028,3.7126423869336254,10.409432427196753,-1.1262633639452027,6.776061668096612,-0.13628510311181968,-0.30287414445463556,8.182130138945508,1.0656870263363425,8.436060980069621,0.006736001872474778,-1.4383271635970067,10.711915482163917,0.005787199193241818,-0.01352753151554344,0.01892591658925807,0.3907952045540466,0.4325409406022305,0.4520411204009396,2011-09-26 15:40:55.752360890,12.310537999
49.01236083883612,8.411709347327173,116.0994340696815,0.22243438221698403,0.051581260411777095,-4.796996781481714,7.339961132450825,-10.666750277258616,5.942122860752585,0.7183348213390893,-1.0100461172992812,-2.3153351994778166,3.474325746657379,9.28171959353887,4.56911142310057,1.2236380014799677,11.745278830515556,0.17657082086273715,0.05000001582371113,-0.5895839426902201,0.03870267180611144,-0.06924604869271549,-0.18024736247791584,2011-09-26 15:40:55.862359142,12.420536251
49.01313584777102,8.414154158358079,118.84448628986065,0.035121737459541225,0.2630140201140707,-0.9969235117039779,0.8511427126536857,8.69693690508162,-0.7905766080307002,0.30793044722620916,-0.08174115690071615,0.11939080308335565,-8.6554034518115,10.749898929028474,8.80747660371545,0.876873748888332,9.518861772116297,-0.007095018325957063,-0.04950574688807657,-0.03090783421398,-0.026581171656334047,-0.3835440191536653,-0.021074942419812722,2011-09-26 15:40:55.962381474,12.520558583
