lat,lon,alt,roll,pitch,yaw,vn,ve,vf,vl,vu,ax,ay,az,af,al,au,wx,wy,wz,wf,wl,wu,timestamp,rel_time
49.034193519655126,8.394151271207717,112.48497922059073,0.09258420567020959,0.0209098051960359,1.6768969532334972,7.533104981544932,-1.6374557677300152,14.713628821219642,0.8533244426196138,-0.043270861381537816,-5.511741647082184,0.12726883203127126,9.036689422890296,8.659538130290173,4.1869071628568015,8.836847470623566,-0.026824562497514116,-0.4485887104522883,0.027058643255093502,-0.12700263093005495,0.08365677152631192,-0.002369254798731942,2011-09-30 11:50:40.354663513,0.000000000
49.03451074127927,8.395254317312336,111.92730060683301,0.16259572218721557,0.015901867035808225,1.6873036519413478,17.30746282652814,-1.5328642695447818,18.798393911614845,0.1242823520993134,-0.13672705236490273,3.300043362254018,0.7790180811452887,8.974167194227821,5.224176735218438,2.554089376463011,9.834196775443818,0.019911350127066824,0.028059946526800182,-0.016020899445147743,0.06815403161367731,0.03301370783313966,0.004153702443364318,2011-09-30 11:50:40.454677373,0.100013860
49.035947549796866,8.394616075442283,111.83759420420127,-0.13512918559640516,0.016222035635449196,1.7538302955027798,8.273784605563625,-2.381757355808173,-0.5745660650825162,0.3224096130514456,-0.2302475866688372,0.6593638675959652,0.5567003909466436,9.536977665626258,1.1578415076996487,-4.271451568865336,11.156712892405896,-0.017040187407191383,0.01373062805434077,-0.0009366064676237808,0.0802481526200117,0.010820105827504296,0.02939522859636264,2011-09-30 11:50:40.564550882,0.209887369
49.031013248264465,8.395135480904324,112.37287372367307,0.03692419802174825,0.015410469427269705,1.7016033319085202,9.896835471961994,-1.6235651571746328,35.847937497629175,0.028662435169985623,-0.25775695294485784,-1.469329030828608,0.011848147528616404,9.252381878764233,3.2856157196528537,-0.81000160285054,10.485235994991822,-0.051276127516916604,0.24885662097244773,-0.007058140746164094,-0.22396069062550997,0.07236779250582331,0.003323012567497762,2011-09-30 11:50:40.664526758,0.309863245
49.032121967324834,8.395656469073545,112.44415960067755,0.04486850637846452,0.008331861178146875,1.6747310955966512,14.420515898591658,-1.5188036941495864,8.301962158893677,-0.0405599810966274,-0.0032596277185051314,3.9566331396448042,-0.5118298282513806,9.936186592613852,-1.3363005685989973,2.7940865457977733,10.598462820800334,0.12663315227373884,0.04158819418739086,0.08748877780131122,0.03951089634998297,-0.040767154280137184,0.0001419752333282374,2011-09-30 11:50:40.774533003,0.419869490
49.038417030906665,8.395750084014194,112.97294859377003,-0.2866513699975481,0.026886618338347178,1.6752318278804048,8.317129160942548,-1.3787211922997833,10.377421535742089,-0.05545682452775013,-0.11205136662251661,-0.05647204818584456,0.6726809254389441,10.266992546004595,0.9188880816177548,0.055151072134740575,9.512580506256226,0.1103216318597899,-0.27007421425662537,0.16950780476898197,0.04029893570057961,-0.013319984074553336,-0.013525402043857061,2011-09-30 11:50:40.874667202,0.520003689
49.03080823375273,8.395077596983107,112.92615078943997,0.02604566481417125,0.016121200513056655,1.683044793624122,14.12669963560111,-1.4161681198836815,1.8795568552930568,0.4415039786301643,0.43332724061638794,0.9877327362711235,0.9069916221202318,9.048750984546263,0.08698563992252412,-0.3682765856657698,11.988736852179418,-0.0352232532535159,0.024215756564161195,-0.021881311273346703,-0.09688188748106955,-0.009232214944836665,-0.009674226136020045,2011-09-30 11:50:40.974697970,0.620034457
49.06252201748786,8.394708200964502,112.0254900535182,0.016088593139330754,0.0074240076390947665,1.737722360955523,10.88615575189499,-1.6371233484387848,12.012725577839749,-0.04739493780498701,-0.20771648941118442,-0.10737529216187532,0.8425253654426648,9.525337545649714,0.9677396229580706,0.3340051623280574,9.635920376238065,-0.00677213316937114,0.10885800581057054,0.03377401184833772,-0.024900981350493644,0.03879363632141137,0.013431420755419188,2011-09-30 11:50:41.084596356,0.729932843
49.03654729487606,8.39636795182573,112.19692518029798,0.07950161530483404,0.0008578845410757378,1.6768156670020253,27.05448374578404,-0.6267799120513756,8.646959546756312,-0.7843496067303042,-0.03293893880107272,1.2994710055982657,1.5994500940581,10.125477178321596,0.8521613317491356,0.8986620380716002,9.031093123368587,-0.009144769815330283,0.0011762818921991335,0.007631006896802683,-0.38147466896538484,0.014338880042944504,0.005647424923412162,2011-09-30 11:50:41.184519512,0.829855999
49.03973092280727,8.395032329876933,112.44646192058558,0.05159624669339096,0.005451159424128026,1.677063733491501,10.157142857685951,-1.7157260475919156,9.954677084081986,0.14935665246187985,-0.288127491128328,-0.555661291825214,0.4626126200197175,10.012439741229636,-0.3228434748289958,0.5024745439069271,4.586884374965584,-0.24381560723515405,0.04161988291265145,0.02984780854439169,-0.042035027475573326,0.10458616772301685,-0.0022973786173286926,2011-09-30 11:50:41.294511780,0.939848267
49.034904220286776,8.393726388066513,112.80705086240114,0.02275373211681726,-0.0073236836237838675,1.668850637294008,10.394037771760118,-1.6110571998991943,15.1619499090021,-0.08694691465422465,-0.011928913707777725,-1.0776651858260986,0.8729297017820821,9.19781601062376,1.7138669457726943,-0.40143163756610056,8.647585517106952,-0.06816044104814582,0.052288528094008635,0.01552059234532386,-0.1415660044930084,0.010909455826224457,0.016128438634793064,2011-09-30 11:50:41.394494454,1.039830941
49.03592106707269,8.39461553335556,112.07709230149872,0.053900015984892274,0.017324843287451337,1.6952021654270089,14.87035745672337,-1.0376381798871883,4.776543785262428,-0.026573312750060547,0.017264443097677495,1.2382739958529854,0.6244002772817401,11.708235493600391,-0.1631568449916419,0.06768830456796146,10.032627657154162,0.039826612714953996,-0.028189699939772432,-0.0064108708227085965,-0.09160905453347384,0.09797507328473119,0.00047509470307434203,2011-09-30 11:50:41.494875992,1.140212479
49.03643015466539,8.39499184817582,112.93787767544111,0.054252169028189426,0.009866658600219482,1.6685252504924228,19.639419908952526,-1.3065216916031805,14.381118361720542,-0.05029907646116117,-0.4999403920453953,0.02084092849977412,0.9743308854962255,10.224343096048681,4.0215858265157545,-0.5074788984950727,13.338790788122193,-0.029489466945275662,0.04062104315336171,0.005514455042982449,-0.018345753670325468,-0.016061011683546917,-0.012428998843280564,2011-09-30 11:50:41.604481520,1.249818007
49.03560334116823,8.393881953337448,112.09145401868199,0.21249755300001527,0.0017687615883196159,1.6425006471818904,12.762119775656263,-0.028409240219524845,15.4548892132659,0.2101360008421692,-0.14512511169485626,0.12062392902079747,-0.021962937534388605,11.009407150274535,0.15293522707791019,-0.7477406302795381,15.11071050021682,-0.037463015309453174,0.02743074163302538,-0.02316411965157103,0.01738701573157262,0.11330379893348858,0.035649976406870294,2011-09-30 11:50:41.704506822,1.349843309
49.03391366371716,8.39666708302307,109.11308008514501,0.025429352528326843,0.021830318507474796,1.6753022162905824,10.537149943116223,-3.665981176192516,9.232779246473342,0.050562314148945776,-0.15613668837934053,-0.49312743293797334,0.6249860459200073,9.51212947968405,0.5891784191535564,0.16687860707284355,4.282970671978289,-0.020084541028599516,0.010998376182118994,-0.024817143227366223,0.015070831659871959,0.06041700586761711,0.0006453984060111316,2011-09-30 11:50:41.814532877,1.459869364
49.03375688661217,8.388513184803873,112.50422078157881,0.050990520962355124,-0.03719897750417817,1.6786929681042662,21.871965763820892,-1.8562771581989677,16.20014047934827,0.016261047107644658,-0.35151435832781186,-0.3265027096787806,0.7648888412350545,10.259859767336827,-0.2765287986360223,-1.3831345885120094,8.596527795162368,-0.0046705408582223586,-0.09932725467740111,0.0029275731797417594,-0.0015741511516049536,-0.0009377561780849752,0.01280340646074609,2011-09-30 11:50:41.914494215,1.559830702
49.02891900190352,8.394853922488693,112.43937007238233,0.07069847916368109,0.019638187489751928,1.7015350575912032,7.369762054292016,-0.9798521105417668,10.230831539977626,0.07392036626683338,-0.03449823879992267,0.653969215131654,0.7678171809089852,7.600522764352162,0.23968295940325118,0.164266872923583,9.700178511864724,-0.02046365035623058,-0.21649080476244564,0.030524877332832868,0.09046651066371156,-0.04281208823163982,-0.035259243442494065,2011-09-30 11:50:42.024698124,1.670034611
49.038267041658266,8.395530377133202,113.53066475555089,0.04161189769757731,0.00768619699343098,1.6747288000889295,11.013358851132677,-1.9862277407731868,22.289799668414005,0.05848401481631206,-0.036173544445269074,0.3282042934995796,0.5835780865729445,9.264372362170379,0.17356471731839046,0.20371963848953484,10.037911751540317,-0.0780987309032594,-0.04070360022810903,-0.004355141857515531,0.07877138286310172,0.010156636210017611,0.012120579086263862,2011-09-30 11:50:42.124492431,1.769828918
49.032704420634296,8.395191554793774,111.56413759834427,-0.014398413412868204,-0.08012167540844375,1.6976754080578873,9.579985673766402,-1.4030635547556558,11.310619095079252,0.15294884210003384,-0.046592332077965454,-0.4063012412371833,0.6950331805543495,10.233249915183304,-0.11883375555897391,-1.0546221080811549,8.691415205523171,0.034062489455914786,-0.048328883572435255,-1.675549908955465e-05,0.07507220692265276,0.049180096957156014,-0.02739549356357651,2011-09-30 11:50:42.224508836,1.869845323
49.02790445374171,8.393521258937389,111.47423201501303,0.0430024675811919,0.016305556881663973,1.6993321660895402,13.531446241512064,-1.5752365790026082,13.893458431965515,0.049485211891695344,-0.12012914684322883,0.18317551741990276,1.094154053686732,8.642357657440845,0.8167105785888253,0.02981477279773309,7.589873597368564,-0.07113267085015085,0.19307713972775178,0.007378413109390366,-0.03155044468669514,-0.15048865908128,-0.0005070145220661642,2011-09-30 11:50:42.334495009,1.979831496
49.036276090569096,8.394726920054554,111.96593126594355,0.07376633670371135,0.006931026416468852,1.7040397190464025,23.139705016213362,-1.1961358130816624,-5.205234651905874,0.19662659775326918,-0.17838775705226104,0.3083906713562638,-0.09717449433350558,9.911333936852861,2.5678786309667054,-0.5797550134826279,8.399629177495823,-0.00552351982598373,0.005186796215971781,0.002549691771024846,0.1118804188184416,-0.014096718887802624,-0.016063769483808513,2011-09-30 11:50:42.434482060,2.079818547
49.0330173810469,8.395509243644355,112.55158306121986,0.10386817853082186,0.025495032457050874,1.6533512786974671,16.315583283741855,-1.2022580184041614,14.69812525678741,-0.15303347749692994,-0.09310723155616317,-0.3341847029182532,1.011034638420654,9.960177746037724,0.5538692134318903,4.929849673737543,11.449559253587204,-0.01274569337977019,-0.022618619427999736,-0.03689571609482588,-0.0507535477323809,0.03922984745653818,-0.017543495854747796,2011-09-30 11:50:42.544550561,2.189887048
49.00757584835225,8.395152075926491,111.32837830226423,0.030258946726822958,0.07637970908545354,1.6819359161209013,12.654556773186426,-1.7797389480327865,11.55355614402534,0.03360761070676947,-0.1689586741020462,-0.23265412084670167,2.4322565457276237,9.176901568377353,3.6701036585645372,-0.26795552822481944,9.987241993701836,0.329046633363938,0.0013979036508304094,-0.021341571289497124,-0.03719111823753284,-0.05212775001851603,0.0008345560104421092,2011-09-30 11:50:42.644533701,2.289870188
49.032839278154555,8.395977946309708,112.77258483388721,0.04876335216226203,0.0037804341848099495,1.6807771254595434,15.90584651514008,-1.4344642715873785,13.798072929022489,-0.13610316644554304,-0.17695132641007696,0.3603668849400369,0.28215371001663014,10.5313950309551,4.067957900982424,1.3333483871765777,9.990062633350027,0.06370546233785629,-0.021981070832919947,0.0018965438976450912,-0.03354514596801179,-0.038243226940251354,0.019788487027217166,2011-09-30 11:50:42.754615340,2.399951827
49.04264112225886,8.395933048697426,112.3245980861956,0.03609450098790579,0.005792236575261197,1.6771262909445672,-14.403970728187621,-2.20030459236139,10.097106957349263,-0.03218064814063731,-0.1493631679639478,-1.313887064270495,0.44150865809859297,10.010400020656423,-0.4882161392951542,0.7238989720060116,10.008641789834499,0.10278066033241424,-0.008270749260881479,0.02555320522278317,-0.006935177598167041,0.1321345217815054,0.004720214479124808,2011-09-30 11:50:42.854474768,2.499811255
49.036941066140464,8.394916766558348,112.20200039658425,0.012298655726408682,0.017290581266401678,1.6699138827690796,11.748483296419465,-1.327690268479294,11.540847283539401,0.026635504321205816,0.03266880069673295,-0.31207557050057344,1.0654911629199888,10.826079124119309,-2.0529226213038436,0.2859297767140647,9.749730877473922,0.06565907779916214,-0.02184555534100224,-0.0833511549604792,0.05162308745204401,-0.03227910085223708,-0.009188605310769878,2011-09-30 11:50:42.954666845,2.600003332
49.03382543286393,8.394315502832223,111.48420718716646,-0.039288419537872876,0.016016145699071793,1.733664665223515,18.133103133602845,-1.9222870335892797,9.691649962205025,0.22369987285760773,0.03213171472275368,0.46633463993772767,1.5482951713263133,11.389497416123156,0.5629666624694791,0.01766936079226261,10.48596389342077,0.10428927315701278,0.05532165510736112,-0.010119683925406554,0.05413944240837785,0.05966939145167624,-0.029575939698872972,2011-09-30 11:50:43.064553620,2.709890107
49.034789132104244,8.395375450463435,112.13543528034896,0.021535250574882363,0.021147921638860367,1.6810322278486456,14.434386461774647,-1.4931561700562885,12.44071086949869,-1.0102982702916705,0.04741447505825944,-0.8216015363761338,-1.808342366669413,9.858566776817769,0.9526725305942932,0.983056107088031,9.861322814271348,0.0030088614319211037,0.026095654146387204,0.03774243632734304,0.011137738314757966,-0.029254338362006842,-0.010705008515474967,2011-09-30 11:50:43.164463227,2.809799714
49.03943455376361,8.3940811980042,111.93160500714004,0.042251845086931236,-0.00019716211642945014,1.675146842416545,10.745515423170769,-1.345495923777485,12.01483391120492,0.2058720888767626,0.09018399172987383,0.9504029557588671,0.5341652195444508,9.789054497335963,3.992176102840584,0.6343354810751218,8.362881596323879,0.014534950213998518,0.01017088911923041,0.020503827284767646,0.02598402088241916,-0.040569834453855744,0.009539007087981829,2011-09-30 11:50:43.274466733,2.919803220
49.031497371372154,8.393023132552079,111.88578155984217,0.04714600532464808,0.01314459156659896,1.7162691864283637,15.5781144463852,-3.7100158813173008,11.97563564157634,0.059331227897166064,-0.30920286222379467,-1.145920415411332,0.6972797456728513,10.077151971505698,0.6726740167402875,0.36866230788857707,8.561735878509728,0.0742616110194021,-0.05482638385082576,0.02020088382999789,0.10636023700777064,-0.3313221583487398,-0.018199744200381517,2011-09-30 11:50:43.374607792,3.019944279
49.037147892884455,8.394049072383352,112.67498161991828,0.07292666516329592,0.011119511788978305,1.6624481705849083,14.05873194302422,-1.4910824274836985,12.35736152018787,-0.1069451399349617,-0.20715856044087055,-0.22310262858946212,0.7012409220642695,10.468298750860923,0.8862403448744172,-0.40132992024943454,10.092115844436051,0.061418359393295194,-0.11001021638203885,0.011438918858023669,-0.05935664480370684,0.021283699312680322,-0.023443782512210305,2011-09-30 11:50:43.474592203,3.119928690
49.04299002449681,8.395642338803645,112.03903983871139,0.03256969733357327,0.0009794358027268874,1.678891374086025,11.936714427492722,-1.5359691901282355,22.180139695963447,0.33244301768762036,-0.07137502225982183,1.4995132531277522,-0.11841379627265503,9.754485570618016,1.2547304027386241,-0.13419100401348352,12.531952691115753,0.04738507178311528,0.035424470416339233,-0.01109558483899549,-0.038339854463980624,-0.003278276762384507,0.012973931496240775,2011-09-30 11:50:43.584435957,3.229772444
49.034219747830306,8.395171503701604,112.40164000514916,0.0547347978599651,0.01191847249283937,1.6942358166283207,10.75840111998546,-1.3712394348159402,10.809399032436279,-0.3114146825098015,-0.46402906066221083,0.1373855033046212,-0.47391978448990685,9.51622384601518,-0.2709780079297322,-3.5244848620550506,9.632494196704734,-0.008360160691462115,-0.029554611732704513,0.15667184308900126,-0.011892786110521136,-0.01780952139877686,0.016708199504808115,2011-09-30 11:50:43.684447135,3.329783622
49.004695975948,8.395266704308193,112.7652616121389,0.023525039409574434,0.03528002959413098,1.6722701568713925,10.707702980286856,-1.5305585024049257,11.245208248722598,-0.09817062745461523,-0.2383879630293613,0.12588959279916642,-0.37181829146610373,9.138212932090783,0.3485316781185635,-0.29180772677966893,10.942554147790894,-0.004351023245196018,-0.04258747260370599,0.006355497877182903,-0.03381443237468126,-0.012097519307511802,-0.010387094872611493,2011-09-30 11:50:43.794452053,3.439788540
49.036799905001104,8.394556924999259,111.56096008777646,0.08215596284262543,0.0294062667620267,1.6987820299818819,10.902197323777484,-0.9034292034485266,11.61653848900585,-0.04178218566321663,0.7533235543575025,1.9145772810422887,1.6165416960825902,9.206117883039026,1.6640461699942901,0.4071027618472537,12.66949015256801,-0.06325996234678719,-0.034589536997412525,0.032443252516063614,-0.06633853760019251,-0.038614804492590526,0.026371317180629697,2011-09-30 11:50:43.894447846,3.539784333
49.03386807022368,8.394527158538509,111.84939823151942,-0.0721390277584801,0.014949824916245427,1.6979110358846303,11.919508659739817,-2.507818477108584,1.6974820432614308,-0.053024301520352604,-0.16056799521675136,0.7272489453207811,0.07933897266257739,9.152911243925871,-2.064849235558178,0.6143448235969255,10.605458353783582,-0.03368249513973347,-0.04057114906592002,0.0010134636985807688,-0.020733101919625248,0.030552356127853723,0.017789626403318486,2011-09-30 11:50:44.004559925,3.649896412
49.02863897019966,8.394614868920774,112.25696339827421,0.06294203892584378,0.007203516511158065,1.6908085883879846,11.06961702984366,-1.5088126703257252,14.265914666717713,1.1823528836408557,-0.08579567742254265,1.009675792730684,-0.3157722468229721,9.009629662022297,-0.16252409153559544,-0.26357886912612394,11.429024768939437,-0.08170991344815258,0.0033756962547548943,0.005647585993381219,-0.033086426438283786,0.02718564411566452,0.02031761852910698,2011-09-30 11:50:44.104450489,3.749786976
49.03329668910632,8.393980844546274,113.0755115796514,0.010403445217830931,0.009158083066295479,1.679105820339943,14.85060466332907,-1.65914571642641,27.47150302706229,1.1172435159513792,-0.17569302999366063,-0.00957907534692612,0.20928873530688644,9.918719601193937,0.30518087380679115,0.6501213799517112,10.036833891327829,-0.13097344946020947,0.08931800703767966,0.004241135161439537,0.06414740635534383,0.023615315636416803,-0.0062195155968869514,2011-09-30 11:50:44.204504846,3.849841333
49.04347116710189,8.395708594044217,113.55333103405536,0.029009167222016873,-0.022795149683692215,1.6784592402937628,13.61285497551595,-1.743326319990587,20.763519602403253,-0.038634934824316916,-0.43725950752932524,-0.6560364408342481,8.056958952426717,9.293440537806775,0.023198817615868728,0.6590238385863351,8.940880539267193,0.030659354381206837,0.06543343842273373,0.020055620253843574,-0.10095146440743648,0.039861231725703626,0.011624821645568984,2011-09-30 11:50:44.314455900,3.959792387
49.032299455019206,8.394375576873355,112.24458036326442,-0.04501363549093991,0.013493486879620488,1.6904221825732058,18.347420200592197,-0.8483141699858608,13.423370871080284,-0.0992953784194639,-0.22181290400869913,0.624039016783729,0.03835747354143765,10.235141273661782,-0.23882217314919366,0.24575218122451703,8.916531337304168,0.011847667026838371,0.1409600991747806,0.01354589964952625,0.038915264766152376,0.08228902608059399,-0.009049439541593075,2011-09-30 11:50:44.414449525,4.059786012
49.0687371796351,8.395148069330093,111.67390734740592,0.054686986112362015,0.020674927535152984,1.7080309438307504,9.558424087903937,-1.3587942548822405,19.109478822756607,0.15721608944133103,0.009576276182835658,-0.5668657065362818,0.6740762680057899,10.505937265015323,-0.5385076924501978,-0.0057321499683840454,9.496971801299368,-0.06453320431184005,-0.04048475031278722,0.0022364551134532997,-0.0496153864187737,0.008619078764612762,0.012120687573918066,2011-09-30 11:50:44.524631969,4.169968456
49.031122933329925,8.394188848700232,112.29734908238433,0.0661700570324576,0.019731295507329726,1.7019025739757063,17.246515090369144,-1.3707874173149424,14.593128235572054,0.019326169848243528,1.4033802876483292,-0.0013669496628277156,0.37875013364013554,10.153119938796207,-0.2012485541970629,-0.48062767931937855,10.193609090596265,0.039414659169429656,0.014276420750651147,0.004560343159174661,0.03744110769347218,-0.2652711872288149,0.012206645494437979,2011-09-30 11:50:44.624450700,4.269787187
49.03189647711575,8.395104056635565,113.67814098085903,-0.13437129731736117,0.035656904877818,1.6756293428180165,14.83898573173239,-2.023504458943946,7.884369607065917,-0.509475700594965,0.005391794853311788,-0.0046059194491424316,-0.06518457358999474,10.980662523947384,-0.02123902473879113,0.15183428421604916,9.433893601216342,0.06690780315287732,0.030681988905805944,0.00046849908791210884,-0.01189216449348628,0.009871762214887902,0.007096730549939785,2011-09-30 11:50:44.724425744,4.369762231
49.03122286946032,8.394442408392708,111.8204590832539,-0.15260851385315588,0.025477197674200036,1.6817961106849975,16.207160386312584,-1.4414648711103841,11.398823547555445,-0.16816255900758115,-0.1033772553990673,-0.07557084418519244,0.6484927997470435,15.044233985407784,-0.4503737653230826,0.288246775486555,8.905775653081196,-0.051776432524094175,0.013868334994730256,0.035341086062542826,0.053321391706940086,0.06607457801988646,0.004763839803125235,2011-09-30 11:50:44.834451378,4.479787865
49.025727598436745,8.395209765017823,111.4548587616981,0.000822606565666309,0.010060690777400882,1.6843964952627766,12.572766748284945,-1.5043352771332335,13.573359428818,0.16553227242232604,-0.2591040927107046,-2.628444093393196,-1.2048088650514626,9.85309441390379,-0.36386836120385946,0.15162243412004467,8.76439267493788,0.008253310193765075,-0.017027704344581618,0.004739392219618981,0.02691675556949768,0.06085875385779511,-0.04992046673902928,2011-09-30 11:50:44.934414617,4.579751104
49.035894352779124,8.394822251497093,111.81934032220259,0.034120808675381045,0.01835142445816778,1.7044054656776277,8.757761620154689,-3.929227422353356,-8.367380813275817,0.1308787218761742,-0.11990691916388255,-0.5700565360333298,1.1152656350462182,10.106444538885949,-0.5035063081962386,-0.5408774860203462,9.766036889160787,0.016991844284618633,-0.026580662807372656,-0.02661390054145973,-0.004310612609877926,0.019660449413986297,-0.03760592522751862,2011-09-30 11:50:45.044514786,4.689851273
49.02602624749478,8.39408476688486,111.38161575304508,0.06439362123410848,0.0067845390416539,1.688729855724097,32.65165819483362,-1.8544156668959657,11.155284357020745,0.05367939953674357,-0.3033679737400281,-1.3719616211070655,0.25596516184657025,9.329516543754,-1.3413294730077439,4.118658470346649,9.685549324343999,0.010274443329322269,-0.033233745084467324,-0.004933810101305343,0.046217999486799895,-0.00480654958447331,-0.006530059065581498,2011-09-30 11:50:45.144418893,4.789755380
49.03522642609961,8.39471786753152,111.43781225240045,0.013796684626658152,0.008357437858485783,1.7212055957297199,14.957013304394984,-1.984477767845295,19.476016156552753,0.14083714860299545,-0.13597566434900824,0.07327971168949526,0.7986693982726272,10.010386889734722,-0.42155783646186307,-0.09094899579927776,10.083622970592447,-0.010583976648238323,0.060771228051703166,-0.035799180726515084,-0.007137993808050726,0.020878874701723386,-0.005080285992776539,2011-09-30 11:50:45.244387967,4.889724454
49.05513072558473,8.395560131001451,111.47178034936158,-0.11937594000844715,0.01570092227214765,1.693729387782684,14.71523021755962,-1.6192474865086328,12.70194404954972,0.08592992900660557,-0.0052083084847758115,0.9334247218477635,-0.17673819098390153,10.577089173887861,0.11850491421692355,-0.2534287723137027,10.547956100456481,0.09807240998085368,0.01649386663296329,0.11937760099604026,-0.051299544175550944,-0.15331135040754293,0.11018811805661329,2011-09-30 11:50:45.354372796,4.999709283
49.016702332806496,8.39424508729194,112.6878789808334,0.04587508618356935,0.021898428882484534,1.6875884454772176,15.997616610977444,-1.6769402211626079,14.009619878018903,0.20174962116178535,0.27936634958639117,-3.2612505218377184,-0.42576132214647583,9.81747613926508,-1.840878609622618,0.2301793476290584,9.159329414886685,0.011121955049940646,-0.0016774397766331746,0.004883741400553792,-0.10224088355042014,0.010820727560021183,-0.01647677678767033,2011-09-30 11:50:45.454485166,5.099821653
49.0339909772647,8.394956790167743,111.6547705014503,0.03880107613130243,0.00961431313302787,1.6970879897517466,12.223488332361988,-1.64604905157418,14.139161268333675,0.14474683072949546,-0.2659705397354736,-0.5398790013199914,5.3837419511165185,9.435658714518242,0.3491686953823283,0.38320065104849854,9.560550408487954,0.032852574638572954,-0.07271576493798082,0.018561682811622866,-0.0840709607888199,-0.30270584825300795,-0.0440050769288876,2011-09-30 11:50:45.564594254,5.209930741
49.035746287256316,8.393014770247799,112.66610024370665,0.004135818634819731,0.02068779224466351,1.670452651674025,12.219097058647993,-1.1876490482579323,20.105506494609116,-0.11350494822826691,-0.14815130245063873,0.1637144801075695,-4.431213168952204,0.7435906390658129,-0.12903387566087987,2.5430863212490755,9.683758893958297,0.04153665693435487,0.03851999854121002,0.05014921414018707,0.025112028071261595,0.013319270325754072,0.01424901172585383,2011-09-30 11:50:45.664424182,5.309760669
49.0350225417709,8.39525865004962,111.78459844219219,0.02555284761981976,0.02302768917685004,1.619245763927536,18.28427644503698,-1.4010079499348542,4.206547560485438,0.06498364494881831,-0.09025410497086418,-0.9647317355497269,0.2919454234258558,9.038867050237902,-0.6452833759936003,0.263163045904849,10.089569836265518,-0.15559061526671267,0.04644735601875333,-0.019264217340273834,-0.04625724522206509,0.05057044876369104,0.00034174431431500084,2011-09-30 11:50:45.774403107,5.419739594
49.03917619188599,8.39890218232308,111.69759604627123,0.03408273845060385,0.015956983894117788,1.6672324588017553,-1.4583107976705207,-1.833082718821141,19.948503956677506,0.0934463359661408,-0.3649462501878461,-0.82437360371227,1.61913017812455,7.459353745144547,-0.21411634764292237,-0.6483782982177642,9.43426311493198,-0.0701621132429979,0.33895245066606855,-0.013999695510352616,-0.07478437414409475,-0.038714301199161125,0.015332782464841984,2011-09-30 11:50:45.874578123,5.519914610
49.03329937941688,8.396007572845429,112.2330246313771,0.020377850231724944,0.03402976604299594,1.6806725012220598,37.60708491279564,-1.864653686353775,8.550312544576903,-0.07080316557162987,-0.2094812582058188,0.7527753471591345,0.09934428751620392,9.380172940307535,0.27311387188016023,0.34744566868979393,8.886293373916143,-0.2777377767927074,0.014377234537792632,-0.0025117960505224744,-0.07057536276997356,0.0028514517101818305,-0.0029838439834745847,2011-09-30 11:50:45.974638331,5.619974818
49.0336510167956,8.395410620114566,108.19728880155235,0.0022548248573594776,0.02101559096176,1.7418237595993729,11.528594074873537,-1.569265028148827,10.45252598246353,0.05135480262905054,-0.27136043449356434,0.2613614004955808,3.4296986505465976,9.393323551388454,-0.4218952879543756,0.3301798796273158,9.33852068618737,-0.019666945889385813,0.0729649375981231,0.011371284577760236,0.027479064329375625,0.0005585100530163057,-0.0333540231850063,2011-09-30 11:50:46.084435027,5.729771514
49.034143406067955,8.39324171846217,111.78323190758498,0.03246441527505462,0.013332924891022356,1.6733993232569757,21.391641854385764,-1.7402431152886726,12.414943164101798,-0.01991536381164961,-0.13015704043214746,-0.9910448457008099,-0.10859817259157195,11.126902467914276,-0.20079127287829945,-0.5248822633353873,9.761103696260342,0.19562613489067124,0.015759236334013396,-0.03968146637560585,0.09388753537592576,0.012030510279346637,-0.05923945678862301,2011-09-30 11:50:46.184411452,5.829747939
49.03416321212311,8.394311962498502,112.29526597893667,-0.011492150890094373,-0.0030088814948596374,1.6755435960635676,14.758907071858783,-1.7077111582412354,10.807853400223822,0.1520616245816855,-0.0741154617273488,4.122227483002709,0.490321338506269,8.747002638922398,-0.22981039122523927,-0.06590008092496791,11.59060253889096,0.0035931043825627807,-0.00680081089085438,-0.04939540455970733,-0.009450294223427132,-0.08721127577569157,0.017164970126176234,2011-09-30 11:50:46.294415934,5.939752421
49.03129102184841,8.394966251022117,111.50507078899409,-0.0033790674052279236,0.018776482999084083,1.6920805461828567,12.592048751510573,-2.413142502345373,17.047992142036037,-0.0915000278275545,-0.0522880930086035,2.11707949719213,0.02689517537022866,10.205550608953015,-1.197752584318052,2.0716785083917664,9.174443886926538,0.002879951091239714,0.02774547833839627,0.024188649635114332,0.028307656670300253,-0.0648842736606811,-0.020394493516619892,2011-09-30 11:50:46.394398443,6.039734930
49.03954572317913,8.391899986900603,111.94003386686585,0.009916752053826954,0.024556393734424982,1.6918350769474035,11.995156201766529,-1.7142594458496065,17.11329490230622,0.1066738845330412,-0.12780186215178244,-0.25167095861803124,0.5437455595838641,10.514293832311477,-0.21859888691263163,1.0271269507093896,9.934509364453545,0.006860950826446788,-0.05106786519671489,0.13395747538387265,0.051016104239243805,-0.061502201490371236,-0.027467051462783075,2011-09-30 11:50:46.494572704,6.139909191
49.019595569505434,8.394182164652447,112.04779708981597,0.011076960339548927,0.03323692194628232,1.6923533046562362,15.048151555362734,-2.393142277683704,6.6044818130235,-0.3058437358325625,-0.31152640101736506,-2.2432267717065724,-0.3101126588706531,9.715846206518613,-0.3090031796435808,-0.22246037510204583,6.282587964357294,0.024370917707221548,-0.09974769409383054,-0.01943499337638205,0.06059680390429302,-0.041271726572239174,0.006351254836102788,2011-09-30 11:50:46.604463866,6.249800353
49.0359362361662,8.395109527816164,112.95821119437058,0.004121218583679431,0.03258751388567801,1.6732471767953754,12.81750441013795,-1.5389615929708522,9.733786665059094,-0.027863361409655257,-0.11600394123760807,1.3777661700884491,-0.2281536794978697,11.114888164979206,1.4364950561950682,0.48476819235295765,9.450548640548657,0.033838256123486385,-0.005809797322468229,0.002065752308030868,-0.03117465317547176,0.039835148943080406,-0.00405063737799711,2011-09-30 11:50:46.704382604,6.349719091
49.037310456972335,8.395002044663498,111.51521971699533,0.034068065595897284,0.01679390943414821,1.6835007186793465,39.34353383986232,-2.380839773788344,10.36668852259159,-0.08171894267723395,-0.2527783651974618,-0.7797499556570657,0.8481974299637572,9.439322705565491,-1.2915003979308926,-0.7326480843979389,6.139053743338115,-0.03156725524300309,-0.01740112541063075,0.03504528845413699,-0.08379039217632742,-0.24877114923428298,0.008998001589718316,2011-09-30 11:50:46.814388409,6.459724896
49.038655341322794,8.395129241118013,111.43526471290477,0.02920987809808664,0.0359857362380519,1.6874549170021056,14.504324169426873,-0.895664573102427,19.501709825266815,-0.05370708980430534,-0.4151484790191894,-0.35776885178212453,-0.7761932480675109,9.876648078057894,-0.05595384077492194,0.21767147183406133,9.99369063851674,0.04200651929469758,0.051374478861214476,-0.0059916006828309425,-0.003138517363796143,-0.049413683205135235,-0.01460138625696413,2011-09-30 11:50:46.914357825,6.559694312
49.03214109415778,8.39411717714729,111.61860339253249,0.024304134972780448,0.01906053298542573,1.680314550197306,8.668253939269167,-1.844821212922871,22.59996967518015,0.08300721551099863,-0.25088010958060825,-1.5866288552288947,0.09257403789526025,10.213549297216526,-0.9192859489703977,-0.09383077232062847,9.25331599081846,-0.0018003067047758746,0.016124719644103374,-0.008002371790279473,-0.03676204893415133,-0.045649693574680926,-0.016323487256991773,2011-09-30 11:50:47.014477539,6.659814026
49.034414489251866,8.394770741905054,111.98076065092765,0.05674107866615269,0.017255256446593557,1.7139233170462786,16.305913277431127,-2.0447680698061563,16.311542836601895,0.09009396176380684,-0.24893329410636755,0.5938304651213089,0.1057232961445353,8.79425985020868,0.17079081578961297,-0.7317416671890269,10.24723260768259,0.012576103622216716,-0.0036027070977975983,0.039709629853406654,0.0018961710659084266,0.11135025148804487,0.05115156266144483,2011-09-30 11:50:47.124385543,6.769722030
49.03396710113026,8.394521086784762,112.20203175558865,0.039013020827237364,0.014822578731677076,1.712982662757458,2.485943347740907,-1.205278103371702,11.519932880641324,0.18103905844508908,-0.02124064556483421,-0.4174401527182319,-0.05444856722735125,8.708790379487386,-1.070019338504841,0.15422237835472538,10.346258469277934,0.039403834302175235,0.0008588129037789966,0.015580278262803466,0.040721914869375146,-0.03678722488419466,0.002017128032763724,2011-09-30 11:50:47.224361430,6.869697917
49.03623722787789,8.395186696691086,111.30293551811917,0.04626980245077671,0.013671998051138789,1.6924062448096113,12.456667675904619,-1.3061239662038626,15.61459517424023,-0.7356979737009396,-0.25840440791596986,-1.4707730292345824,1.1116353787958877,9.401389817313207,0.07632123866289442,0.8411985463115348,9.467030018031629,0.05555466430777288,-0.18761690763897698,0.024814568023904485,0.020921708270254965,0.2558235535829952,-0.00730250803308398,2011-09-30 11:50:47.334371376,6.979707863
49.032466376102946,8.393934023113076,111.55429303743217,0.04635986464683743,0.016102917218508168,1.683230239718772,6.331999677755117,-1.145071621260251,7.706202614480856,-0.03502695623649219,-0.17348131759821278,-0.8903345058730661,-0.11590963096097467,9.261940389729114,-0.683769216567943,0.4256084264846531,10.556255038346707,0.03857240280975367,-0.06496130185091933,-0.00810230681602017,0.011513407385310948,0.29289145315215154,0.12193437866351427,2011-09-30 11:50:47.434383505,7.079719992
49.03007779505229,8.394228305738585,112.09076235287303,0.07518295274963101,0.01992158937463712,1.77792434744415,-5.6067986867622945,-1.3568507385301882,-11.999311974288547,-0.05893337930772124,-0.2279035572666234,-0.3424168166117267,-0.09812809927528993,8.7255781459599,-0.44645884932994134,0.0397698961425073,12.044729412787367,0.06252405376894325,-0.016856159079269843,-0.0007295529917123603,-0.05719209273754452,0.07014040312915296,0.0028808496241316556,2011-09-30 11:50:47.544408031,7.189744518
49.03311919512065,8.394379125668822,111.94136513214195,0.028589983115216808,0.022090554875186744,1.6904229557338353,16.457305269672386,-1.7132219537638858,13.929564420201434,-0.21946039459501387,-0.1583794986744411,0.5999465582145241,0.22413924501098567,9.485744470915844,-0.6170668154646981,-0.4648680920303789,9.79281618909175,0.011201670888929254,-0.04242086847350605,0.022145467420022207,0.05194507358620669,-0.018692253644523323,-0.003225204665975048,2011-09-30 11:50:47.644360974,7.289697461
49.04606178659582,8.3943969037808,111.53246090770286,0.12723041248162908,0.0182613042030785,1.7066178395995086,7.439943507554695,-0.2376144635938704,6.873367388816106,0.07390143813933302,0.007585347315410135,0.57301982804041,0.5135690028586242,9.025729018982673,-3.735946626906232,0.017676799927586265,8.769047246301385,0.002592159612519692,0.006377192467096974,2.2800746255437123e-06,0.03403266824844849,-0.02573237408573274,0.03033620625796921,2011-09-30 11:50:47.744381482,7.389717969
49.03459001917448,8.391716128856363,111.81815893526108,-0.016978415918788924,0.018915386322624978,1.6858518061643335,11.653626649830965,-1.8203262458090976,10.095810052539926,-0.17191994212257428,-0.16311813173688983,0.17108354957777488,1.0262155290532033,9.60721491866466,-0.5104530728170136,-0.5106267338732684,10.684447536586532,-0.00987552191396216,-0.013297419909196442,0.006112980759924362,0.05621732120968864,-0.04922401166400937,-0.002801806835888405,2011-09-30 11:50:47.854412220,7.499748707
49.03549603776095,8.39405334122026,110.75654158743988,0.20743575106135748,0.03167938979057236,1.6766037059689127,12.666622780386247,-1.4784421508404955,37.61061617652493,0.05908668736083025,-0.06537211803696641,-0.4663995456363685,1.9755340519360707,9.638301336387396,-2.504544462729617,-0.35577379037364953,7.1022835088675595,-0.03903754832121835,0.020672498985008496,0.21070588151175293,-0.17144878539493347,0.3290786918116145,-0.021230441249445824,2011-09-30 11:50:47.954573717,7.599910204
49.03083156115785,8.394656570096634,111.5579036117645,0.033117627764393295,0.010436420157604785,1.707968393214236,16.187169746369662,-1.828365016917248,-12.986429958917126,0.6032201958722717,0.031136734721194437,0.2926581343030189,-7.234966826484335,4.610787831080124,-0.4453643436904678,3.224704895419581,3.824396728358238,-0.021826507973755068,0.04384818338081219,-0.01568538783100747,0.0398553773706787,0.0033166756449885607,-0.024705720254412145,2011-09-30 11:50:48.064433049,7.709769536
49.01230629708294,8.394925265813562,111.4777521136558,0.02980128448421964,0.013557023358649634,1.6920501118901121,11.603564439241195,-1.13942958177474,13.05992531915394,0.03750143438569918,-0.12554798867976372,-0.10382886031215521,0.23536199716729667,8.986420443201549,-0.47572650864563704,0.17085556938611923,8.475924297235363,0.05639818086056022,0.02178321076553212,-0.0053157069506183105,-0.022915657697793225,0.012667124406725678,0.006539754000154389,2011-09-30 11:50:48.164424300,7.809760787
49.02708008627278,8.395607465399587,111.37380860320002,0.03428910254912287,0.003803394783281228,1.6922104941119287,15.437429502845788,-1.6032489286347453,15.614549744280488,-0.1356652610573693,0.050874891823456586,-1.092340493031342,0.8815276467647474,10.50120963224433,0.3515322488260654,1.0986493136971744,9.347779526838512,0.4882220394517974,-0.062012148568698335,-0.01091849353448637,0.019060281550817074,-0.16007185549021719,0.011673479071106907,2011-09-30 11:50:48.264321918,7.909658405
49.03429520769209,8.39500514130618,111.86063483283793,0.038357035341120616,0.01927962391598368,1.6841278987432644,-7.44659180070253,-1.3166213580235953,9.521855659416502,0.4764048717682373,-0.22112894604010097,1.132619301666566,0.9198922864666559,10.452988993972058,-1.1103942913667941,1.0497121704856973,9.041940479391755,-0.015250745595655608,-0.014658986419586312,0.010508475030113219,0.08592226136360066,-0.04095619068024821,-0.009978945753109226,2011-09-30 11:50:48.374516522,8.019853009
49.03338825478582,8.392105669495143,113.05429200560017,0.030797866255767754,-0.004010471347194818,1.67731157220829,16.88634924363108,-1.126691437423103,7.848608718112098,-0.08413644326166773,-0.3064510934615543,0.19464316680911942,0.09367091185945053,9.173748579213447,0.17745561475193547,1.3983545562274213,9.407927546812111,-0.6910908236239046,0.005795906975289395,-0.0003207299230620403,-0.013442062707004817,-0.027925034639959413,-0.03670375371786669,2011-09-30 11:50:48.474440339,8.119776826
49.03625239806532,8.394763698054868,112.04910170050469,0.008528139143917444,0.00599819275930282,1.6683800504655446,28.629749224910206,-1.6614991091124238,16.326206265624627,0.1248075018184952,-0.18376472963164994,0.062106206135366215,0.37463512691383005,14.276936738391097,1.4944082066630335,1.1218218086734133,8.846407000273558,0.09549068722465912,0.020857630873856475,0.09273270118817585,0.04952334017572482,-0.09343784101202607,-0.007730113067638983,2011-09-30 11:50:48.584370192,8.229706679
49.02826082234459,8.394745985174275,113.14805845793616,0.04072902658426497,0.07738281091078729,1.6886282118180793,18.015862500268625,-1.3078428229000478,13.844064753950807,-0.13293419838989723,0.28902924173930966,-1.6562052270034822,0.3212788566019875,9.585543247332158,-0.20734865646662443,3.6296648601972614,9.42440239662443,0.006117403438584619,0.035511499298824,0.008739423912880033,-0.060490628607682395,-0.028196564361927533,0.019792579038925753,2011-09-30 11:50:48.684354809,8.329691296
49.030540593268874,8.394536841688621,112.36887817295433,0.04729778496917716,0.020993121984416132,1.6919700100379025,12.08799543624592,-0.2779883915642416,6.2642777624137675,0.042944757375845556,-0.13605767647603212,-2.4728234453464273,1.3046305552807738,9.884269295459854,1.1251063464145936,0.957641075573286,9.322988964913076,-0.4745697341899015,0.03409584661245855,-0.00495966139962806,-0.019109164095856522,-0.013050522696029156,0.016386377879103194,2011-09-30 11:50:48.784332687,8.429669174
49.034725375921525,8.395138667042195,108.23754700475224,0.0686090411055856,0.010382764955619211,1.6926306385906145,15.374656001825937,-0.9373504875086762,14.241100648299106,0.0034125398581620267,-0.17894505426208165,-0.08896069244817392,0.460658011887435,9.29166045391143,-0.4277431836605048,0.17445649532980062,8.823594553832589,0.07845743931828872,0.0157043018892014,0.024331222591148803,-0.2549531765061208,0.008709887073176329,0.13599704168198296,2011-09-30 11:50:48.894330855,8.539667342
49.036154990524416,8.394775771038738,112.04489768237119,0.03252824257961819,-0.025270833544883593,1.6808551282806021,15.67294816736667,-1.6028507803011822,8.413038398092546,0.13918375302390856,-0.14506034009602958,-0.7995857525420267,0.1707744961022191,10.44583758090149,0.4145586936985098,-0.034228946908235816,8.39840399507089,0.02801512500515338,-0.02333398421781449,0.0278399474979321,0.04883262480848704,-0.04704261893881386,0.15196948860534232,2011-09-30 11:50:48.994545298,8.639881785
49.03393893037175,8.394798035055517,111.89712810509123,0.045399652410004376,0.002287682181822858,1.6866724916490652,13.89779689306814,-1.6197681364669547,11.346451953443179,0.025614000992111335,-0.0805507521326661,-0.6614677057794598,-0.1951656067899718,4.850660165001236,0.6217346151348697,-1.2155422469320551,9.758581986164913,0.002261953424103784,0.0291383460313114,0.004342596913929164,0.7444463994731464,0.11965147697493808,-0.026292369507679606,2011-09-30 11:50:49.104343491,8.749679978
49.03770906981893,8.394683492252147,110.84141150295339,0.05155395819908877,0.014548091848759605,1.6841443874617716,13.85446372036049,-1.4009501511210793,16.978171588504342,0.0692505920432832,-0.1743853282377153,-0.37955957301568005,-0.7245186941213998,8.819858034450274,-1.588098520758123,-0.09800692284716184,10.543996066162164,0.018243316822832152,0.019096554811497184,-0.0259976117107728,0.04469676269985401,0.05053444433657399,-0.005327288250525781,2011-09-30 11:50:49.204333178,8.849669665
49.03388677224487,8.395148421683174,110.85802154532418,0.06343390470261795,0.009065397714312775,1.6924618881387605,9.38450565805457,2.0254307067355803,28.942496536293977,0.058930825130499034,-0.10360217238270107,-0.576329281078859,0.02426527053631116,8.021666070189449,-2.673511654970318,-0.4871689086755682,9.129979245274999,-0.4707175344803697,-0.21445463372731954,-0.025935737125988748,0.0021124971010811123,-0.012564088872507363,-0.009789159041740748,2011-09-30 11:50:49.314336112,8.959672599
49.02890656856381,8.393714694981925,111.27395114798071,0.05635102446310336,0.02322787488210353,1.6646996536700498,18.50579868662282,-1.6279678205742345,10.361667609622053,-0.16660915886183253,-0.4389773300526727,0.021647704814357474,0.703943053360994,8.576435972947221,-0.08935132247828612,-1.2606279210957345,10.536757425136173,0.6234086529273621,-0.0117868486563832,0.006052707024955233,0.2913139435125283,-0.02353708628783613,0.11258767466473,2011-09-30 11:50:49.414358681,9.059695168
49.03746061039986,8.393688657249122,108.05878456558237,0.022438889554945104,0.023580283854703295,1.6921727833298632,16.432554546282134,-1.6294087835782904,8.94817625527265,-0.110622005518448,-0.2521313066733135,-0.8060520623675922,-1.5592769538190878,9.367950825273898,-8.023320029757398,-0.04803860718142311,8.770914077520748,-0.01822374510515781,0.007655954808724019,-0.05695017357404862,0.02762367124966589,0.029439780672685822,-0.0181614085664029,2011-09-30 11:50:49.514365720,9.159702207
49.033821603116444,8.394491787340915,110.9211321891858,0.011608801228550084,-0.0011609761587026163,1.8117995314014137,12.139906928013401,-1.613878808243889,11.9877974806524,0.006649427207969141,-0.17101886652155185,-1.1951471493972714,0.28584338682033217,10.724257377958,-0.12331655233791897,-0.8611823389626395,10.292077897973172,0.004144539048674695,0.09496228323514315,-0.03423959774594719,0.022162192403275605,0.0003885684843019108,-0.012835795792521363,2011-09-30 11:50:49.624320062,9.269656549
49.03596143139532,8.394825570742091,112.32965936115998,0.04789826711877234,0.0016435300336079418,1.7019631356427511,33.49919554188966,-1.8248914617523528,15.583361454737174,-0.1319353002320822,-0.03278614814508611,3.274726477770188,0.4922703125914873,9.137980596034193,-0.2906141003743705,-0.6004596191822953,10.526133023699945,0.08565556241973415,0.034250241661830425,-0.03021268315714091,-0.05954687155517902,0.04378743897802752,0.0058020665918988214,2011-09-30 11:50:49.724388556,9.369725043
49.00777730537581,8.395134178938347,107.33050396648457,0.022720959094319572,0.0025616559804424663,1.6521525582481114,13.891459387756447,-1.2867277629076803,8.51484108185677,-0.18147880736457922,-0.09277690911839095,0.05865962107959304,-0.8733973111839517,10.436478381329445,0.045079737575711876,3.2328754329532567,9.32795522938669,-0.106828953775081,0.057883475909910775,-0.058048143394282034,0.007343378628919588,-0.05450758782630576,-0.02812843689205833,2011-09-30 11:50:49.834326453,9.479662940
49.03364404557377,8.393829280101858,111.91575709797068,0.0394400878537499,-0.029128344567472084,1.6658699028838342,9.481698000987999,-1.1268584048830659,27.99670817268532,-0.05584980366027327,-0.11809471941828684,-0.14565057644885493,0.1383284769937805,10.085101171743249,-0.9052303380618529,0.259445636711884,12.252525062026242,0.0179027271991683,-0.0826468490792571,-0.02743905628713234,0.03639248064857835,-0.14901001152801768,0.0036407837163570152,2011-09-30 11:50:49.934333801,9.579670288
49.032575795048515,8.394812651204786,111.65469385727707,0.06019830612907007,0.018683079155179548,1.6661448845852054,18.22364762188964,-1.2287199706496625,15.941298267717942,-0.13861688704585545,-0.6214352274890678,0.12084502406400549,0.7610367654048813,10.044158404108986,0.5711198687930124,-0.3583073990190898,10.547705762859012,0.39055453633609344,0.02180405180887237,-0.01635949775780375,0.0012943436889264678,-0.0011430940872812542,-0.029510072118708812,2011-09-30 11:50:50.034591038,9.679927525
49.03469778907382,8.394253881865906,110.8928618961463,0.068140929254777,0.04744993271301181,1.680572540814935,13.487584047916416,-1.4241226028061915,16.75002758864625,0.05124696663874605,0.07375728163718637,0.6289249826649128,-0.19745258541436073,6.889629096126833,0.1630561455278389,-0.555827777578956,11.350856932790098,0.09325849260850036,0.17076963614052462,-0.007995567537336889,0.021803802949536058,0.028237679182913873,0.016900548239009248,2011-09-30 11:50:50.144336413,9.789672900
49.06177241665394,8.395213669952112,111.8464215686638,0.07067661679723164,-0.0080469787482458,1.6295812805499221,20.247620376471698,-1.4452270759558146,6.705201456650111,-0.0017360935255561483,-0.255012805675592,-0.5502507851681907,0.4701781316019117,11.110648874737109,1.1747033605498112,-1.1506598281945957,10.380666341205545,-0.012113218004525634,-0.016216638006155172,-0.00545726149248932,0.030868347866693402,0.03467508086924318,0.003946162050318094,2011-09-30 11:50:50.244319640,9.889656127
49.02877137748664,8.395429389655892,111.48391752739717,0.027165769301365474,0.009186309061674662,1.6617006991209857,13.564199955267018,-1.381663733814903,14.29436320728344,-0.0492298195832928,-0.07823332340226598,0.3045631941744658,0.20991898802640946,9.67260576905336,0.4506559751863508,2.495985024431854,9.511805340471854,0.10962685692134409,-0.02893791634673613,-0.03201588731682489,0.04319583530369975,-0.05753326006005919,0.03794161947277873,2011-09-30 11:50:50.354498294,9.999834781
49.037472817167505,8.394634209349503,111.5840499884095,0.04148502056666506,0.011110213723629034,1.6690111638497556,-6.924082508644606,0.17459836350192592,12.620390242482012,0.11160164855447385,-0.19189988370430203,1.2195096738192674,1.056939018438068,10.02392629259648,0.9298033445617289,0.3646765976228511,8.984113625133535,-0.01640938311474055,0.039575205942618874,-0.03410989758743275,-0.04136022986924866,0.03644699124499989,-0.00320246925009711,2011-09-30 11:50:50.454494657,10.099831144
49.038143594936145,8.393021753453528,112.07319194644298,0.06479799498716923,0.013157552630222577,1.6694670568289711,12.67363024080237,-0.8803307358654089,14.82144059332147,-0.20186655049593247,-0.02312494915882872,1.006658651080106,0.09233528921760203,9.483727514415396,1.2010104195280478,-0.07092244778166161,9.127757137170496,0.03424514526785745,-0.014561056615167526,-0.007101073839793777,0.03870190306088253,0.025812341761423413,-0.00811031974330482,2011-09-30 11:50:50.554461291,10.199797778
49.032424768950996,8.395103015602384,111.96750363094026,0.04374495418793444,0.018253468484351918,1.6839100084317147,12.09142514281054,-1.0273889223720494,14.536845099857354,-0.05198844464880971,-0.20802341351097453,-0.30791380598535867,0.6913156911125091,10.093577839954937,1.1397802237968404,-0.16647649385931718,5.898915166670722,-0.001208364452603597,0.018191922971320912,0.004859285783795644,-0.3708424969039711,-0.007359604291463893,-0.017519743234141048,2011-09-30 11:50:50.664276471,10.309612958
49.03332143727009,8.395125214248548,112.21085863306622,0.04658103530294972,0.03994929528321817,1.6866355224752823,10.461865779415195,-1.3344234238210357,32.08302830203084,-0.06366355558210886,-0.0020974150312536854,0.02016314060164638,1.283456142168962,9.489213601464273,0.940826445084414,0.3641771524109265,10.827172389796157,0.030908419874344673,-0.02841202175670149,0.01127563144062305,0.022956273035518678,-0.009080970699341034,0.05018811476611734,2011-09-30 11:50:50.764439996,10.409776483
49.03643865268838,8.394597049704458,111.38318644588115,-0.0014858551519810956,0.00163896466690998,1.6819825648253133,14.308066589873476,-1.5974398374422103,6.542132393927758,-0.26417350805946405,-0.13115680055024345,2.9616169084193738,-2.502146029483406,7.806063311694485,-2.9895037975060674,-0.8773447753621885,9.008978151919315,0.06900959415670536,0.09766526855942669,-0.006181279165675164,-0.012969498719406813,-0.10920137194124382,0.0017959058840567206,2011-09-30 11:50:50.874408971,10.519745458
49.04011218532124,8.395383455780904,110.67450528151753,-0.010127620827398438,-0.00811989400380031,1.667318475999492,12.60767140095621,-0.6592456545462793,-7.47927543213037,0.044381670487146564,-0.21826717046930771,-0.15906653209684468,-3.829775396567691,9.222330652653412,-6.117682507937358,-0.001973829042782274,15.756489545108437,-0.013886340937203819,0.06350046386170433,0.2443866232638192,0.23578094807464983,-0.008291756923673003,0.0007754064741432275,2011-09-30 11:50:50.974370663,10.619707150
49.0369283685406,8.394481620726259,111.77519428031108,0.05778470207189235,0.00736483454068974,1.660892534769193,13.184070236162935,-1.5352103363939933,6.821731965494136,0.032195877544116874,-0.07337428921428434,-1.091887479755625,0.7101219610494888,9.388225709811277,0.27694518379493266,1.0904040691382673,9.852743687747234,-0.02324171240897809,0.021800157175497735,0.007849669321706039,-0.14488438803370807,-0.045836517023366524,0.024296409041421288,2011-09-30 11:50:51.084338535,10.729675022
49.03398620212054,8.394598991562576,114.25850621802589,0.0692551722956892,0.015068407117434355,1.6713076871818469,18.67702197072907,-1.2586611749995902,16.096927489136085,-0.008588281263935578,-0.12767061298716162,-0.6418282579821897,-0.04704317582056161,8.59092085638849,-0.09661403741379868,1.4352287026456563,9.989774953749997,-0.009076662060274077,0.014324926794960174,0.008966428229235985,-0.026461034123663435,0.023167972306696323,0.19650170956710766,2011-09-30 11:50:51.184294886,10.829631373
49.028027222862455,8.394119127415879,112.28473244725836,0.17711817171078806,0.018410810732259777,1.6658265015072402,-8.637324106071077,-1.3548197467859535,10.737997031318006,-0.09047843635397057,0.2688236117785795,-0.5896026224589596,4.137899160755752,9.659145179210327,-0.677782372585825,-0.39956606451615917,10.121273638516723,-0.026069590423107664,0.008084817780137213,0.06852011790072486,-0.04865203661062434,0.007456654933295159,-0.011461095155210554,2011-09-30 11:50:51.284350529,10.929687016
49.02832555612707,8.394980513440435,111.38261451378055,0.018205626795229368,0.003495671747410613,1.6959973831391646,18.231246443088143,-1.2098672648561575,18.161862394368832,-0.03869121543126471,0.028024952311002077,-0.4463126633746798,2.140020448280513,10.066169073695068,-0.46313928664299664,-0.32284311740565275,9.80426451852048,-0.012983362816505785,0.02626290782773446,-0.045506976909434976,-0.0459201258968991,0.004690792119875763,0.09092810941422604,2011-09-30 11:50:51.394300958,11.039637445
49.03659562322661,8.394928198058954,111.86217164879199,0.034443560691242596,0.010469612100856967,1.6708201761276558,18.426357319497136,-1.8658117485531602,-5.4769095689603144,-0.03827407260467159,-0.18397588317094588,0.82623407146892,0.32495818792916736,9.561254524427921,-0.12888618546855224,-0.06903533458528222,9.835541693969699,0.1425695396139724,-0.017684513140148263,0.019047304800050346,0.03544933293529306,-0.04728836117268247,0.030609434289175185,2011-09-30 11:50:51.494521101,11.139857588
49.03853423814234,8.394222185984528,111.75625193127362,0.026460013938054715,0.021470406597352155,1.6721468116479612,21.802714402317434,-2.4085422840949873,13.685332787878448,-0.09402809613227274,-0.19090996539481353,0.876551834437441,0.34456427308800075,9.507549102418198,-0.03929604136424733,-1.4706155534925265,10.23962689032315,0.0329743747315218,0.022957713797177287,0.0014676621502844392,0.07116865057738109,0.027390244328269062,0.022528631790634267,2011-09-30 11:50:51.604318050,11.249654537
49.03716156250182,8.394468243117553,111.70506106146222,0.097604644855143,0.04923613670511422,1.683471162110412,15.930295263060174,-2.4092416510704275,18.26072120985889,0.06562783024143662,-0.24426536056481063,-1.0823278481274141,0.24704200228436024,6.21141176965884,1.1534019552415362,-0.9663389166736048,9.075263636664342,0.044169457884929236,-0.01613672358773718,-0.012382468170838198,0.2995287250695069,-0.024124373181407494,0.010313314491545753,2011-09-30 11:50:51.704271605,11.349608092
49.03488221761262,8.39472321672879,111.72872544222233,0.09568596079074253,-0.0037356301468365032,1.6823549987174076,7.805820314613618,-1.6786248476036847,13.04727188244186,-0.036384506342874705,0.536485820906546,0.7729019109248586,0.5341892667335914,9.909521219940347,-0.9145954840490521,3.7494495748532426,9.911678496181034,0.015947059982712827,-0.032638851429299585,0.011422370631993998,-0.07802178214629382,0.15628628174623996,-0.10285973178164971,2011-09-30 11:50:51.804289722,11.449626209
49.03563127176769,8.39501439830899,112.19236694451352,0.10770138395620527,0.012697738573401712,1.8242036270568143,11.887238683213786,-1.6436146015993163,-10.993989820357257,-0.04066810620592719,-0.16907743475517134,-0.3548234949209899,1.473233106527954,10.127041357607801,0.08661899614334284,0.8999984667890335,5.494709424805794,-0.0674988004356459,-0.10284100295410492,0.026289917214794446,-0.010059970962593368,-0.0745561274360482,-0.034039975101291635,2011-09-30 11:50:51.914304226,11.559640713
49.002145769178455,8.393262576139009,111.76592965189478,-0.17894444329805742,0.017047861066348036,1.6848878747507525,15.2867626687149,-1.6790069781627253,7.800063251453066,-0.8234162132029381,-0.1789772345706092,-0.26628615409979006,0.7373822638043485,9.886172410144958,0.10029539404915291,-0.18299349115538072,11.205086425897253,-0.15263613771856882,-0.014420704141611068,0.01565382196325718,-0.08476617923026608,0.03950106785246928,0.0247248744574214,2011-09-30 11:50:52.014384772,11.659721259
49.03364217991994,8.393969729634513,111.27540602019663,0.04795152291027967,0.006622364129354863,1.691737774989836,14.26001642079466,-1.856195714903655,11.033247353288303,-0.046271200345208,0.11579477299141175,1.0602183968253744,1.2773738435614233,10.743928057029237,0.011847061615723256,-0.14178710068293884,9.583934617661463,-0.042563086493689894,0.016893847632455296,-0.012633551313129994,-0.06177156137915919,0.05643163866499371,-0.03670340821935848,2011-09-30 11:50:52.124331642,11.769668129
49.041479801200786,8.394212481826667,111.2781940798978,-0.08784554928820544,-0.0016086229207243584,1.6757717676246833,16.641401215293627,-1.284081550054525,31.72703106822363,-0.01678724305350831,-0.03326710959317802,-0.42412202373267205,-1.4100661575733506,9.835477064783174,0.9107530909480652,0.22854884917512597,9.59503244006841,0.0050408759492206225,0.05451329958244373,-0.026954233384361603,0.06529110891596951,0.10715467970848022,-0.01547196203475494,2011-09-30 11:50:52.224284571,11.869621058
49.01502085784366,8.39455760207921,111.3714834566543,0.02360311979306333,0.027858634813005295,1.6786808989671729,7.6793633181892735,-1.651752401447654,14.556993215008337,0.038033795174155394,0.10432733016734475,-0.4345756818028591,-2.4534804464116786,2.029282147829072,-0.2822541628411771,-0.6919394559239169,8.300445423484387,0.031563917678109794,0.019047813919806367,0.005206520130144238,0.0963965238565687,0.06664669036569917,-0.0015392598110031915,2011-09-30 11:50:52.324270808,11.969607295
49.0304824773247,8.394665931906962,112.54250267668272,0.0813164380090825,0.022613395396219003,1.7139642861522992,14.581339774805937,-2.15423791331851,9.053701398198864,0.010350780825685189,0.06967182131104128,-1.1166283625095783,0.3800522129328099,9.145307689564044,-2.5416054086016464,0.8903255391727305,9.493662216785669,0.03085355084644105,-0.004409967417751678,0.00448051838644429,-0.012937283260662236,0.009027126011369051,0.015221745438326814,2011-09-30 11:50:52.434253575,12.079590062
49.03950687531741,8.39402268938254,113.72591148565414,0.10848842553613701,0.019602196169526905,1.683895613632802,9.656003177687413,-3.857129268719153,12.632645170401329,0.0909530655591933,-0.24230260127083528,-0.030113260511609466,2.2858001573458684,9.549400896066485,5.203150750465731,0.6798024426180396,10.63054107712823,0.04593648745202074,0.04107815842035725,-0.007653966340361446,0.12133866510503988,0.05045653366193536,0.005637772569486575,2011-09-30 11:50:52.534372176,12.179708663
49.034631754182264,8.394814937621055,112.79147125232245,0.03978054216648571,0.004615985383209483,1.6831051882035362,9.289615439096561,-0.3832133407534364,13.332117503117964,-0.05332909101425799,-0.20773496833708718,-0.1518844207770592,4.5161620410218495,9.6029450808889,0.3750991797103249,0.507128674518216,10.267422434818231,-0.09286789665427395,0.28561930786444617,0.0018304349693201187,0.053042769843587884,0.022001486443373203,0.006855675093108462,2011-09-30 11:50:52.644263734,12.289600221
49.01905139582425,8.395503618266023,111.7884989014382,0.06442173867639606,0.007586459494419955,1.6973105495847525,10.736389096159739,-1.7536334175186237,6.579070645835706,-0.05268101919480156,-0.19434907726208284,0.10854791125120666,1.344870302195015,10.766133123287684,0.2645099666346771,-0.8099032786258372,9.160456893954514,-0.033875121454754936,-0.024317805459342996,-0.0030586839603658628,-0.1086646741171662,0.08903883483757587,-0.050745511760869326,2011-09-30 11:50:52.744279813,12.389616300
