lat,lon,alt,roll,pitch,yaw,vn,ve,vf,vl,vu,ax,ay,az,af,al,au,wx,wy,wz,wf,wl,wu,timestamp,rel_time
49.01976830377876,8.394494661176887,114.23261822482868,-0.04779813425470602,0.04398329570078946,1.690643094888092,18.1453331957875,-1.3675050900893442,12.284481958943477,0.066543929289985,0.05785172254770081,-0.5688321781092001,1.8164120690016206,9.60057011595025,0.9501024869846784,-0.1953063493139963,8.977810532008695,0.04152205830871398,-0.002091089565914311,0.01677223261822857,0.03183507618437559,0.04617528846157116,-0.018754373646559772,2011-09-30 11:50:40.354663513,0.000000000
49.0303568456648,8.395034889995074,114.71542985310518,0.024702806697411213,0.052377434170469625,1.6805109836775551,17.558261879497046,-1.466807729925497,12.647564849168598,0.028735403723930495,-0.12621788140103118,0.9019458805077878,0.2666902116131037,9.602299709397338,0.21270767031481283,-0.43605439461938517,8.770083177542737,-0.18851493573448322,-0.056845475606099774,0.015508909090691038,-0.04786924392867692,0.23248990733832775,0.015644382971191573,2011-09-30 11:50:40.454677373,0.100013860
49.033799815037284,8.394417898792558,112.59829247742229,0.04225820649153096,0.0132448307104841,1.6986314821287578,17.80843637091322,1.3320410555018876,18.079991565245727,-0.9021228931294762,-0.2724638372128738,-0.15291082993865115,-0.24459720472612417,8.98755891850012,-0.01902268167112553,0.2130621948554714,9.447224631915208,-0.019727202211693724,0.020982703133512914,-0.018515688702102778,0.157021479060887,0.06725426558835408,-0.013273037958819976,2011-09-30 11:50:40.564550882,0.209887369
49.032359480627925,8.394534089534462,113.11658643652791,0.05314540569281146,0.020967585592563683,1.673017659891989,13.699725369670759,-1.6497987292264937,23.419583607752138,0.6787156093399896,-0.24065651431562024,-0.44638242179032284,1.2218955743938862,9.753813309470344,0.07990536492853578,0.18336415436368106,10.48515296729677,0.020769185763915468,0.0036849115200862856,-0.027457652005213225,-0.062037011504215506,0.02974241142215773,-0.0049067200266088955,2011-09-30 11:50:40.664526758,0.309863245
49.031660587152295,8.3950124424057,111.60001815811148,0.01674094480950821,0.002379339310096094,1.6953517208053583,0.5893090663818601,-1.4310848812770107,8.374071589306977,0.18139646421950642,-0.3249464045935528,1.5749668019714362,0.763636821651281,9.826030775270874,0.9372514947304474,0.298434560865526,10.905739272236374,-0.03499277525480681,0.04700894825588173,0.04038439785365066,-0.041747986271244444,-0.30567143143200054,0.006945638779305049,2011-09-30 11:50:40.774533003,0.419869490
49.031518785147036,8.394941679763996,115.31332741837356,-0.07458097489587007,0.015886537145783725,1.7645334586068908,17.654887063189076,-1.3394392772342816,6.465148812448416,-0.03874974211148879,0.17297610157271387,0.7916085912398783,-2.219385765846486,8.742359302454512,0.9780611397100553,4.7706087953608085,10.60916058007611,-0.027011423682994654,-0.0522006397218023,0.08786647815849599,-0.12233589638833653,0.038852835508657355,-0.01431188008884799,2011-09-30 11:50:40.874667202,0.520003689
49.034315221744926,8.395043361278795,111.74836840963094,0.008764344866614746,-0.0021519348294610496,1.675925096489789,8.51211422497527,-0.3205036770277261,11.004638843995103,-0.19303284202813312,-0.16609640209725557,0.5086798940513855,1.2968758777656435,9.715143325558234,-1.4330988113557335,0.7294013372343073,9.729718480276503,-0.025632013505796743,-0.04454639053597382,0.0030415732176355204,-0.00453231594788559,-0.02256227457580029,0.010835548491736987,2011-09-30 11:50:40.974697970,0.620034457
49.034157336293745,8.395120900141622,112.56470586603322,0.08023466252232242,0.00703298825831399,1.689775539888281,17.051859064668825,-1.2987809448330194,11.054908150629476,0.049775346726349756,0.009266770001477909,0.014810593598112431,3.0299064216125853,3.7983129762008705,0.9864491450849806,3.901275550325696,9.265313068367234,0.030985150791845256,0.03189641801559179,-0.04963140781753646,0.3791893776917899,0.07966787364169223,0.10579088879854345,2011-09-30 11:50:41.084596356,0.729932843
49.027090284520604,8.395306064260131,112.24198693751981,0.03158209171343948,-0.020613384293773764,1.6771670646571306,16.64124650878994,-1.4763166044435543,16.540901482366,-0.0777512348607266,-0.15846257124414298,0.209761384898141,0.026496498886492303,9.70666751156309,-1.0611066890697052,1.6180084787451916,8.615582225134624,-0.04036919322181388,-0.03413898705009478,-0.02629440009173985,-0.029167228656594855,-0.06993394986710588,0.025135780294032024,2011-09-30 11:50:41.184519512,0.829855999
49.03254885350305,8.395031595812263,112.86888812853641,0.026841850291450215,0.01605668512916738,1.6752685906168665,12.873294069733253,-1.9305114429849937,7.059740196761632,0.03257762170999528,-0.029549101438759412,0.23588259045846352,-2.441298167329943,10.845158782870936,0.48287764899561614,0.4395169033619005,10.153727053390766,-0.01479219693735389,-0.05020743085918852,0.16624790293716818,-0.18721282631041866,-0.07298711170997582,-0.014169164142275611,2011-09-30 11:50:41.294511780,0.939848267
49.032955131905744,8.39537523421852,112.19300811692419,0.1529214436672032,0.018197074892273738,1.6204103637355471,16.798007094979347,-1.6156581893327309,15.082697249347747,0.1681713706177616,-0.5716247779757058,0.16331353426416745,0.717776611818872,9.762075397429136,0.025420449436322767,5.6057793329962395,11.884643030351407,0.0729593121704055,0.0015404847093390163,0.0072389251310839365,-0.11167999068965667,-0.0069780650818472975,0.031602791236738766,2011-09-30 11:50:41.394494454,1.039830941
49.0370861324723,8.397090061250317,112.39281649122718,0.053664590150493394,0.06002594094885714,1.552169605438308,8.890219957851091,-1.373509027534691,3.530945241097811,-0.2394373195408288,0.8858647523558368,-0.036441769055775425,-0.04780821505541638,9.882133513046334,-0.016096192772489082,-0.31053806413442353,9.170234964385397,-0.08529380414920583,0.015750118040183843,0.04014142997936918,-0.03396288321871258,-0.004907640201433062,-0.0010156132382318243,2011-09-30 11:50:41.494875992,1.140212479
49.03251148942982,8.394771323136979,112.63030649250267,0.03898625713744287,0.011830050710501663,1.6816786568508524,15.030978386882353,-1.7510425801875398,-1.521948260280487,0.06279236453889207,-0.14354215965984266,1.6344375447686499,0.9462089678506692,10.330283853769687,-5.528545544923196,-0.10833601164661079,9.74046656086633,-0.03351517367848868,0.06385999323405057,0.13203322118152508,-0.06644628960960852,-0.039873612087273594,0.013665264172666907,2011-09-30 11:50:41.604481520,1.249818007
49.03163539060429,8.394855022424336,111.54181472401078,0.017112544523518694,0.05716954948564297,1.6967871303009971,13.556031308944975,-1.5128798577020943,12.080817842383464,0.07146288410293436,-0.15340190759210917,-0.9770572935870906,-0.22251542496029764,12.544787588737972,-0.2353442778375377,-0.5465063883576042,10.255012286590599,0.6159541094836258,-0.0029472825333311144,-0.0175251555534977,0.05507383831441183,-0.006691693363289002,0.007984601839815718,2011-09-30 11:50:41.704506822,1.349843309
49.03174207181049,8.394137697950299,110.67250123054335,0.09775369710262743,0.021991402972186717,1.6981659339870234,3.192440833273672,-1.9847805407929453,15.4935411575477,0.0932498260095099,-0.10746130636111226,-0.8770149478766524,0.7433321991811341,7.682754661310897,-0.5450199624504017,-0.7992929861558881,8.289354375520489,-0.024624624165579118,0.10048603667439697,-0.023827387228596245,0.08711079265972854,0.023516614608811152,-0.017616304140789966,2011-09-30 11:50:41.814532877,1.459869364
49.056585427273205,8.394240099968695,112.88753613670784,0.021606697682371653,0.01953325738376778,1.6968432995115101,12.239950622152062,-1.3615587926889663,16.183834745341347,0.04896815388157773,-0.2423479672778534,-0.2503693676832916,0.3978323644481859,9.86868133507311,-1.7276773291141543,0.5466395475759896,10.234311198709637,0.3076301502219768,-0.027745383004745647,-0.013363837917552104,-0.009908688802796911,-0.06044327360932976,-0.011184051529442955,2011-09-30 11:50:41.914494215,1.559830702
49.03250041508466,8.394680931063377,112.69006201987388,0.025289146265848474,-0.026112803382187837,1.6986948089903384,25.105133165891672,-2.75195345485548,10.010913766800435,0.03552497728003033,-0.24610791928203193,-0.0864445754974702,0.4144470164990378,9.869531883853085,3.5036208059056935,0.8471807842968463,6.814415232121604,0.044039295700937106,0.12919695357089478,-0.027844014311665773,-0.006611209785742575,-0.0439076137006893,-0.013902902266529484,2011-09-30 11:50:42.024698124,1.670034611
49.03844724815688,8.395001170125179,112.96244998155836,0.051419777702519626,-0.005878719280993327,1.692200200576648,7.728003471639993,-0.9503587290337597,10.917863180194635,0.05845464436325552,-0.3257697361509503,-0.2414975118504265,6.209841089596063,9.725670513811622,1.1437518068342678,0.004869834841158049,10.006407932325295,-0.12660130600429023,-0.005550344674332553,-0.018644440412676946,-0.04450642174302284,-0.011843369633743167,0.015041872688208576,2011-09-30 11:50:42.124492431,1.769828918
49.03531758740813,8.39606438561953,113.14566341546694,0.03479725782421736,0.012690470425103089,1.679579861540443,16.517105443407644,-1.536497406478522,15.10716573522762,-1.2310088187010653,-0.16080771843941302,0.11714058506033104,4.194624434511927,9.650393022422406,0.2001955080938551,0.16488137715895035,9.186805704971475,-0.033061678983274306,-0.028827631423924468,-0.024545089497679085,-0.12989052924389108,-0.03096499869941369,-0.026507698319231644,2011-09-30 11:50:42.224508836,1.869845323
49.03601638962454,8.394928035550103,111.86795580739341,0.0813935992508788,0.023015419184474608,1.6638901974257265,10.870389310515396,-1.4179680113537547,15.596115154559541,-0.022304938470505905,-0.15037550197125304,2.093360617796816,0.8827818108007597,8.157628627614923,0.8899158017794409,0.08672506136789754,10.294165404097187,-0.061832349101454936,0.07044836183338725,0.1023177967393895,-0.19527301219240473,0.05660282942913003,-0.0076877543764563485,2011-09-30 11:50:42.334495009,1.979831496
49.044277018229415,8.394300122859484,112.77300829693573,0.19892717178213992,0.0304324536417412,1.6771716112750201,13.29887598819849,-0.8426160287125418,14.598427773915022,-0.16378432085723477,0.01833800408107017,0.1425317575679243,0.47694836415858627,9.313235459511054,1.0494885023097873,-0.7494336962556716,8.93425659547194,0.03825347210901636,0.02585381974517961,-0.1183538022049842,-0.019484183254064334,-0.018444218222075925,0.03088948497600942,2011-09-30 11:50:42.434482060,2.079818547
49.03771340516616,8.394840933236019,112.32074606145265,0.028383449748437248,0.09180214202489094,1.676967785857626,12.482448908316435,-1.5412849494598881,12.2483466981405,-0.07645033012531208,-0.13879333652305587,-0.6760056324448838,0.4519785988808164,9.693224158021653,0.39290151060024076,0.5675574177371003,17.39431035892387,-0.11074166832137886,0.0017105908112880833,-0.022249513236309998,0.04621877694546413,0.06758636838960916,0.011048044736899906,2011-09-30 11:50:42.544550561,2.189887048
49.03158162712621,8.395375805097691,112.8727724628836,0.05121054842175233,0.013613979056014372,1.7998936621715935,12.556882830556022,-0.8044849318356432,8.766537598435493,0.28242432782379184,-1.1143406503034785,0.1826251335873933,6.640311944404729,9.07413163399382,0.5824299307216604,1.1054740630029756,9.999281201985111,-0.01830374619538344,-0.019288625989413773,-0.023458370751285085,-0.011250440732852281,-0.014681190824533119,0.009514536379348442,2011-09-30 11:50:42.644533701,2.289870188
49.04016848459331,8.394824137169204,112.58982812070654,0.036891701070111894,-0.0030734117839187006,1.7689114381842563,10.663382563405424,-1.7740372203625887,15.377709075556714,-0.09046619181252268,0.036542082816339666,-1.677592827863661,-0.0299957702121742,10.000496450034424,-1.7277813474739538,-0.019819475136080955,9.450311388574551,0.5488491427940682,-0.012191264444416714,0.005842998730405179,0.11268276270153296,-0.05078145681870744,0.008588726034948403,2011-09-30 11:50:42.754615340,2.399951827
49.0305291685894,8.394228240235337,112.54280503775101,0.13061497559963017,0.009646055979910882,1.6811230575703178,10.265960805469394,-1.571576960003986,37.338357183405925,0.4644767720750987,-0.09765384419998696,0.4063205531463901,0.3771927872078025,9.83936426948411,0.61560760974198,0.49477244982275137,9.296055685639805,0.013955021799397383,0.014384389541498371,-0.14387593863427026,-0.15988701321108614,-0.010590179853392638,0.23924083876765356,2011-09-30 11:50:42.854474768,2.499811255
49.033943284415166,8.393964597322695,113.79074386575901,-0.0577338511288415,0.06820116192450537,1.6881780435924156,12.25465956994007,-1.3349884242094971,16.169343617920884,0.06338234469604385,0.01005678548884592,-0.22161959938009615,-0.8689386302235277,9.927027936078076,0.16724639238762967,0.0930348202155169,9.739503440541412,-0.09687535012312685,0.020925647823728293,-0.004880150325622871,-0.006494269083042103,-0.05335989516236271,0.00973129960010305,2011-09-30 11:50:42.954666845,2.600003332
49.033035018469754,8.39794000316427,112.59481199965066,0.016113368471084782,-0.005198660517431956,1.684614592817126,14.887669184537891,-2.0144316103157736,12.607510734407995,0.5079371965297403,0.4692114128569882,0.38660267837863316,1.0888823214677554,11.270370629753232,-0.7910587342496336,0.1919169934568083,9.800335329200612,-0.06522624133037071,0.12405598764788185,0.03866249544378253,0.017664329227612158,-0.014969559068717248,-0.04562733501950673,2011-09-30 11:50:43.064553620,2.709890107
49.03440690934872,8.394787271247484,106.32323836329188,0.024347237664787965,0.0030992418026219697,1.5972668016097624,5.863834528333975,-1.7587688056225224,15.343608057331119,0.07567138960576707,0.007455235167407884,0.6260193469274898,1.8669379359428633,9.008424222663391,-1.5242099519303198,-0.20266091315906737,9.65820186007824,-0.13137595751222605,-0.009994627965413751,0.028465482221722432,-0.07093409020386462,0.01197195583149177,0.010967429633177308,2011-09-30 11:50:43.164463227,2.809799714
49.03363759163775,8.39868954942752,115.57711941868145,0.0448140900807305,0.007466438839032418,1.6986052132658036,23.753359685836276,-1.3236952774683979,11.482003959324368,-0.0022637872303393723,-0.11355036876004398,3.0433775725893533,1.420470507790426,9.138034097507369,0.3637220506760639,1.039004503684098,9.920597140030836,-0.150069672997985,0.02014867365706438,-0.029672555889542308,0.01753203229106984,0.10264084009344349,0.018205485343701863,2011-09-30 11:50:43.274466733,2.919803220
49.01308550259107,8.394405780176294,112.13182518064994,0.04142368797930817,-0.03390861106249345,1.6859460894473008,6.030408238160863,-1.6420254524769082,16.583841215071995,-0.06809644220355075,-0.008292774239247194,-0.8754002843212594,1.1062167368522917,10.041686792117925,0.32286189966350637,-2.3946003739668744,13.811643113210593,-0.014230411430492725,-0.010193420647654444,-0.013102247346060376,-0.07666787654220034,-0.07473597723124191,0.004093308642073473,2011-09-30 11:50:43.374607792,3.019944279
49.03667693931791,8.396201006394321,113.21693865401483,0.022011523513732256,-0.015770443155751653,1.695916984470648,13.373534478878945,-1.3746681229014577,15.832979604826697,0.029888924469989555,-0.02731443333749861,0.8755317281484412,0.340241843756938,13.214375111005358,0.1923714502853326,-0.245364500901965,10.504692978701126,-0.008422818287742492,-0.02552583060278486,-0.14255396373714385,-0.0753031326020017,-0.04352959084517697,-0.011949891609275662,2011-09-30 11:50:43.474592203,3.119928690
49.039534370513294,8.395586384854271,112.61924700132268,0.05350466534878023,-0.008380175766998177,1.5844210910963428,15.403834496978313,-2.2601491179617685,6.041646208557117,-0.173131295871435,-0.36523288051936886,0.2766068603396592,1.276345994349284,9.159396216495045,-8.799685590269057,-0.02829478442009438,9.278502148453596,-0.25988734985472783,0.0031820931856498,-0.0015279944510633173,-0.1750495241849306,0.025690971076978972,0.0019926498754821464,2011-09-30 11:50:43.584435957,3.229772444
49.032939920540485,8.395198712753553,111.82160137943667,0.04969346002966765,0.014197642198896685,1.5671951417660643,12.689288484596753,-1.8761982019203396,12.5590398554059,0.12017290457429661,-0.09717403106420967,1.6447714298771414,0.2557670760220051,9.627884539190608,-0.21283920608820112,-0.16709488200852196,9.305241240047295,0.015084241329458545,-0.2274137755439069,0.0018116096989848935,0.07201995407756054,-0.028448258824580585,-0.035680395253530665,2011-09-30 11:50:43.684447135,3.329783622
49.033896672447696,8.395908293681495,111.8455763858478,-0.025615224829525843,-0.014309769659185147,1.6693932662209958,10.758875243111758,-1.169609744270105,18.646547258575797,0.12518718621828318,-0.17576300886368293,0.5944803267459464,-2.4290583934800747,10.880202438545915,0.5669500957025844,-0.15311903666840682,10.72763072624683,0.05153268179062336,-0.03055813488300265,-0.012480763216729054,-0.05308483069624706,-0.07261055349606715,0.027382721941454895,2011-09-30 11:50:43.794452053,3.439788540
49.032019701400735,8.39393929485504,110.77947476215327,0.06073824727317487,0.003974762548809981,1.7015387327991092,13.11537871706877,-0.31210129986902735,12.260909813117078,-0.0039884006838000335,-0.1497960038885287,0.169841453396102,1.560519406584469,12.083072120135128,-0.7709276048980742,0.9301496774447158,9.118404681016967,0.026329611508589285,-1.2172219490461794e-05,-0.029820120233946413,-0.0003595125315872579,0.03144324122410275,-0.003900043207934083,2011-09-30 11:50:43.894447846,3.539784333
49.032232339308074,8.3955999884129,112.45404877347094,0.026956544899436226,0.007000442752480372,1.618656071763322,13.959477214179795,-1.50845171342164,9.362916992856315,1.2133335313928746,-0.1248542681712281,-0.7940356879950186,0.02267518507671107,9.482451959599839,0.9006849730429692,0.4794879133669827,9.931674145402033,-0.011320005421504523,0.041554480121729825,-0.05847550733416365,-0.0216417591024188,-0.0020503063223120503,0.014034658636885678,2011-09-30 11:50:44.004559925,3.649896412
49.03245651479523,8.389657863210807,111.9056882823191,0.06315399204509706,0.004729834956392311,1.6752428681995264,13.98141307038185,-1.302029717203256,14.349815838855626,-0.028677857809467668,0.17380015953214317,0.025652268393867847,0.5591127978755654,9.095344044377326,0.7195501568814728,0.11020261413978774,9.723430455203111,-0.06774845755915383,-0.019119585709226283,0.011016046261392487,0.04579427449339537,0.0303481179949283,0.026716453421747645,2011-09-30 11:50:44.104450489,3.749786976
49.038451794616954,8.395069524237632,112.09023857183553,0.038517593055902126,0.007069972070114299,1.6753451948534217,13.334501980050538,-2.367026558119306,17.51895116239963,0.15012648804258527,-0.26880294452602854,0.174105824780121,-0.1154313752740409,10.121218487507791,-0.9470635157973344,-0.07728972575579515,10.484096041106156,-0.0882379226840207,-0.07723462793763533,0.017796340772739113,-0.012019674332752632,0.031050464813198682,0.04279886200426927,2011-09-30 11:50:44.204504846,3.849841333
49.031822322801325,8.396156570367333,112.59658933728669,0.050456577592945646,0.012940566045131831,1.6680663774171374,10.728377543791664,-1.7515410760825612,4.291742817064593,-0.056030089545996184,-0.06071946127476252,-1.0066191115000642,0.439089342907485,10.28844287136783,1.4983357619422055,-0.31444765964884847,9.660127492697166,-0.009150450993994868,-0.06719415087363707,0.043534941802587074,0.01286671353601854,0.019718295962249586,0.012791370135651934,2011-09-30 11:50:44.314455900,3.959792387
49.0324710027135,8.394018829477906,111.5866033056631,0.016837680513838642,0.0291289805712689,1.7098054917808034,17.99399879772772,-1.0727719162487497,15.765114798316201,0.23465726113825025,-0.10326271389772981,2.6805091165948216,0.4031534898028287,9.207349461676007,-1.0270902144174003,0.11927580306749155,9.94123739215424,0.08973934882527623,0.1043372700959378,0.004562149347311773,0.03744808169421309,0.061820942748603086,0.033087073170540264,2011-09-30 11:50:44.414449525,4.059786012
49.03246259505342,8.395103786465464,112.31682226622772,-0.006257839437944029,-0.000366517491068993,1.7006260060637812,11.327863860583545,-1.712291139812437,6.441622270877962,0.24529926637201133,0.0021021843530950324,2.2946301137536387,0.34155172677684076,8.283025277254064,0.42708185981508817,-0.06279482036199487,10.137170718694884,-0.08203302317550275,0.017402228322693326,-0.0031968170525263073,-0.167909713102367,-0.00624825627149961,0.011434141145586179,2011-09-30 11:50:44.524631969,4.169968456
49.032835194454954,8.392289187923412,111.81601872373669,0.008716268421056512,0.014975272464031547,1.720132556676435,11.617017408542033,-1.8802735205691001,1.4609708006942714,0.07617846853014335,0.053358173319112356,-0.39767122094927776,-2.8190975785750823,9.794037573144848,-0.48025510775896796,-0.17645669838110412,8.569475724390127,0.017816547256586185,-0.0179173976993154,0.009077483189189377,0.3299469067045171,0.09150489547955568,0.006771180662967708,2011-09-30 11:50:44.624450700,4.269787187
49.03209159136137,8.39581072813457,112.88625284549619,0.014723215432795957,-0.00021648523803075546,1.6991262959055857,9.584099946856043,-1.4568207950809604,15.238223129819671,0.15393170919915133,-0.18405040307275464,0.3983092238121982,-0.021348609869822566,9.718209603951921,-0.766531570034701,0.03396392161500058,9.421244282658094,0.034201835216463465,-0.04329810729879028,0.005458445340697409,0.01947451670515421,0.0633320747372184,0.06001674317272301,2011-09-30 11:50:44.724425744,4.369762231
49.03051256830755,8.395122939640187,112.08024191418508,0.08111221732888844,0.0324853246878305,1.7121965545882283,8.960290526727995,2.6229792734661492,19.07392051802363,-0.06228798012606307,-0.1144975189517876,0.5377965151402032,0.34984651196280825,5.816484432057096,-0.48915187718638453,0.36166477133525887,9.883119834669149,0.03562055521886767,0.02845156988957389,-0.05643709373444028,-0.027556132516386157,0.023176017760114083,0.01820137227822968,2011-09-30 11:50:44.834451378,4.479787865
49.03493749730982,8.394641994178418,111.57039136999788,0.04503458849629316,0.019944975486760802,1.5954128875179996,12.53213379249907,-1.9567717274473,15.922475668328573,-0.04918770814185981,-0.15567808621834484,0.8781743405810878,0.4410501327046214,10.157132686236084,-0.2562675656659747,-7.775113610583749,9.509157600273555,0.04816625667500203,0.05207448488406029,0.03149979513378548,0.04158352059547961,-0.04065055773198823,-0.01664014071363553,2011-09-30 11:50:44.934414617,4.579751104
49.035412899814915,8.395182312542625,111.87899449802347,0.10251236131534039,0.01827535075314241,1.6835742950390504,12.737548409692515,-1.5558376533306777,6.77562822928211,-0.03335619293505114,-0.02628177586843433,4.101436504338356,0.559533557936271,9.592459717505719,0.3877110570583797,0.2528942870131839,13.776441658580152,0.11162505307382777,0.014283728499103393,0.034689041522534096,-0.003538358684831419,-0.2841624898034039,0.0068959531810456765,2011-09-30 11:50:45.044514786,4.689851273
49.03433153351332,8.39666205567767,112.26093264660943,0.0656998586127545,0.015541048762875771,1.7394412532052472,11.297481831179361,-0.9841897928476616,12.94632403193371,0.07255616099767755,-0.2695437778293155,-0.20716737993626846,-0.5928373268900499,10.176918186411013,-1.012781025087813,0.02353168731706068,12.490946567183146,0.009813421260565797,0.017698511827772125,-0.02759410730864284,0.004717342163334193,-0.04491645190747489,0.01351542914512272,2011-09-30 11:50:45.144418893,4.789755380
49.03170148140355,8.394679600791289,112.3247546210271,-0.05564617314251217,0.010945784522325409,1.6637760896774116,12.281883679237945,-0.5877995002558932,22.396244528064436,-0.03845859187629472,0.0027103341155745864,-0.8924208296860777,0.7822978543821124,9.914810518694367,-0.4770297443532119,-0.13634482309706775,10.723190644708248,0.0147976462013151,-0.007131315943884877,-0.008768077372134635,0.009887308657514662,-0.008195902460083039,-0.01486397727135749,2011-09-30 11:50:45.244387967,4.889724454
49.026858461077516,8.394970442233202,112.173341308457,0.024966603381815083,0.00013664299408094015,1.6213955133478677,12.433262383938638,-1.7413310951144163,14.944317064780032,0.022585478754488353,-0.3350834165305445,-1.1824039821238475,1.0790507862484588,10.152738248282983,-0.9843807787603155,0.09230432944422882,9.860876038325054,0.04245641973113756,-0.06792956390859889,-0.01799277274400523,-0.048954135952987775,0.0475531427945592,-0.001871816548876179,2011-09-30 11:50:45.354372796,4.999709283
49.03559324089231,8.393931243010462,111.73654134126112,0.06682872545205135,0.0021572035122316077,1.6620447810420007,38.02659991076922,-1.9500385689721687,15.62263618046271,-0.2664401401235777,-0.13039493440301156,-0.6928388491169993,0.7399456724145468,9.729061143418273,-1.1577228144027978,0.12772996806456255,4.936498254041835,-0.07270316513289432,0.00014910739136570362,-0.029615453998282547,0.0011439185008173067,0.02737367784492248,0.024240074443537138,2011-09-30 11:50:45.454485166,5.099821653
49.03615221719042,8.395390006910796,111.91353405999834,0.008143790981496861,0.016847624413763383,1.6658787106188058,-14.038000424961663,-1.344877514925204,13.887446990906255,0.0600949788749689,-0.6884275428624654,-1.9780460689836423,0.5705591063383569,9.508257399785563,0.6696196489618635,0.20164608281381943,10.900730306744325,-0.01457189328295318,0.025732261764420887,-0.016731288140199606,-0.09421211250468868,-0.03103343968425176,-0.08925497877788055,2011-09-30 11:50:45.564594254,5.209930741
49.061247363201474,8.394937249455731,108.48827947619175,0.2576656039919196,0.02335236608995755,1.7151778087122598,-0.706499860044044,0.2639671271612656,11.635018604156894,-0.22497860409287562,-0.04611003480742515,0.4514946822451583,-1.8009047936701965,9.758819305436004,-1.050635052471351,-0.6757211914171017,8.951258769663005,0.5936023565798333,-0.024035168801442672,-0.03432469722984867,-0.021485148846606607,0.06646325259560207,0.023737244437567702,2011-09-30 11:50:45.664424182,5.309760669
49.03681814716873,8.395446245889122,111.58012042522331,0.07329506796320406,0.028321244685480154,1.6600592353444052,11.677499597866841,-1.753507582425152,35.18987394777857,-0.1436146915843088,-0.34226200813436364,0.049098874049939456,0.028987884400194286,8.996779205565744,-0.6201295258833868,-0.25661895126702816,9.350900614632504,-0.01916889836875175,0.06560596831432086,0.07275394504595811,0.07783911581310543,0.05796348621215055,-0.026306254876599832,2011-09-30 11:50:45.774403107,5.419739594
49.03054830067278,8.394778419766766,111.94077213877,-0.026470603728231963,0.013664059991902799,1.6844208465848138,8.957335076132068,-1.7803145585572018,13.854521027381788,-0.03445022304255448,0.16513432696947533,4.36762709235973,-3.241930226544581,8.96664186829185,-0.5848518550268764,0.3824869413854296,10.189012123770787,0.1949394561107073,-0.03378163227167962,0.033920590325623945,-0.08695158439196371,-0.10991258769519585,-0.026493081596170174,2011-09-30 11:50:45.874578123,5.519914610
49.03492209253169,8.395254534842755,111.65620570156945,0.015395903518774815,0.01912437067574438,1.6866999386909216,9.637857571287316,-1.3278116431276656,18.65337051220747,0.017876406148111357,-0.17337994852194966,-0.8490687440489505,0.44938497267236566,11.079484367874773,0.23360137715729637,-0.04758730437616819,9.218155015518795,-0.05855102670465959,-0.006045370674859515,-0.011357116125120827,-0.04171746806971036,0.002088920661781111,0.03227654116908033,2011-09-30 11:50:45.974638331,5.619974818
49.02968695431797,8.394345466761958,111.29044266966629,-0.1548129062790808,0.019718830317311566,1.7054650134848077,15.003401980435054,-1.3771925969042844,17.49770046726524,0.05226609942266222,-0.2621821619907314,1.146671956876663,-2.9193663984961606,10.286963910526211,0.7346601958364656,-0.6671979449468446,12.356544733926583,0.0014140183580934988,0.09438077217855768,-0.044985294445235746,0.034027063873653424,0.03767900885368291,0.0033442453335273794,2011-09-30 11:50:46.084435027,5.729771514
49.03419896237407,8.395167898511588,111.78998538731285,0.014805661698274861,0.008299953594958052,1.704723967165186,39.33033787765409,-1.782888756308985,10.21647451242102,0.03234917396420738,-0.39645130007870066,0.2915106558375145,0.29587153861870563,10.014112857480663,-1.0912555039953344,-1.9089473130304224,10.372646900169093,-0.15783563974439332,-0.027024861996084813,-0.031567884262727906,-0.8272737892397584,-0.04532694736382062,0.013117127998282832,2011-09-30 11:50:46.184411452,5.829747939
49.03200097744546,8.395692543180344,111.84610556548174,0.028554739853879855,0.027710000497203367,1.7118369488256762,9.60937215853683,-2.0125943996453786,17.596839805194904,0.1093682857480331,-0.06106930241438095,0.8308307086179599,-1.5741448829690523,9.949679184461267,-0.8400853263459678,-0.20097599089284407,10.023912776812807,0.021509701361075502,0.07519706531806623,0.012220064061383127,-0.06202892192639037,-0.03661232139707646,-0.024568376701795333,2011-09-30 11:50:46.294415934,5.939752421
49.035324287756765,8.392562829323687,112.0723741259123,0.010872849527369905,0.014224248477408316,1.6843023673399629,13.576405133424993,-1.5458232197727368,14.294077895258539,0.1824248204112094,-0.19930949390450736,1.8839397168845524,-0.6359383662870968,9.54134033059114,0.41636290928400255,-5.7700354702832914,10.413378289347081,0.01486968061439103,0.02328303260747555,-0.005737913294652843,0.1486419881319189,-0.055959658459763355,-0.02245312465938409,2011-09-30 11:50:46.394398443,6.039734930
49.03309688998643,8.394625795710786,116.37861004872799,0.02035369885047497,0.014958822602018381,1.6754756932664747,10.417194934974852,-1.094984051393809,15.528155110230706,-0.035610140612412314,-0.022190020316918746,0.1085493636264348,1.3814840243121698,9.095117867716489,0.20795484266570374,0.1782666853384775,10.936240269557578,-0.03560177858068687,0.07012625889166636,-0.008337317857731905,0.09184718166865527,0.013487324518373723,-0.013457776231266627,2011-09-30 11:50:46.494572704,6.139909191
49.03751323597041,8.394976594313118,111.47063595017696,0.049150307358969296,0.03348396363646735,1.7011173803565414,14.077772160989765,-1.0400992707754686,11.857004346745025,0.07878239616970892,-0.31097246245681776,-0.6398036834764702,3.249111855601444,4.725431156265577,0.14581666828356166,4.775318623868303,11.073956259366266,-0.016631841597586003,0.009393681465516371,0.033639042444671995,-0.04630225423411248,-0.15854208109955173,0.02654464391725087,2011-09-30 11:50:46.604463866,6.249800353
49.03268277253801,8.394409187595905,112.42550216297028,-5.5277803045750834e-05,0.02124074899540137,1.6972412220384068,17.660915926286,-1.1827541913142396,13.184405123816852,0.09011905854484664,-0.0905038509315531,-0.16985044242771935,0.7581676574005592,9.291708915643525,-4.215925095338107,-0.5651465209610065,8.901084739778451,0.07577944377112485,0.0179291909431782,-0.01926797047555026,0.1316084888940096,-0.0538160295349474,-0.0018346243217479165,2011-09-30 11:50:46.704382604,6.349719091
49.03442439115808,8.394801780175303,113.29574543321073,0.06048751023340411,0.012758383235911754,1.523347746126664,12.206973621578905,-2.155253406393847,-9.33324968714879,0.1520800206029852,-0.013436176202986191,-0.5223371639149137,0.03644280368671704,9.852812047931096,0.014903782530363119,-0.47073417408115975,10.416120848533,0.012379800516752679,0.08449344274001908,-0.01623485052278726,0.04164562289261328,-0.007252327859192831,0.018085020156385266,2011-09-30 11:50:46.814388409,6.459724896
49.01848927001881,8.395515031496325,112.24069120661854,-0.020385534005615717,0.026090226929652054,1.6777435814443256,14.294661913625058,-1.7030936704312396,11.05836419756726,0.12992541174969252,-0.11859028382802218,0.5414913878130575,0.010621545361592655,9.280038260947384,0.10647506441494736,-1.9247138142585458,9.908695941755498,0.12471645651258328,0.024631927050739546,-0.02150932606229195,-0.020420673209412064,-0.019491792294618136,-0.004166872950956076,2011-09-30 11:50:46.914357825,6.559694312
49.03459138459224,8.39507595095404,111.73127728444415,0.030974923496174575,0.020505098392534223,1.678028053125218,1.9839336833309673,-0.32654598319431427,16.683908749504063,0.09069484637713202,-0.24700761775810862,6.009963086592324,0.6056611106265516,11.604197755275896,-0.16745804115845142,0.8261758498679949,9.986728283987855,-0.06240716647380423,-0.024216026357646636,-0.012978789411165757,-0.00035216023041956604,-0.0066840484545088,-0.011956145390855925,2011-09-30 11:50:47.014477539,6.659814026
49.03530444545397,8.39413802542938,111.61433638011769,0.012652621913364234,0.027308727919042458,1.7069717469472936,13.95686044529922,-1.5581907441366767,11.668822181499804,-0.04115626515826132,-0.1469711236127712,-0.09343695194301332,0.38730352038853944,8.82189948476197,3.9056558787312565,-0.2113500375470964,10.327540789984146,-0.01621867620277229,-0.030306036132278405,0.01316725285124812,-0.33974099602351454,0.2944144665103301,0.011622179267944155,2011-09-30 11:50:47.124385543,6.769722030
49.03167258855314,8.39433107958769,111.91410466909721,0.0452589692023533,0.09126400508247891,1.7622690774764442,6.549235843829713,-2.3367013853597873,15.227680652220922,0.4912582928244676,-0.20219342208685917,-1.1854016574425938,0.2118353708779856,12.454926419856008,-1.909619808151164,0.4774611571555798,10.547468003694473,0.053407773465009994,0.05247202167536157,-0.005131861884250458,-0.03002981435675274,-0.029849748763995314,-0.0901032908537239,2011-09-30 11:50:47.224361430,6.869697917
49.039016297154475,8.3946282339904,110.92712852637155,0.055644772326374145,0.03144145983312934,1.6847772199230173,7.53164200388614,-1.5386472378464096,-7.259359806708199,0.0999642763200449,-0.02001418566084473,0.4690029311582815,1.1800959658354286,10.208869925732508,-0.07508350748407785,-2.9720184539913923,10.018814357834689,-0.04526950278141118,0.023824471037800093,-0.012639974037154666,-0.005110660595735398,-0.15695700473087643,-0.005497652001762822,2011-09-30 11:50:47.334371376,6.979707863
49.03414192772116,8.395629790193118,111.39389693802849,0.07597904065727445,0.015336432846160174,1.7103435655077852,12.951801124928979,-1.7474530085760849,10.963920230762792,0.11442326343217571,-0.3339073060094194,-0.9586504337225825,0.3201580525844016,16.692042657826654,1.399347814727091,3.2288771541252532,7.482476640592928,0.16181186906839193,0.14091834385565927,0.011846483987351103,0.08250042311654614,0.04736595426795974,0.01937987741645409,2011-09-30 11:50:47.434383505,7.079719992
49.03680195245414,8.394386757307892,112.05767991277838,-0.018670707245186498,0.024776362468321076,1.7016086219364153,13.626055287588402,-1.2805965286716579,8.384434414409704,-0.009508142461190243,-0.2797692923668053,-1.1839826002152751,0.08616814253844218,9.897828678769585,-0.24051498972376667,0.642149961221239,9.858632782644147,-0.03844735027580656,0.020150203221320016,0.02059880285304344,-0.029470391762870966,0.09382933545553934,0.020116804566886318,2011-09-30 11:50:47.544408031,7.189744518
49.03934664056271,8.395504661519189,112.7435301920151,0.07081689229818178,0.09506991496422466,1.6849643323226162,11.536114097976993,-0.8671996264938704,3.6483936170997477,0.07415458090470203,0.07676718291096737,0.3528540519003509,0.8127268044894156,9.418147645015253,0.4685608986288257,-0.4438182141589904,9.91355368073592,-0.03351545379862038,-0.024905581469640274,0.037897680797017,-0.06832623791641824,0.3285153722976209,-0.005322153442835877,2011-09-30 11:50:47.644360974,7.289697461
49.03402870277795,8.394853696226358,112.37307904816157,0.01677747595585643,0.01174262638246636,1.6872332580545117,13.370942024824828,-1.382103570846112,9.212686830233348,-0.31706067581487524,-0.04934784207899748,-2.310764691441612,0.9692073827625134,9.819306609427736,-0.8956346848984269,0.3225447360521927,10.117525416882065,0.04139515272595801,0.005320772662477515,-0.04336995800007329,0.01898431664877334,0.02792077138873792,-0.001875481979852045,2011-09-30 11:50:47.744381482,7.389717969
49.03888628183865,8.393838649512345,112.18100793529744,0.04033071851604392,0.012241590167322647,1.674418216228164,15.997724881150425,-1.6867975427471165,13.392993763155054,0.06470582442136025,-0.011886556689169991,-0.15574562388521757,1.4649148538163703,9.223990973277314,-0.18744542900230238,3.2824340243213217,10.176855823504512,0.02881807371840899,0.02901184321634466,0.023276862385515875,0.02834383489467722,-0.0036322965871016357,-0.021718042326560764,2011-09-30 11:50:47.854412220,7.499748707
49.03173551994482,8.39410441621794,112.02825750478308,0.01182262056178257,0.010627127638454362,1.698204262759613,-9.940823322141245,-1.8273847463099946,16.793707698586587,-0.07271460334247465,-0.00025129627189740544,0.3063982820376278,3.5508524763697378,10.047396069683556,-5.119946538759437,0.46081946423183223,9.239445578206722,0.009423725750997456,0.013628439430233383,0.00399192351351889,-0.009175162051916362,0.04053331078883721,-0.008663808862187782,2011-09-30 11:50:47.954573717,7.599910204
49.033091247772745,8.394518383386643,112.12479496387994,0.08046012778160036,0.019751376072558825,1.7238922596654196,4.489884001332811,-3.235987876530033,13.597048603295406,-0.04174858265271681,-0.10463683628281634,-0.7365625183517863,0.30040303415729536,9.630553198658301,-0.7960529143274564,-0.05429444093645351,14.934062610411459,-0.04357037653285305,-0.04434179205511859,-0.012538453019760238,-0.028502294038704114,0.066083493273604,-0.013047462819966929,2011-09-30 11:50:48.064433049,7.709769536
49.031584960857906,8.394278670672602,111.97665937610813,0.09371483527727859,0.01641631851396974,1.6824827445175903,9.06163481725972,-1.8085328365275979,8.626073845656057,-0.07048514513766728,-0.09899653960164828,-0.3196461059427616,1.1404973026831295,8.98668345905212,-1.4324787397137302,-0.22811777469197625,9.642019164055501,-0.06745515543071649,-0.02513304981170942,-0.03248028710110805,-0.051043439276339385,-0.0024360206071674315,0.006079461164358566,2011-09-30 11:50:48.164424300,7.809760787
49.03162137671731,8.394263881743477,111.78310077733916,0.06887340929536968,0.02220299577381399,1.6885344364415042,-12.175214162968937,-1.8352011999135442,11.543957472903367,0.09292912679627438,-0.10890633566018905,-0.09121590155988055,-1.790314265868102,9.512137549324697,-1.079858161823998,-0.039737454741626516,10.862496230538785,0.03384983337509947,-0.017206987866900184,0.009679572634322913,-0.04045581473052932,-0.007264817423339159,-0.2950085066409186,2011-09-30 11:50:48.264321918,7.909658405
49.032180283879285,8.394311359723686,111.15502783063243,0.06359115917067401,0.025026539754031213,1.6676362521225212,12.071977656489503,-1.5234037610594235,12.40529669163477,-0.11050840394567703,-0.2865418538912399,-0.8110041743891349,-0.8812789384472719,10.822813006160615,-3.5581580990327675,-2.2558290274639363,10.801482863718888,-0.09933146505426796,0.02213568708228921,-0.0032417383851981525,-0.024978454740023335,-0.024316205419107575,-0.011990760062916193,2011-09-30 11:50:48.374516522,8.019853009
49.03729989987211,8.394307621965627,111.5481725360856,0.05179504204750453,-0.000919267885331412,1.68650679829953,-3.063651101525732,-3.643452135420242,14.181173002540644,-0.13239511124429593,-0.3531656495465775,0.2401487619019636,-2.978664219495912,9.57834464198934,1.3644230141934985,-0.3072163960571093,9.337427691449278,-0.09875549875840493,0.015116229542911041,-0.1956205850129854,-0.005770111112666992,0.051879683332670526,0.00686509244610852,2011-09-30 11:50:48.474440339,8.119776826
49.03084629320529,8.39563770569566,111.15920646462266,0.02059237156795237,0.008616554252053401,1.6905927228385444,12.616762770945208,-1.092727718019949,11.948411191446532,-0.04046592057176644,-0.285184785853718,-1.5812120755502193,-0.4243358978687421,11.02713452594868,0.3263313147056911,-0.805849908140753,10.40212297643281,0.06766190201374331,0.05715380214751911,-0.03359400925384878,0.49439623122887816,0.08275935676489247,-0.07826764735982528,2011-09-30 11:50:48.584370192,8.229706679
49.03614791740946,8.394519892718451,111.81764848555936,0.07534049635991198,0.01082392403820998,1.5993954615620523,3.9606704649985893,-1.375663636037065,17.744482808773157,0.20884793239075858,-0.03773897559341571,1.136555313022021,0.4795923427858525,10.1554863269015,-0.7699927380686156,1.4018932169059923,10.373511942754572,-0.05314706209437592,-0.00845563427347592,-0.10008153256026196,0.07399789426883038,-0.008159707950684828,-0.0072669594900864245,2011-09-30 11:50:48.684354809,8.329691296
49.03860387244731,8.395245580191546,113.13272399423892,0.05028033193725473,0.011531362001866673,1.6890182661637902,16.785258284796228,-1.9626982481529833,13.235287807123228,-0.06355081402668436,0.5170831328927123,-0.21589517045517992,-0.20434293921001145,8.894356397717196,0.5043576297210319,1.237611794011045,9.467687081202126,0.0354698725590007,-0.02255854554973567,-0.03681427918318412,0.09314975732332963,0.0582708895233818,-0.03999176907345894,2011-09-30 11:50:48.784332687,8.429669174
49.02484601337283,8.39216902848513,111.62028213916075,0.017207741322368627,0.011068191095354642,1.6952601331995931,20.511443106652596,-1.122555613677224,14.184740309889785,-0.31269008534849035,-0.1779716914057393,-1.0424907821096785,0.5711316740854185,10.432561135203933,-0.607543064919176,-0.7682511072679086,9.985651363880887,0.2823710276965724,-0.13000200742909793,0.045306063076326224,0.03403396093465864,-0.003035033821500256,0.1277024642922234,2011-09-30 11:50:48.894330855,8.539667342
49.015503579746024,8.396155251754966,112.54497129814403,0.07756440915055118,-0.00212163030367302,1.6724983745189197,7.817707372029055,-1.6171396409371868,6.073732308713106,-0.650550569957413,-0.10982930724295709,0.0387941790574422,0.5741715598323575,9.829870642994118,0.33535672129462785,0.6848322638570604,10.754010667689004,-0.07938359343272236,-0.06353224124970294,-0.01919111831691584,-0.037374328787935424,0.048460410357960865,-0.004658632093614215,2011-09-30 11:50:48.994545298,8.639881785
49.03882631807892,8.394850485803191,111.78548719941617,-0.054489577988385024,-0.02086798398606187,1.6791172350129495,14.585277731903068,-1.6916362587178095,12.773403788827165,-0.8970647423334406,-0.1687783370663268,-0.048070838316177145,0.14412447459414168,10.105183406311584,0.033823150671070334,-0.13881159953167826,9.026791164885895,0.0269010528873155,-0.07346720611051157,-0.026776929671817155,-0.03644331605277877,-0.2536448617169478,-0.02078368929723785,2011-09-30 11:50:49.104343491,8.749679978
49.03393333895734,8.39516885510562,111.7760085381069,-0.021349100231078152,-0.10005674908052142,1.674430899186905,16.10570145243271,-1.077045230051219,10.916400977844559,-0.2849104760389628,-0.08779631685717819,-0.13385880559874233,0.21432605963052073,9.064155682027963,-0.17297447954853984,-1.794129539420957,10.001003916775066,-0.021744540587554952,0.03677725144827956,6.818146248497095e-05,-0.07960731620574038,0.0683479634211222,-0.04588688909528777,2011-09-30 11:50:49.204333178,8.849669665
49.03225921439061,8.396632478045968,111.47622355263464,-0.15308824978808983,0.012001689996668945,1.6981388306760683,10.679324665057333,-1.6415018394830927,11.539583848503659,0.19022383918969465,0.22890917184530202,-0.2518144391774669,-0.36300538537489935,9.45331166370611,0.1577967668596496,-0.0681414272594292,9.800838426572582,-0.013498124468106582,0.020170230202095678,-0.004467861107242534,0.005015945058811621,0.03036603286108115,-0.05676152496676466,2011-09-30 11:50:49.314336112,8.959672599
49.03783636541768,8.393092672084244,112.19662624386422,0.018193383825050466,0.016533371846911813,1.6796025704923931,16.71130780251584,-1.364198808534216,11.167231702262388,0.03337360663667886,-0.0018761224060592913,-4.365500832308494,0.8919240922635667,9.057431815879974,0.2922218714174769,0.18529859937591756,10.757452220844327,0.00857161189786854,0.014890354764553963,-0.01178717894502948,-0.07573046565851947,0.0517557361109923,-0.014750305898388737,2011-09-30 11:50:49.414358681,9.059695168
49.03721493116386,8.394495305342621,112.40500572378834,0.0057400789919711745,0.029824813578522295,1.6734006777431543,26.76772210443191,-0.8983117156428928,8.721174912634485,-0.16664077055008267,-0.11045976245636518,1.2470640727798161,2.645461044849936,10.254636908022572,-0.6041954137600243,-0.15696599615708282,9.8515441868882,-0.2578973023540667,-0.015319380663060433,-0.011149923391203843,-0.007296418788277227,-0.29992769787815576,-0.01827555061369201,2011-09-30 11:50:49.514365720,9.159702207
49.0362660653855,8.394748868098638,112.01362789298226,0.03027731886058429,0.030167963883346853,1.6812661997166978,11.812426504384643,-1.4831700777664922,17.213669686173297,-0.17379226606231396,-0.1225856579413542,0.481112993876506,0.35457687562491125,10.555974653741837,3.8744469650284596,0.06859617153491324,9.28217791790204,-0.753256795382182,-0.05742387066868982,-0.012865319664705286,-0.03883842180357062,0.07475564431657851,-0.03950428786009286,2011-09-30 11:50:49.624320062,9.269656549
49.0312131749504,8.394607665416506,108.48126636149149,0.008952512584044107,0.07567110939489148,1.7100059781376193,14.409148291150814,-1.730072753870683,46.09433388730805,-0.15519338034316466,-0.15536202919988318,0.1585053289151817,-0.09504967632376343,9.952042379469416,-0.8577079301108691,-0.18130043868669735,10.224142339814465,0.12649929008168945,0.019158155811721256,0.05247969278746117,0.044550298648378645,-0.004709321851507407,-0.08109968844882626,2011-09-30 11:50:49.724388556,9.369725043
49.033409499883476,8.395148859009218,112.48437481533044,0.07859016780916626,0.007800140010414581,1.6224148933706295,8.863354681293117,-0.016934434009058252,11.905511711621903,-0.3729834095428228,-0.16521422995950602,1.5136826667573762,0.16833998385766463,4.222430687513018,0.09318759696650888,1.6483935229837305,9.037493273655784,0.277219202404753,0.001035607658758141,-0.02243484548858605,-0.1364145058352731,-0.01688620270759986,-0.06714482368130957,2011-09-30 11:50:49.834326453,9.479662940
49.037988509713806,8.394262712932841,111.82918180644262,0.0294601723668497,0.018236482669959857,1.6813203946247364,-29.137205692436297,-1.791734853489711,11.243845585774743,-0.5018114649896896,-0.062180866094705,0.7593131419811205,0.6827276177821513,10.453977513997515,-0.12521470842657728,-0.14730432061545762,9.271403356959643,-0.05863576807192949,-0.030802643126721818,0.019919709704241048,0.07323510275782429,0.0001957951296854346,-0.046998067446508175,2011-09-30 11:50:49.934333801,9.579670288
49.03729692073329,8.395900531870224,111.8551678510851,0.06104550444838549,0.006778383834483423,1.6850387129837576,10.628444563586028,-1.351118220957646,18.221862845363653,-0.13517152520247538,-0.036891181415975555,2.9385097199251637,0.6585977210449911,10.162044672785738,0.10741245835011501,-1.097916501608733,10.481211140366234,0.06206587570685954,-0.014971667999534661,-0.024468083481140792,-0.07815833508812235,-0.04845424337506138,0.0017552289316135963,2011-09-30 11:50:50.034591038,9.679927525
49.032352966918644,8.395297890083183,112.07332307070122,0.019194224535048834,0.013047787047495938,1.6752990102988623,12.60466444759414,-1.3975203822681652,13.549251872873333,-0.031066472842969206,-0.07357865805011461,0.5566874364546093,-0.2627207458750941,10.40008184586271,0.8140103296770944,-0.6336397728934132,10.78174782835632,-0.01833952388521134,0.0013533706257487154,-0.03412730401048281,0.02134651831555355,-0.009038769153287936,0.022736451847465873,2011-09-30 11:50:50.144336413,9.789672900
49.03655155364975,8.393485281379137,112.69995061179345,0.17586970331171992,0.015106897553126147,1.6648654830586924,14.965902980855574,-1.6366741861679996,12.047949185731522,-0.07239765988361131,0.054009459691507486,0.6384503218314431,3.9200869025401146,9.388706127093489,-0.8418367635849782,0.10488133688807272,9.852281794714541,-0.19503313358107527,-0.0955565739128156,0.003894490583873228,0.061105170963187426,-0.039893703995380954,-0.01786533756086026,2011-09-30 11:50:50.244319640,9.889656127
49.03840195581995,8.395613111316818,111.75186314711908,0.10696704657184118,0.015448902537302764,1.6725436776385958,11.104356085456862,0.7526042245272107,13.774035493744291,-0.13248731359748256,-0.07595891080538325,-0.17918162098224427,-0.23806760034516855,8.101864034590747,-0.11930422601711083,0.33636484157222934,9.579329249656396,-0.5725170132916524,-0.019909848219344488,0.007258798045377643,0.06424671921999324,-0.010459671655252821,0.024743165591295073,2011-09-30 11:50:50.354498294,9.999834781
49.035207329937606,8.394695231861956,111.7972477535195,0.07282885281290458,0.051603367004275605,1.6695464652096708,17.0345223189096,-2.238053053196138,10.3315628148554,0.0722853556002504,-0.1292301484354586,0.29798823236435956,-0.020318312894381324,10.45587386930719,1.383375774054239,3.7896129220956825,8.981643662098323,-0.2535856396302264,0.06424590550901439,0.03202540669317715,0.08122922144425913,0.02113686894169938,-0.004301795861191709,2011-09-30 11:50:50.454494657,10.099831144
49.044875761498034,8.394227008716117,112.08813111545781,0.01977343270523358,0.0030184617742098976,1.6771882120077013,5.7910606466703385,-2.3157625011710206,33.44458806406265,0.14992342943248585,-0.12687390500091267,-0.11804021665152795,0.005885676117852845,9.643571202974213,0.5075693032469012,0.5503074472358913,10.483379797005684,0.05347499076544191,0.023803337926837878,-0.0032757143335152695,0.5763540579762642,-0.09855333838301233,0.007010508552798076,2011-09-30 11:50:50.554461291,10.199797778
49.0367527168279,8.395065815265404,112.81789870365891,0.025362650076706995,0.017305226049154004,1.6895338465644822,13.267159736814502,-1.8283444602989378,15.710707359221878,-0.15653295090824992,-0.0012709086000152192,-0.3941624521754149,2.794499697620863,8.474444598413402,0.3299668639783276,-0.19076424753384175,10.723554308541749,0.01719744902041368,-0.056074251579203725,0.022826419101125716,-0.2995103438777702,-0.02608344655899221,0.008684235555152438,2011-09-30 11:50:50.664276471,10.309612958
49.03834029793168,8.393709293036498,107.99135795139367,0.044041401782804336,0.005941773006835795,1.6703016635916472,12.445161353517305,-0.7509816349097935,14.753231701193886,-0.07722488288008122,-0.04210315873363843,0.21245503240037503,-0.2912793805970431,10.418632588415006,-0.8756049786925083,0.16425998843232456,8.923959884637952,0.015272608853025149,-0.0443101296475662,0.012052200161413066,0.025967400967870688,-0.06914915560366738,0.028487296466948073,2011-09-30 11:50:50.764439996,10.409776483
49.034779743127125,8.394835847602392,111.45593726674534,0.06678719854022518,0.013041908474369646,1.6730855584584563,14.376264257974725,-1.3455965013254765,16.624097592041323,-0.5457062934723133,-0.3487480123322205,1.6828930052268325,0.1287860826036083,10.722566647415292,0.840711801254607,0.6537321076278558,8.83571884125975,0.07946619316718505,0.059695639725428275,-0.021363383635287753,-0.031088669110593638,0.0839641874351277,-0.016925853304917166,2011-09-30 11:50:50.874408971,10.519745458
49.03391925502807,8.394098165455448,113.32805646482946,0.05649412644407837,0.008783302024701605,1.7114895029929194,20.414852834522964,-1.254760628099533,7.653877271487752,-0.1505794397399934,-0.07150088374532654,0.7902644345413519,0.1180716840697758,9.546724088903053,0.5595082631871904,-0.7781268805873269,9.682367736527834,0.006719688221942831,0.014560437574707265,0.048560807890031435,-0.11562487431144891,-0.0031749670023642363,-0.006698086345557375,2011-09-30 11:50:50.974370663,10.619707150
49.0363136455319,8.394039837259184,111.42560567878137,0.07486679197423303,0.01680599858143252,1.6531898096157747,7.046967509811656,-3.220789202125803,15.093514778576612,-0.11302311530725019,-0.17635991118726194,0.7639672028009559,1.0840013100289916,8.612043468388855,0.09105171950666704,0.7904068015225487,14.305362280467786,0.01602975993995421,0.016393342878741463,0.046256255310310315,0.03491297402610466,0.15718369447805444,0.02276587912457893,2011-09-30 11:50:51.084338535,10.729675022
49.04605741569196,8.396005562427002,112.12349516414899,0.011051227789256345,0.030373541022095912,1.6833486319818942,10.747612253794061,-1.5589043692975249,14.102571836465,-0.08350784509270155,0.40334116662276787,6.630884272298027,0.27218542966116593,10.2400885198752,-4.298262301475579,0.050197021078913606,10.313640830844722,-0.06482072824952773,0.05899404665472013,0.02727011277247403,0.04393964966524788,-0.05087690288996552,0.024012405292173973,2011-09-30 11:50:51.184294886,10.829631373
49.03244632242896,8.394886760141228,111.47210261689895,0.0417116933175362,0.058751306014360724,1.7305565597050507,11.213731857034034,-1.587963457432312,5.434600202382702,0.12143306163206068,-0.21831428823340499,-0.5893771824959242,-0.5826526219260652,13.244898545563485,-0.34206192886274756,0.7690841944778847,9.976107100478423,0.049260810696684455,-0.16773559787593206,0.01016591236503864,0.010754691328899058,0.02823056521710156,0.013801189835597052,2011-09-30 11:50:51.284350529,10.929687016
49.038302295866686,8.395576625865035,107.63021063730247,0.02500108836439665,0.006042218779059168,1.6451591218899246,11.214233836974472,-0.8860028852503309,15.817520226913476,-0.11090590107064058,-0.12894810782926647,0.06554063489399348,1.3349402444149652,9.638737155986723,-0.54344838372734,0.12491028658427893,10.875106318909976,-0.04171495246320753,-0.21040852974856805,0.0049484792377964704,0.4271665949087329,-0.13056840430770159,0.009975753641810586,2011-09-30 11:50:51.394300958,11.039637445
49.035290320564826,8.394616550266147,112.44450152970236,0.024327163312961333,0.012829827301358324,1.6818476393726722,15.412457199357526,-1.942879692603222,13.544772257709743,-0.057943064877097716,0.048910565649512516,-0.21921365708795254,0.29483764571738524,10.554999607745561,1.0492842626198395,-0.06873217136918755,11.543072936614767,0.06650289833058773,-0.06353640354118338,-0.049215544966203964,0.07456348534395293,-0.013814959202992525,0.022289901934723317,2011-09-30 11:50:51.494521101,11.139857588
49.025721844528064,8.395122931277992,112.20820509120662,0.1860869909877307,0.017523559401823523,1.6653467014364083,8.276763405467374,-1.3801835093454022,18.751791468581885,-0.19407004976983291,0.04616980554455394,-0.06755797034751926,-1.120555803188862,9.538667159838708,2.9686583862386904,-1.3283086725424533,9.341233215697693,0.10426016644886157,0.008547537789795395,0.015393821302299998,0.1772823326881386,0.05234745743663721,0.011904415706541053,2011-09-30 11:50:51.604318050,11.249654537
49.031598905253816,8.394182281892688,111.72575283300621,-0.010055304932195724,0.023780812478092137,1.7339052707269733,19.876034816779814,-1.619856174792615,14.272581258557926,0.19944822243415253,0.08570513191130387,0.7562896331317708,-0.21447572727031206,8.47257792384423,0.726872751872524,0.10537914573914764,9.904782051299247,0.05580722768236411,-0.18543018308819328,0.0005284856686666381,0.14741227500336396,0.028573210816469356,0.016912936544114757,2011-09-30 11:50:51.704271605,11.349608092
49.03449746364495,8.394068733485991,113.0932476177471,0.07630746017918943,0.009512975158593697,1.7132677725706176,13.955206068033167,-1.7247404258367882,11.85227024195721,-0.455658781257846,-0.04007343180696757,-1.076453555972137,0.3335841282209079,8.83552104619387,0.06650542930190896,-0.5830137254222205,9.455062714614998,-0.0594561073176841,0.011148698934327874,0.011982803329711423,-0.03421625671392651,0.023175373103100767,-0.0046440041292967835,2011-09-30 11:50:51.804289722,11.449626209
49.03298188020036,8.395633523759491,111.61846233187984,0.08775906020435507,0.015562462821273815,1.704434428459143,13.65305268530319,-2.3845042370357756,9.184347948476876,0.04775886642828558,0.1754917352055576,1.9985386940487608,0.9015596416401014,10.152957722129363,0.21722466633914428,4.772268648821829,10.033443637319063,-0.009858824620352402,0.02006754716187796,0.020408404923856656,-0.09185204296201831,-0.04528943665163007,0.0029462006004864574,2011-09-30 11:50:51.914304226,11.559640713
49.03437150893019,8.394148295429906,112.38915993631564,0.07041856110578142,0.011339890344476461,1.6837632515811463,13.31704339333083,-6.072189829866484,8.001387190497084,-0.125136934109563,-0.11753323490879783,0.14923219755899642,1.3496234114787677,9.086634290788664,1.1464175105969365,0.03378655512792293,10.352739540704558,0.02893092644357977,-0.03842044314088367,0.24476247174389404,-0.031165793716552762,0.04677511373496086,-0.03997022644953373,2011-09-30 11:50:52.014384772,11.659721259
49.03150490655362,8.39421200697066,110.98729345880305,0.058871353407644544,-0.0002620325236659237,1.7240886568859062,15.706863197570266,-1.1241158362914647,18.267293596476538,0.03960162277966056,-0.0075130616766249485,0.407645939436985,-0.010755626721411837,9.834703243666393,2.4379087493116165,-0.441578093842854,10.36058789331974,-0.041481706082143445,0.013302948857915642,0.012041459320591315,0.03639998095972646,0.01966421034161511,-0.03137963912485214,2011-09-30 11:50:52.124331642,11.769668129
49.03823447114165,8.394570466228416,112.11251449254439,0.061589478556015285,0.02930092750713987,1.6832416469616247,13.33219660337381,-1.657465156089573,10.47103807771286,-0.026468919833470023,-0.12533125590720776,-0.2290923483329972,0.13162006820653727,10.407738205397433,0.954748903571638,-0.7279620683225333,10.594586913385493,0.04845522513386127,0.0866832318440222,-0.021495990494603434,0.07294945890297769,0.29467531027337823,-0.06288192313080637,2011-09-30 11:50:52.224284571,11.869621058
49.03314329828493,8.395672619740717,111.54072311360349,0.0988039394425346,0.01112049283691228,1.697110682132101,12.908849167171025,-1.3800453982613818,13.886335010581108,-0.06873955580538109,-0.07251203298669312,8.02899987486256,0.35135484000218675,9.388026692788815,1.1408144686563382,0.1582448420981917,7.5876207025134,0.24632844486247513,0.02055480761610956,-0.12496846499665722,-0.0053380350075863045,0.07528225411014813,0.24688110849240905,2011-09-30 11:50:52.324270808,11.969607295
49.028400487269046,8.392900489178427,111.66706919499426,0.01570809048641921,0.08827751275176797,1.7002638713411482,11.488229263868774,-1.4374802580586865,16.540288251279918,-0.0229875849330407,0.018463332351583456,0.39356662578507173,0.2229245118255459,9.07435782027235,0.025699537364516724,-0.8449699652634085,9.031711169680298,0.023015873746220307,-0.04653548931257982,0.14656011383281042,0.014823319130463333,-0.13404021815629844,-0.010414108815846248,2011-09-30 11:50:52.434253575,12.079590062
49.032373848513274,8.395790601319327,112.41220421235936,-0.054791734995624314,0.0354278813438077,1.6675280258049918,11.19425961092746,-1.6034865729911467,16.39480091541807,-0.19566229635002294,-0.2299466564071665,2.8605559665764706,-2.3424437522089088,9.505881218816848,0.5087801633675899,0.5895236657767111,9.478247831823728,0.027381115185925578,0.022071699264951807,-0.0037137252978971026,0.10973108925889483,-0.01496281178856964,-0.010105470173153792,2011-09-30 11:50:52.534372176,12.179708663
49.033522587588614,8.394393783387507,111.27010138807665,0.0975559592724035,0.025948756572488033,1.689797928996332,9.64991323152215,-3.0549092635161585,9.945257981765483,-0.27832526957806997,-0.09281187858383834,-0.3495387319664577,0.5383902846635191,7.314423115076029,-0.13522439753684573,0.11980299821992901,9.653339715371022,0.06374975192703453,0.010294151932680885,-0.018356634729916096,0.14867906182081306,0.016810401006878247,0.05674514687017322,2011-09-30 11:50:52.644263734,12.289600221
49.03518580839739,8.395262464171132,111.37512713422886,0.12108966415788128,0.004713705971375631,1.677697050377437,12.515394909449304,-0.864050367744783,3.0252399108099226,0.017497889635145786,-0.054502131787194374,0.4290803327385268,1.3710835925518303,12.97307696113441,0.34149047824336737,0.0419616291419542,9.070645588402165,-0.16070353516909427,-0.011981607831197885,0.06200507252513637,0.013558219852218625,0.04233101448394427,-0.02518501986432324,2011-09-30 11:50:52.744279813,12.389616300
