lat,lon,alt,roll,pitch,yaw,vn,ve,vf,vl,vu,ax,ay,az,af,al,au,wx,wy,wz,wf,wl,wu,timestamp,rel_time
49.03333787048511,8.393899822001304,112.10495134544355,0.061096940595837354,0.0004802550192661778,1.6974472892936512,24.682556760926413,-1.5657850790773609,17.15726288556519,0.13995884435648584,-0.031317148801974934,0.6728669068052908,0.34339593271437996,10.03131079776917,-1.0415994239812583,-0.32900240477595166,10.249582872575722,-0.03443871777190329,-0.009885492503091748,0.027181664435001564,-0.07120501439681855,-0.09643693148324282,0.003050649798273977,2011-09-30 11:50:40.354663513,0.000000000
49.03237900435803,8.39475847589081,112.20671015764971,0.05383813618820588,0.0294633575996154,1.6828139477336164,28.07432081967354,-1.1977888677463133,12.858483118146443,-0.1443006593636405,0.24486086984880454,-2.6705689229040455,-0.31334625439365354,10.604320483633675,0.4491954515938259,-0.019830096153988036,9.234915639435048,-0.03267474874745827,0.008093024938982816,0.01227651937088986,-0.04252532891135854,0.012348048091689458,0.011609828801953626,2011-09-30 11:50:40.454677373,0.100013860
49.03541840489432,8.395423976519426,111.55631169562947,0.034651045435453526,0.001214131918656219,1.6810352707228182,14.56264004144686,-1.6807361043485771,32.78941850125093,0.2671481380679849,-0.03312072477955419,0.5619014293838736,0.0028916824823031484,9.941649634763783,-0.1553656666393095,-0.4851776036402357,9.866729574674325,-0.0525524762611501,0.003942138828783742,-0.017485892649277877,-0.021876045725795903,-0.00310610969432081,-0.012423757885119329,2011-09-30 11:50:40.564550882,0.209887369
49.0272558285371,8.394479949236464,113.5419974133986,0.05957933852730408,0.010909186667121767,1.695772073730638,7.4412770848037395,-1.6011964588352545,15.320530199531795,-0.32956190850056377,0.2063561463675966,-6.038151957064452,-0.24152402540498685,8.590124929962247,0.5804438674336588,-0.13836997516841787,10.30753109299642,0.018739555502952226,-0.029327360119270403,0.0488849211815719,0.015654103357406687,0.005926830783062529,0.06469226677040218,2011-09-30 11:50:40.664526758,0.309863245
49.0338345994305,8.394040416061479,112.56075742092517,-0.09885701569018998,0.012143088048647823,1.6365010181552948,9.593157955725335,-1.612294900491107,16.0342033516155,-0.14836516785995027,0.012656531741043128,-1.1164916867247157,0.7524501582989815,11.90668268561619,1.1641640837299914,0.10666207991053368,10.450580947142136,0.10276406007016331,-0.029830878037143398,-0.04500708493576381,0.374044805276832,-0.2977824648896106,-0.0073917192732601295,2011-09-30 11:50:40.774533003,0.419869490
49.03743819350938,8.395440421268086,112.56226279101877,0.06965857221442294,0.015990828344295292,1.695439477269481,16.279143746586247,-1.614986303694881,16.74303098879234,0.18789787842868075,-0.03670190860422816,-3.560049264444856,-0.1359808621011086,12.946041225724189,-0.0187862447769771,-0.15912377190575766,10.207902402283844,0.027880010824631655,0.048838236475487476,-0.01718959369142099,-0.8064945091185957,0.006140981069724238,0.060237890847252326,2011-09-30 11:50:40.874667202,0.520003689
49.03040237360793,8.395827196131792,111.47156688047647,0.2872460407685852,0.019265649986602743,1.6857147905323084,16.038948816323728,-0.975494734382168,7.2053351928531235,-0.1938129953644348,-0.17103351587265753,-0.5625719607074228,0.8404150838108295,11.358070492208931,0.38194749580568205,1.0496299030131446,8.729873262445192,0.09019427830701733,-0.0435376479052665,-0.02189058583046471,0.059615403546914456,0.007682672046753785,0.011723244026763417,2011-09-30 11:50:40.974697970,0.620034457
49.03654180019531,8.395341041408582,112.4990414476744,0.1405386166408495,0.010596371859553515,1.773448479950882,-2.6190359172242044,-1.6238213789539708,11.679321522340345,0.0583155538683387,-0.03797565685748927,-0.43762533389946384,1.1870873377395794,9.202766053300246,0.7212940260098826,-0.44863780465836045,8.959623030639541,0.009849509451451478,-0.029733358051715397,-0.008998347931213355,-0.02663657930083492,-0.022895615008316144,0.0001395375511934545,2011-09-30 11:50:41.084596356,0.729932843
49.0301960730075,8.394709417744997,112.10612476929532,0.1808517798164414,0.013510815471599347,1.6875245743681917,11.784268467359247,-1.822666091808287,15.887709164892186,-0.1381922951392543,0.1317464255355014,1.6709070107832378,2.381088154713126,9.026570991455397,-0.2238927930192046,-0.5720502115077886,9.399453195953674,-0.056344357864119204,0.003901085206464521,-0.051515890814252625,-0.013478948000911227,0.03290293030655037,0.0013781930885887826,2011-09-30 11:50:41.184519512,0.829855999
49.02967997886387,8.395913956195772,112.68452746761164,0.06996478783342827,0.019172034009388297,1.6896377589616407,13.846732988164746,-1.1402230495327785,-4.028019331872713,0.016875779050457628,-0.22567351820559733,-0.9550177094430786,1.1801356504726663,10.064566697560178,1.8919024350385838,0.06431027708839879,8.672485981998683,0.016773292911762303,-0.023775775318772497,0.020955626042180844,0.037557822150914646,0.016929692629834816,0.05304725173887491,2011-09-30 11:50:41.294511780,0.939848267
49.03749842365646,8.395648873405852,112.59923540885394,-0.10224982498922358,0.028603445399900604,1.5376761729531176,9.22462825025788,-1.4509426829882761,14.690070262546618,-0.005304350767425606,0.2963668016807943,0.3355350680462209,0.19355923889938836,11.253110653379034,0.15561129589626985,0.23304066238567034,9.144920845111418,-0.033196467386002466,-0.0023586589175162084,-0.006608507734966441,0.007469542056506205,-0.007454856363504885,-0.01464207012282584,2011-09-30 11:50:41.394494454,1.039830941
49.03452253680411,8.394492679079418,112.65228475690934,-0.1290118174812309,-0.05879173047001882,1.7428794403075256,10.398788189819397,-1.4656002256759992,12.572675172723725,-0.028910583362431765,-0.21350392169859542,0.6575594341362478,-0.1970105201060151,9.444278842419136,-0.17887762050849276,-3.6610587455484813,8.369048367984774,-0.028672715743855645,-0.009834058068473851,0.006744940329583231,-0.045601664132306305,-0.0630702933456576,-0.010501400654076147,2011-09-30 11:50:41.494875992,1.140212479
49.03418673321464,8.400605716155413,112.08651651677654,0.041341919361749524,0.03038112994382403,1.684855571859743,28.7124414079616,-1.3812551577294196,32.77764007596277,0.14472406609946004,0.7152528729043612,-0.18060725866769217,-0.7868639032271456,9.952149334259074,-0.24194771558624512,-4.928342873675906,10.17614856056705,-0.026783613225053685,0.006418749823284116,-0.008335650677510797,-0.09555225825367597,0.008465513626493188,0.013996140495186134,2011-09-30 11:50:41.604481520,1.249818007
49.02716010698531,8.394591907426177,111.25751727524425,0.019092729593679948,0.01913432608597133,1.6966645938499052,21.084386214842862,-2.0635720926556473,12.933246588399749,0.018386395548102015,-0.34610932263656163,-2.900409934339244,0.10974357299108126,15.173643905733222,0.3147811963390624,-0.5995684299502178,10.679316191564538,-0.015557989897894205,0.03089104483277673,0.0824009186815368,0.08447967988177912,-0.01872497860840424,-0.03766865149456283,2011-09-30 11:50:41.704506822,1.349843309
49.03852164439611,8.393926631091393,111.33958651752457,0.04992150794056199,0.014685003655706316,1.692303021983229,12.502904693765634,-1.9229117211535018,15.488144017822743,0.03314212207595389,-0.07082773631316922,-0.950566272459627,-0.6457539666166033,9.165075192799636,0.7760745256384862,0.07185796029927285,9.106497644621266,0.04043430690779079,0.004151555956039346,0.005919211169163385,0.1615016145965683,-0.030889524815862362,0.005141274557925335,2011-09-30 11:50:41.814532877,1.459869364
49.032093120188335,8.395857594695157,112.05541176739078,0.04544063648618264,-0.0425582154240391,1.6822696329195788,13.6860080440888,-1.7730478251740545,11.795166868615798,0.2085771107768621,-0.026776214108556462,1.2541907986660292,0.4122639817861497,9.62958663437152,-0.32353830658482274,-0.26450532921330433,2.0498372846868147,-0.029113070459249688,-0.08841819394868478,-0.02057686176938581,-0.4264694410839179,-0.052459616079139994,-0.027474208555181803,2011-09-30 11:50:41.914494215,1.559830702
49.03516894512164,8.39483035725973,112.1721255209444,0.03913662125343217,-0.004654131798386869,1.70852643476319,12.499185742189932,-0.987319960330906,34.188753229726885,-0.6013505958487857,-0.2786438462833375,0.4168997648953238,0.9063386871027612,9.112177229144823,-1.886357232771175,1.3654905520620666,9.877844037863817,0.05823614158547525,-0.041347710953897956,-0.01643891257491228,0.024243145479131162,-0.06223915593650484,0.0055345390028184605,2011-09-30 11:50:42.024698124,1.670034611
49.030048762920764,8.394949974993178,111.61099666070311,0.06195561032597286,0.009289279819266215,1.6741147535824552,4.344418052573138,-1.249945290259838,8.867896001166981,0.0996025372253157,-0.6201441840635191,-0.16960201548068948,0.46622143097854324,7.392942506215914,1.2659213383699552,-0.43072908330307835,9.413605838361422,0.07002033520194378,-0.0010901901328677997,-0.027027106099739545,0.05098341894179925,0.023175227636966472,0.001633469068075626,2011-09-30 11:50:42.124492431,1.769828918
49.01546335463293,8.39488495274786,111.44021897484213,0.07192946880167558,0.010422935678441216,1.6733168392423576,8.514094984065235,-1.504573598684483,13.593639912962967,-0.007369659363076698,-0.39124775707019105,-0.2528451937823853,0.19501410282160359,8.856551249031368,1.712169218567979,3.5584548581737634,9.47465873063385,-0.05839237685794944,0.010134576070037217,0.014096166289865089,-0.10392057507773153,-0.008058869921325677,0.013158738732018983,2011-09-30 11:50:42.224508836,1.869845323
49.0298000656649,8.398379360236735,112.28903286400687,0.03225841580751327,0.010257015158739013,1.6930869052016115,11.059272101842698,-1.1454824420301544,2.5069824850150457,0.058003776597628946,0.020933049706605797,-2.355665502331212,1.6960743282645563,9.477789095431783,-1.677468978424287,-1.0922842666683856,9.77868705438661,-0.08000869409070087,-0.031340251315111645,-0.010914395767977671,-0.036223031623750596,0.05164226008713855,-0.038183694297230356,2011-09-30 11:50:42.334495009,1.979831496
49.029673939198325,8.394417481454282,106.43587713622057,0.016714719703297253,0.023255056158655404,1.7258360215018969,-11.834036928562464,-1.4330580888809996,14.662761113608127,0.20308190907191093,-0.1993878390300931,-3.138774681075925,-0.19509042542752725,8.800562586263043,0.5060541065417273,2.540476418410018,9.581708653172054,0.05923310703389431,0.17145246697555652,0.0030953007016740076,-0.0026887791614592788,0.24279302087937038,-0.016581631750852213,2011-09-30 11:50:42.434482060,2.079818547
49.01111857924856,8.395094079696015,112.50503201271441,-0.13558378228078322,0.021813341114313746,1.6751940649894506,13.946912073372983,-1.8351909616108548,11.482823717065505,0.3169276933913264,-0.14210062423646222,0.3327282190189029,1.0973335450623296,9.88490191307886,-0.28921498545080027,0.0577498618821522,9.448990532105691,0.01522785181032885,-0.020804452875110232,-0.00450779193540709,-0.0407122682930607,-0.019393369782817284,-0.06863064681887993,2011-09-30 11:50:42.544550561,2.189887048
49.03494749315302,8.392600821134785,112.61048512134738,0.08462507859423632,0.01263266333967639,1.7902024343488268,17.292673212049046,-1.914026189202216,15.102690566662524,0.24786051715319202,0.0847178057135809,-0.2919164726771888,1.677201147572013,9.680080184057514,0.8850840603377845,6.284740243072751,9.94810530337421,0.06512691321583168,-0.09069004689912714,-0.006237699928328078,-0.35477394441003685,-0.023094652591892768,-0.005073227429552139,2011-09-30 11:50:42.644533701,2.289870188
49.02777067858863,8.395620968531029,113.70231853878764,0.03147033698006019,0.009981670789366789,1.7066268306065469,14.12149401313402,-1.2875435859543682,14.326918268507868,0.0647647410259605,-0.2826903593661842,-0.1652951136978483,-0.19970544523126904,10.29017954701266,1.9164027857759045,0.9552467297729,9.763625214428389,-0.04923807766655789,-0.04270687916974448,-0.006334482895448209,0.01489633716544791,-0.09267189046771929,-0.01932897410783406,2011-09-30 11:50:42.754615340,2.399951827
49.03294282304078,8.395007068718082,111.27374205553964,0.0799134524372849,0.00776426176048208,1.6872730233725086,11.156902763887008,-1.1881252324647562,12.463629376823064,-0.06633692761170719,-0.014574341739365546,0.4161827404603583,0.7510293083828514,10.619611912047977,-0.8342274622106883,-0.16648790892852483,10.314569429090165,0.11962069073880731,0.018880256549449134,0.004624518358661157,-0.07145649766509128,-0.0013616884121312707,-0.012381746063904684,2011-09-30 11:50:42.854474768,2.499811255
49.03689249420928,8.394507343826826,114.29737468026146,0.026279720069883872,-0.017216778904211073,1.6886300579095044,9.880993995160011,-1.681438564389419,16.938453546007274,-0.08948186541293089,-0.0007768641346560939,0.7331594203900096,0.6570124974921855,9.971120422878148,0.10059545005775564,-1.1840125186207904,10.260984994301014,0.018172018163626714,0.025055474358085077,-0.06612265832327163,0.13333216572267909,-0.0031884338787111118,-0.09861328654658132,2011-09-30 11:50:42.954666845,2.600003332
49.033410435988614,8.39567697918389,112.51361044058237,0.09976505568218622,0.004024741146250297,1.6863459891893917,10.191977383497619,-1.4650903201700143,17.307048014163122,-0.08737290733030496,0.053510115233404,-0.08384367408794452,0.48095306778821134,10.465373023307404,1.0270312010842484,-0.7275450536834441,10.889103541453883,0.004846510780561069,0.01919972114147245,0.002127299558172867,-0.010512705080536701,0.03672753731476245,-0.015498470456385192,2011-09-30 11:50:43.064553620,2.709890107
49.0326744997642,8.395463790579008,109.96556293975263,0.02344758658333618,-0.07891215815901421,1.6609568365721992,13.821139936380929,-1.205063941455403,11.630081572274236,0.09900658718877013,-0.11691903372317458,-0.5829511279916311,1.1853478510269793,9.308827926787101,3.6563950143953328,0.599704234468661,14.4324255689937,-0.10250654533728505,0.06940555480096293,0.02708839478401951,-0.11192347043712489,-0.0007281470457919208,-0.05276308591806347,2011-09-30 11:50:43.164463227,2.809799714
49.03903253167687,8.394668308570209,110.63837332818962,0.05428296339780106,-0.021001526230521053,1.6970203648706141,11.378965488276542,-0.8643609235362865,7.501948137582372,-0.022309004508240315,-0.15473744914303122,0.16285671851980332,1.0182450862694732,6.6343866079737275,1.0105349888999193,0.06292761457192758,10.388031594559186,-0.04460529827479687,-0.02170214118970507,-0.015189212074106251,0.05075145414904311,-0.00965673203457762,0.1240398922669887,2011-09-30 11:50:43.274466733,2.919803220
49.03289795647949,8.39478007727499,112.03211988275953,0.2554284239662407,0.013392823067217875,1.7088622737330148,12.813185417186359,-1.9520782826426992,13.048325077312835,-0.056283612525780125,-0.207733862495271,6.740863155155557,-0.31212310388964115,9.86983507804986,-0.0886426680284372,-0.9143239124760344,10.340566594439267,0.0104603008742912,0.0008149278611384911,0.07189669629958248,0.08245737204293135,0.07467383985766048,0.0002767274885070661,2011-09-30 11:50:43.374607792,3.019944279
49.04075616551946,8.39480101610507,108.07003541104825,0.045584107092061094,0.0007006885524158124,1.7006111844738363,17.472848277601642,-1.0466343287636066,11.379503935899459,0.03126449953770027,0.0757055562181707,1.053557362650721,-0.22339721212206387,9.650183647237231,0.3592587291522966,-0.6473382295708091,9.97040801958616,-0.017872218389733536,-0.293511342377048,0.03543950026029548,-0.03599891133427441,-0.0013651433795968835,-0.028390101496800994,2011-09-30 11:50:43.474592203,3.119928690
49.03631758883509,8.3950790681464,112.30363462741529,0.06550055833508792,0.018593299942977183,1.6151215300189747,32.08863266724797,-1.4057154652544204,16.630396610997398,-0.05889633393284117,-0.10039142812580804,0.9053532274266192,0.23930275016677777,9.475616946802733,-0.20314623900308654,0.4861111657562855,13.20046982546335,-0.05791062572255465,0.001991141134475471,0.013510299445174167,-0.02859531595116372,0.050407584425012114,-0.037523642695886754,2011-09-30 11:50:43.584435957,3.229772444
49.0020399562713,8.393807262828435,112.09782087117786,-0.016242256043558383,0.012327431245959036,1.6824534455195053,11.90657044796857,-1.6957735329118486,28.14940660969408,0.12012229311028036,0.09418641968505889,-0.7254016166612983,1.26464766893374,9.994703469275006,0.3368533961480269,0.3344046464786874,9.6670984327772,0.1447898339573672,-0.047165579787214806,-0.014136694560364038,-0.09584143296160283,0.06933835645060583,0.007523964136700573,2011-09-30 11:50:43.684447135,3.329783622
49.03441542008243,8.391134264267873,112.2273220449455,0.07704432830010816,0.024020173206992207,1.682305693150748,34.71218671061248,-1.067808823845598,12.50032426485145,0.12870501255311578,-0.21586178887714008,0.8874124464730729,0.32015949837318536,9.28830054675361,0.030278732228194688,-0.7236169686699746,10.265833331790207,0.3041036915893116,-0.02191044191577106,0.017319539327483625,0.012824310571148943,0.1242578168706596,-0.011681147426428933,2011-09-30 11:50:43.794452053,3.439788540
49.03502700289924,8.395440284156825,112.52865933282717,0.047422588742069796,0.013511482429808772,1.6885133527192147,14.525538727332647,-1.8611491261463036,13.819898846544989,0.0500484198404092,-0.009490365077150315,1.1909218775272936,0.2135242918870154,9.632074939196498,0.27577056256808413,0.7923908328102971,9.987811774724515,0.08491550317142188,0.004413298494192535,0.01543284773491915,0.0331856270007042,0.08781695069085874,0.021962017480391234,2011-09-30 11:50:43.894447846,3.539784333
49.0107722142931,8.395809310563036,112.21783676240692,0.047559495743356876,0.025296564177608186,1.6962644870245176,15.144405527885878,-2.7807528182119254,16.37106783188843,-0.11399631570580258,-0.0635236096551318,-0.7704225834860365,-0.07712458922612808,9.646195727910643,0.9927643191094078,0.07863508225537562,14.243910975720993,0.015010141767723304,-0.02190762509088609,-0.014414792063563952,-0.013885690797403606,-0.025578660426474283,-0.0067055694817492306,2011-09-30 11:50:44.004559925,3.649896412
49.03346263171973,8.39587713895604,115.0357931024958,0.012018089979800067,0.00400122646470648,1.6709749896421642,16.04818666873299,-1.4809084852394143,13.117675904433332,-0.07444390758466687,-0.5239760215245044,-0.2739212030486434,1.0439297386556465,7.023393899348456,5.446020605204051,1.0670292150987977,9.709513878629554,-0.03002838225136702,-0.13498738022928175,-0.008940679265378974,-0.14249785572588822,-0.0007507001202004416,-0.02443846838656949,2011-09-30 11:50:44.104450489,3.749786976
49.03265187673708,8.395622189271835,112.67082368076761,0.03517576776747019,0.027771608763822626,1.6898731721523863,10.650309262046578,-1.465596015380067,20.825675478673205,0.14089249443764545,-0.16360963150924457,0.5210690264253769,3.2001933485616387,9.793049070338832,-2.335729076732448,0.3478538136486541,9.275785119011275,-0.08148767430824849,-0.05066828282696486,0.023362461465984564,-0.05540718029468797,0.006521623218536967,0.020783633981521582,2011-09-30 11:50:44.204504846,3.849841333
49.01324097748827,8.395590618954529,112.81402582147187,0.033571073896040866,0.025346628605496652,1.686145405549009,15.822949437018897,-1.9936759921214529,25.888611827828534,-0.22195359427260392,0.04849006496481706,0.9706589043034777,0.19579910831715663,10.622722376233007,0.25906765728360576,-0.6279951149884025,9.721413868110888,-0.039861873816910864,0.236349554870325,-0.007189722781743011,-0.047862553735939416,-0.016710881827570113,-0.0038162441876825725,2011-09-30 11:50:44.314455900,3.959792387
49.01131976666956,8.39121773938542,112.15851524549997,0.030101000551385364,0.013518212835605167,1.674622043116036,18.175144567598892,-1.490017195236546,13.857324424729521,-0.1380805101140319,-0.5560874663876693,3.6249251378744454,0.8154476176808703,9.801276297983833,0.7585956085240194,-0.43469504794594443,8.650017882767493,-0.011758086931212237,-0.020945446469896548,0.17602990654415837,-0.0419570117380852,-0.0003030121255303865,0.04111848983454149,2011-09-30 11:50:44.414449525,4.059786012
49.03503247039199,8.39557913403395,116.101791184524,0.01733472020926992,0.042372697275694225,1.6848266834802028,-6.386331602898737,-0.997575072419994,7.448914261290012,0.18281426353000968,0.11209030687120577,0.34019410338232725,-0.7062282021767221,9.249442838538542,1.3369262829844535,0.15232815825202914,9.930812035171808,-0.21579225493594156,-0.004978911651995085,-0.01486353017137769,0.038146134142750324,0.05291839893438038,-0.002478062807653043,2011-09-30 11:50:44.524631969,4.169968456
49.033774956117554,8.394647396275166,111.34403604923222,-0.013056351786614726,0.00884055751155935,1.6871512087796243,11.213482415549105,-0.9423415762935792,12.564696805657958,-0.04643061539780541,-0.29097312880780846,-0.3657435372475586,0.4693885435196168,9.514105696941916,2.046939905608721,-0.3347059951235978,10.08903815089923,0.04062096532943342,-0.04722524759371613,-0.14038682564581154,-0.2169486028962602,-0.15154293937421498,0.005930363377821671,2011-09-30 11:50:44.624450700,4.269787187
49.030841241912626,8.395792787980097,111.89904625153815,0.07583759294348194,0.0008447956439917737,1.6904573254746278,14.013419317626221,-2.0707049345938864,14.269848261666635,0.03753183072669124,0.1377324896540864,0.7524845914656106,-0.16863644810491912,9.208961120880824,0.15374048797377918,-1.2342132513195514,9.289641423172082,0.13945111457664047,-0.07053289097416704,-0.010920503321768,0.13419238409476245,0.0026639929113680483,-0.01614626784088672,2011-09-30 11:50:44.724425744,4.369762231
49.037175217080076,8.394898102093952,111.96913783310323,0.11424936096513945,0.015393805327600598,1.6720292249867965,14.074618105387989,-1.389412371115116,12.939376378926262,-0.08539302102776797,0.020393476938351987,-0.5767409202098074,0.71890751155795,9.683409810697134,-0.11366683142263218,4.206869983919677,9.665021139051571,0.3987203366102003,-0.07226124787705297,-0.00245064269140314,-0.06610342035295243,-0.22680591867908953,0.003574791375178509,2011-09-30 11:50:44.834451378,4.479787865
49.034002025297866,8.394867610780206,111.56369850725864,0.27232074852331534,0.011805660268703945,1.6858457744394555,13.282522043182999,-4.337802411209947,12.177718813554009,0.335380710199015,-0.1099005063491155,0.1087313854382837,0.4133945874078892,9.177699806468349,-0.7269913676308378,2.1985335492851754,9.687317078376417,-0.2337731752109285,-0.03851823742943953,-0.00038871352670015414,-0.027659403079303754,-0.012443419253389609,0.006674465545332952,2011-09-30 11:50:44.934414617,4.579751104
49.031199090375814,8.395314521509677,112.82785565981703,0.07012985367740474,0.012310701001200765,1.6819906146728174,15.977799820719996,-1.0121167162327522,9.195922295494446,-0.09426115115960176,-0.07818691495430821,-0.4466355466245169,0.3429628389323975,10.351710144703603,0.6493862097462891,-4.524263818720655,10.49704647447342,0.10727029603977227,0.005683057162825338,0.005639363496153271,0.0408091958922608,0.044570810641225755,-0.008934452830338257,2011-09-30 11:50:45.044514786,4.689851273
49.03710226597006,8.398616871330528,111.83970105208634,0.02512442929391954,0.009217657244320387,1.7085105244209438,12.801026659408278,-1.0706444673525906,8.843581539823747,0.12669332667716865,-0.11436987917671552,-1.119858999191325,0.8131123004265652,10.265986534360259,-0.5896020943044042,0.6304236007399499,9.541412728307332,0.08593412450671717,0.1241521019505612,0.03353099806592071,-0.004625409851654251,-0.004677447816190063,-0.014046038638150656,2011-09-30 11:50:45.144418893,4.789755380
49.04076184374723,8.392577679397323,111.98042692957698,0.0763298316764694,0.011379812675215767,1.690270459092714,8.240565614644884,-1.70210515236173,19.5340796899504,0.004806254718554573,-0.1354021509012681,-0.8817485771656102,-0.3201606175203772,10.172697449971414,-0.3123038543445079,0.7309955049801312,10.237586164754068,0.03526025102742747,-0.0571943432701351,-0.03874300065442876,0.030751067673802486,0.07597812045636383,0.02123169984741037,2011-09-30 11:50:45.244387967,4.889724454
49.038493268713474,8.39398527193105,112.32429364684826,0.08326853371913606,0.01310747648274917,1.668071828613248,9.802879518257116,0.6572681528222541,12.150682636968337,0.11316014133531307,-0.018873652987477715,-0.8297995075487838,-0.13989919014745522,10.632143784133126,-0.44782413156865963,-0.4777136208457536,8.698634539011012,-0.10503361546524138,-0.17466413306572431,-0.03283579162369869,-0.031308226664350805,0.013342386971976275,-0.031659559064055494,2011-09-30 11:50:45.354372796,4.999709283
49.033663244983686,8.394500324128824,112.18242710204332,0.07418388782564722,0.008920384395258378,1.6859587538499363,13.666355138241597,-1.950319869181914,16.60018096978538,-0.08487454773475342,-1.6412771110890534,-0.018216052144629125,-0.19284905514874112,10.823255901141636,0.08890316307947216,-0.20461546764677818,8.451829121748037,0.025427315552966817,0.00854706293630712,0.004251344634134855,-0.03319018956405996,0.0036634631898357192,-0.020400225489595573,2011-09-30 11:50:45.454485166,5.099821653
49.036200211207884,8.394181475773339,111.76379527471941,0.017438179105247302,0.05091844972296113,1.699573851921097,16.941376004018796,-2.2412952733002625,15.858058029733694,-0.0008384272403065898,-0.26553929021728706,-0.7964096850587666,1.5276136118240384,11.853987667186013,4.469617191808738,-0.1737586446361134,9.42251259448466,-0.02154520563059602,0.16622754929063585,0.09671284948511619,-0.011230122192334695,-0.09386447627455573,0.10531735752573448,2011-09-30 11:50:45.564594254,5.209930741
49.03738647355006,8.394905614143735,111.51195265997198,-0.02150669483391776,-0.0007767876679965341,1.5940375082922138,30.67234267555081,-1.540796919708157,18.13830758195956,-0.15704263715446368,-0.14221475488609758,-0.24083931925680685,0.05413347511534841,12.862065628012603,-0.6684153269292242,0.19411302329068225,9.41112856039586,-0.061924389246596254,0.2465179134489831,-0.009246593821560888,-0.07503618252741777,0.01642439107689585,-0.08817302156437644,2011-09-30 11:50:45.664424182,5.309760669
49.03249969496582,8.395448369005127,111.12029557924531,0.0869617776842729,0.03998911633179955,1.69859814957886,10.741007279968041,0.11677158845746627,14.727993808447607,-0.3088933399208685,-0.3545755501012902,-0.8701890845355099,0.5608985378266398,7.625723012198183,0.15113913947618424,0.4632906112707448,10.834595778021244,0.021500145416227155,0.03983584493408552,-0.013896309308375598,-0.019205831880651336,0.0015190690313302817,-0.08293970580349527,2011-09-30 11:50:45.774403107,5.419739594
49.036357026623726,8.39337894351173,112.2031613836867,0.04519088822876475,0.018096832758827255,1.6886989362327376,33.53936391205863,-4.121423407957251,1.8718035611755575,-0.028403296088784728,-0.1874035260887974,0.23977955939991075,-0.24112886298870795,6.718175344244213,0.7438730889099257,4.445781834065469,9.214362294574453,-0.0037244886632011795,-0.1549909275019502,0.04115352130821693,-0.07232821537658005,0.08797577311626059,-0.0006062801352349767,2011-09-30 11:50:45.874578123,5.519914610
49.034019276585916,8.391374427425244,112.23327388390841,-0.0008481008020022815,0.01710266946735056,1.6935915560949188,13.28477711918484,-1.9433150140417974,16.97131262717956,0.12763004151164473,0.047183148888612164,-0.0643089133129891,0.0007546323088332696,8.558242284301246,0.625520442310913,-1.2025093226716588,10.424489553222626,-0.07791540584065532,-0.03893526442304797,-0.010248629017723547,0.06297736195110258,-0.025569838951052096,0.01713347318844392,2011-09-30 11:50:45.974638331,5.619974818
49.037497606168124,8.394973845793123,111.62853789207126,0.002845585141891628,0.014871645498713969,1.6829897266225657,43.57871262233551,-0.6875695596921977,16.33276093905887,-0.2125242952308774,0.007267632655082651,0.6886295661528388,0.7298843316435097,9.405883903910484,-0.758719261703606,0.24154283482402722,10.384580717718645,0.0048247100293940595,0.07739456987692596,0.13117205421580905,-0.07935033584303866,-0.03467213848481645,-0.017727480020053275,2011-09-30 11:50:46.084435027,5.729771514
49.02925170052959,8.395260871643847,113.05785643676082,0.0363823022228887,0.050464895062519846,1.6968321764157839,11.251327320401105,-1.295952741155258,12.000480123877214,0.058401647907999996,0.49385811465656415,0.5387756254351497,-0.5419983629239772,11.060507592675183,0.4344817468611446,-0.24473811921431554,9.707209875679172,0.018293466775114172,0.003142667342970948,0.015039653068528249,0.12126893638289404,0.04823534438598366,0.002736757223152017,2011-09-30 11:50:46.184411452,5.829747939
49.03302161777857,8.39404574846695,111.82504755801932,0.047548264565400275,0.02156999418411569,1.6890746825644387,12.047894751275878,1.0020557155710026,12.65941274780187,0.09027434935092585,-0.235634741746622,-0.76656258056081,0.6612330461541936,10.427324855103237,-0.6813071539325045,1.247407350887581,8.756399534438923,0.04020056910172043,-0.08012863703268198,-0.001144350794953089,0.18536493565567846,0.09059495941223147,-0.005352192196136221,2011-09-30 11:50:46.294415934,5.939752421
49.038147577543896,8.395983519799366,111.77518369419334,-0.15611227643789785,-0.0030349362882866465,1.6927425932436926,16.47318846855525,-2.845446395522181,9.647226576617811,0.01141695222253588,0.05828592265112553,0.22876752357047836,-0.616136219256082,10.26043379370727,-0.9620157223918258,0.587182188933838,9.610632405774277,0.03464243513263887,-0.008340890368614363,0.011301221576526233,0.024292628526930062,0.005809919150829773,-0.022144686323119386,2011-09-30 11:50:46.394398443,6.039734930
49.03894175898026,8.395729418994597,111.96162502965356,0.0602321236277064,0.015047418621875386,1.6755902923774497,16.82502603531144,-1.6406529043758922,11.909119224931587,0.1861553745436127,0.79646387597174,-0.08998960381972376,0.6307841728104295,9.236857009913962,0.2548899400140768,0.7321690803765823,10.698771658499034,-0.02138040194523385,0.15561325254007016,0.06438925452290116,0.04720504463597649,0.07124072938064441,0.0005342405710932669,2011-09-30 11:50:46.494572704,6.139909191
49.05081702220782,8.3945195508414,111.28386303090001,0.057144599716035915,-0.002631234211924101,1.6803675443011774,19.950857612905125,-1.434509128153846,14.100366865990603,-0.002285431445200277,-0.3996807340164344,-0.4032688572224102,0.2933738159115936,9.48426249475146,-0.6552742470728732,0.07340960598080272,8.931368749047987,0.040432286577178456,0.02926991454582279,0.010690542378314854,0.05514035574909274,0.03666260462117999,0.009867413731604654,2011-09-30 11:50:46.604463866,6.249800353
49.03254530436001,8.39389648565697,112.47414369940071,-0.005739977472739476,0.025379432775233593,1.6861584614677134,5.06894776060709,-1.0828266966633775,2.3142593825114623,0.1519756155122901,-0.04512760374901113,2.7004342075798435,-0.25502232356677723,8.469128717200668,0.35007905201490497,0.12710627534533558,11.280217416919315,-0.024442194552381776,0.009131778928347482,0.010313034431825038,-0.0414087821227149,-0.09809369414206168,-0.00644111021786987,2011-09-30 11:50:46.704382604,6.349719091
49.043802062765735,8.39457573960271,112.99805236105247,0.04754727370014376,0.014253710067930808,1.6740795567531799,34.781447334946236,-1.223325798132148,44.49276460843318,-0.12114591255847068,0.08038270223574265,-0.38641265051306506,1.3877256533997873,10.432059449806719,0.6729183124205858,0.487688805051884,9.97984451405074,0.019699079652529806,0.3563190034822393,-0.007140472084259559,0.054582767936783516,-0.011672614694568807,0.03497497469140966,2011-09-30 11:50:46.814388409,6.459724896
49.03007607821052,8.394915781133925,111.75876517719733,0.0071597298267085385,0.009947035827959683,1.6303713112241636,12.623327968319309,-1.7010534435175577,0.4295091968019129,0.27075031241759717,-0.2161887099092833,0.19061637082071825,0.5141699108155173,9.950729578325262,-0.9145637510093494,0.003311110308002914,9.362930996533894,-0.0413767497482635,-0.012786719842116913,-0.007008362447557042,-0.04452115249325435,0.029281720279266316,-0.010059500280133521,2011-09-30 11:50:46.914357825,6.559694312
49.03389036174894,8.394032546429615,111.68598885122572,-0.12236645657455482,0.03452519550276155,1.6939106979596257,13.993629866944922,-1.6228671715536667,9.345182969701831,0.2110440708530735,-0.07258464136138248,-1.5047466341472924,-0.25959251233278424,9.698864875027974,-0.42558540025816705,0.15971416794502036,10.064382010421465,0.034955302057801146,-0.10032949449586921,0.022760536757718223,-0.0024875697001424182,0.04969046646339071,0.04352958861221409,2011-09-30 11:50:47.014477539,6.659814026
49.03965556236502,8.390230943522896,112.4336898513727,0.009630296628457886,0.03421892596762202,1.6979417531379795,13.150130913767478,1.6165185968601237,12.249669276243146,1.1259804687143298,-0.10324399776651359,-0.5555091679068054,0.7761614499293028,9.801717350637349,-0.5035327824298765,1.4356220835950604,10.014365020666899,0.14887669288649458,0.23539519660529745,-0.003946553696790436,0.06157399179900791,-0.12414387952774537,0.04342736723158905,2011-09-30 11:50:47.124385543,6.769722030
49.03716793021919,8.397012502783314,111.54587091173643,0.01879507644733909,0.01276696309564784,1.6703660497635828,13.483192127397823,-1.7881805548241976,17.035251734289687,0.06780694461871127,0.06834828762732173,0.31666335536033235,1.2956828041491688,10.640519628484858,0.2028371068691877,0.8749085973955463,15.43374005037492,-0.02694105471034272,0.036476272965423634,0.055960336111400236,0.0449026790448124,0.013364760489858697,0.028966584551075023,2011-09-30 11:50:47.224361430,6.869697917
49.033127844822104,8.398012799451525,108.38219770281746,0.017833766674356225,0.0242433064716309,1.6909616493638413,11.685254659448534,-1.897671002184678,17.650099271453623,-0.32116875777809556,-0.03270643070579325,-0.7473675870776549,-0.26441561319726925,5.932784006018296,-6.798634236829089,-0.046181986181952434,9.5538410193314,0.08924209043793614,0.00808844122200019,-0.0005084885752640661,-0.037480564253302234,0.040683196993167366,0.0011882133600564508,2011-09-30 11:50:47.334371376,6.979707863
49.03306414514584,8.395253091802577,111.78129559761936,0.1847304762774409,-0.007568739213628547,1.6722554951863364,13.825528557053882,-1.77549559938281,0.35026157241452616,0.2673558412828892,-0.20024360229311686,-1.1144005308663132,4.810589826515208,12.508440822979852,-0.9554836884154909,-0.2516597351851645,10.488584304134847,-0.0029223839530582874,0.21158349040864524,0.011110713780907541,-0.023507568728824816,0.0274474336163009,-0.006511247116047383,2011-09-30 11:50:47.434383505,7.079719992
49.03197851923625,8.395043315788467,112.12113856544579,0.06796723721825616,0.011128299776586397,1.7044687513399905,13.829884241628521,-1.4830782148721273,10.787110825110375,0.07380723945194004,-0.20415139549976383,-0.25881404660455926,0.640357612188747,14.267578957514232,-0.19917530524664134,0.24209412842029487,9.871090151972815,0.008129576525262054,-0.008808583268802333,-0.011297602989438042,-0.009280510162618695,-0.03023424220936682,0.011998275573778834,2011-09-30 11:50:47.544408031,7.189744518
49.03071135999134,8.395774498601531,111.19753921302974,-0.009438204287388889,0.04438641213391142,1.7185334395711473,18.8307778601262,-2.0031585622128856,9.180917328986418,-0.027849940491294023,-0.5723896451878026,2.997496024006317,-0.006736869250121458,11.034419438567163,-0.6168392445978872,-0.7623812736781674,10.180674855255397,0.43249668090307664,0.023369573053189954,-0.017932033777271147,-0.002133482715492822,0.06562958671242833,-0.032956245845719434,2011-09-30 11:50:47.644360974,7.289697461
49.037897724327266,8.394729179120365,112.53635842852826,0.051074881733831894,0.00949619256029623,1.7030802753570558,11.90570182878637,-1.4224388571816,22.502534443129797,-0.05357378731377396,-0.07588322059998745,0.26857184307450793,3.2792048525693467,10.232244635675007,-0.8283137557243658,-1.991474599069276,9.543725384396753,-0.04373337413834374,-0.04581110602655192,0.007734941271490453,-0.25844621691322944,-0.024848646419021382,-0.0014805726892779822,2011-09-30 11:50:47.744381482,7.389717969
49.035197414321026,8.396290820524984,112.01041478576627,-0.07086708306101881,-0.0029315579345603592,1.690860269411502,24.650465184665382,-2.598894833422145,12.304161180024549,-0.0793158344005153,0.12434042331901964,-0.012454736597326266,5.989836804084712,15.628565214976458,-0.11315482055363865,0.3257655908501535,9.586173705406388,-0.015654496345547636,-0.03633059238255101,0.04119457541325489,-0.04266157391353797,-0.016026764255872322,0.01374210623001589,2011-09-30 11:50:47.854412220,7.499748707
49.0335212823037,8.396005604086511,112.91786610973709,0.04511225128726837,0.010368820248159116,1.6816246057299236,14.451578486494785,-1.676962691582016,18.297709912779226,0.001538498149755407,-0.16553091134798706,0.6385927568767902,0.16712339713040475,10.579305071330849,-0.33475919142439275,-0.11184668439310672,9.231329319862416,-0.04324313474765811,0.3286313308257085,0.036950600454302554,-0.003987967998566809,0.06589220200826203,-0.0037193530373563865,2011-09-30 11:50:47.954573717,7.599910204
49.03771055396629,8.393697583529478,111.12772459714385,0.029410315528736554,0.02330929228098208,1.6886690868226868,-14.659495032841203,-2.021964028088922,10.217219825883557,-0.15760454702592006,-0.12516844110167188,-0.16510874010757925,-1.7822358642119633,8.610960731447628,-0.38979489996498823,-0.3246461992852579,9.542561640318874,0.007210918742179245,0.2560363836247256,0.004478469411758956,-0.008698167360498532,-0.04540748625514174,-0.0062996743540518485,2011-09-30 11:50:48.064433049,7.709769536
49.031780416897675,8.394270874449182,111.74080967135114,0.031908871584887366,0.0464865399221813,1.6965179452390151,12.426930008704405,-1.586634366673146,13.979451578860731,-0.008057500082995103,0.9276446865178177,-0.8785037705421271,3.0513577177127584,9.502043746519334,-0.6026120641947826,-0.13383675101639103,9.995962084104576,0.05158871495528777,-0.00962354243091523,-0.004103999322595426,-0.0300816753836178,-0.010133023086078972,-0.008466446477128253,2011-09-30 11:50:48.164424300,7.809760787
49.035143650515856,8.39433063775578,111.968616029289,0.06162235114215052,0.002947296117252942,1.6887248290261678,11.862761231911186,-2.2903170673314763,14.293077485073038,-0.7917585586028556,-0.21877496495019658,-0.8333585045218673,0.5953845077727831,9.816472912567342,0.284385360871025,-0.36939924599999524,9.307758605023832,0.06468663965086187,-0.0007048834099827109,-0.004352324792791507,-0.1559494724091498,-0.009487226179306342,0.03381416210955291,2011-09-30 11:50:48.264321918,7.909658405
49.03643490082602,8.394966883453437,112.50184345895794,-0.04250780091443172,0.025808241127724313,1.707470625453269,8.117057093432607,-1.5595449571617088,16.47535968526465,-0.039901958645590464,-0.07689695749962233,-0.22246763439572875,0.8665616712448747,10.046474796669997,-0.8944654437013627,1.5063895972932517,10.629352069730663,-0.034989802310952556,-0.0777562694849561,0.02745128490754687,-0.03961701163619972,-0.04940105190773583,0.033443167455269984,2011-09-30 11:50:48.374516522,8.019853009
49.04133314828658,8.394126844927602,112.38885795491656,0.3288835913450229,0.006392624789971798,1.6942197730715094,15.20640188178084,-1.6699127322223655,15.415386799083084,0.33718009893564926,-0.10730840049395843,-1.8105850781983954,-0.3445500681035762,9.734449502763994,-0.37958552412565716,0.378322525095194,9.572291894117853,0.024650614533648682,0.02272128332909757,0.05703300399578449,0.07674878056044537,0.0666664766425564,-0.15208372379924937,2011-09-30 11:50:48.474440339,8.119776826
49.03802582286036,8.3939901663948,112.45097714190601,0.042604674846469445,0.020465379351583365,1.6922943445802718,5.706039660075982,-1.1578461747520816,8.790951908209498,-0.047277595809068075,-0.025494821876380427,1.0549535117611282,-1.8861984549104416,8.654170072431896,0.007134347486922349,0.09602314598504838,9.863916486055013,0.09131318868659713,0.026085304412145648,-0.008068969154649898,0.44617271379481055,0.031296853818617625,0.006050342306642188,2011-09-30 11:50:48.584370192,8.229706679
49.03616711684283,8.395006461565897,111.30564749338312,0.018899867846205048,0.02047466501738119,1.715183805267307,16.43496427484184,-1.2193263169736888,10.423862888101254,0.07149128876698513,0.2826869052093325,-0.09605528180823394,-1.2967420463601913,9.375445292816474,-0.5363722488092377,-0.932088962895246,8.774541158389177,0.06828193276296896,0.3199665839589687,-0.036426525226170244,-0.03537761467899332,-0.026379852895541334,-0.012447488781948821,2011-09-30 11:50:48.684354809,8.329691296
49.032395913725175,8.39531231435245,112.33660278073624,0.05594202290337719,0.013554421324602819,1.688262457757408,12.590184369074889,2.4384494675102855,13.11454051380709,0.0496265730690131,-0.18843872647101273,3.215123104000582,-0.02745317135108649,9.923126864891543,0.9656043823914984,-0.17292478029088876,10.616181929705496,0.006954449934081076,-0.018719789308674125,-0.004652026165020409,0.022029028724045843,-0.03295795076046729,-0.0725653607108819,2011-09-30 11:50:48.784332687,8.429669174
49.038834335774965,8.394786158937052,111.79748149524018,0.04538935615474633,0.012627688632837253,1.7034427774194476,13.234459063423035,-1.2059865924841497,15.402654389900569,-0.18931204951262884,-0.11383048427780736,-0.6339629809319824,0.18053558424311258,9.313649379397491,-0.06559231941935918,0.5658984906436579,9.751856585606852,0.015887816873086165,-0.05369091512086277,-0.01752408610275973,-0.07908247978837467,-0.03889267745573563,-0.00498156118676994,2011-09-30 11:50:48.894330855,8.539667342
49.02766868530596,8.39489042308553,112.127277171674,0.019849437717666195,-0.009873183909639819,1.68857263329817,9.917642465602935,-1.5277179637301015,11.845567972588515,-0.114424528870469,-0.0703400849200266,0.35852081795722435,0.003220880084801203,10.114766608276632,-0.38531687008471804,-0.8717802397916712,10.822559125218289,-0.04704921511268158,0.06684828887434116,-0.008667504516709005,-0.003350741679810986,0.09621465855015769,-0.0021721979215695367,2011-09-30 11:50:48.994545298,8.639881785
49.03059365884142,8.393870099372489,111.50057408926789,0.05253880592604923,0.014205710993717098,1.6719818801333142,9.991353987441945,-1.6369157109374315,10.81134548935514,-0.04043634418506898,-0.12345178485204661,0.5980788774626242,-0.2251217415463982,9.515665926753366,0.17736270631560477,0.48379566090596826,10.468508950902569,0.13433419209082997,0.002177621533393739,-0.04640017487025365,0.039824264922889846,-0.02816827216661312,-0.025596004487476814,2011-09-30 11:50:49.104343491,8.749679978
49.03201422410551,8.395261874283587,112.92959524922182,0.037580924929115106,0.010617289352089719,1.7043961441831708,9.025936153619519,-1.410446261326953,13.754789263069744,-0.08590189570806547,0.025079272853477177,0.9279453125635617,4.161243749650278,10.128823133657551,-0.3631429989365977,-0.06907975493188726,9.351890733303412,-0.02577073304590166,-0.0044012579248210275,-0.015239457955959443,0.11835536135598906,0.05636846615882454,-0.08278600149544312,2011-09-30 11:50:49.204333178,8.849669665
49.021732823628575,8.395047591387502,114.16817591394634,0.00764946685435413,0.011937485632376423,1.665012604054077,10.294377578794284,-1.4916611218713955,16.316117867658306,0.0631093389286767,0.0962936376539796,-0.5604888553526302,0.5485718845267624,9.871566802062091,0.041015951679512275,-0.14474235921396802,9.94838053127805,0.025767707707895257,0.018171943266384244,-0.02424773749187771,-0.014312144040630208,0.07476301034424228,0.008046426403573635,2011-09-30 11:50:49.314336112,8.959672599
49.01283582239782,8.394332929164243,111.15314012780011,0.04250386483421013,0.010198019045975414,1.6791076644315834,10.621079299980849,-1.5135078982163446,16.369024702765472,-0.012762970202090142,-0.16005820820760625,0.12312560742727509,-0.34927244771430055,11.831027369265882,1.8355581503499785,-0.3095897330203736,10.348454784117939,-0.065827135023134,-0.06402651880655866,-0.0533326682681575,0.010216018392436604,-0.006657948652458745,0.011977128470214664,2011-09-30 11:50:49.414358681,9.059695168
49.02978800609633,8.395559717955855,112.36122317622288,0.047477389641781415,0.027597738229484255,1.676347074404525,8.638881894870597,-1.2321358966557587,13.671510525617261,-0.009881109818594441,0.0025288037471314917,0.9850882752981696,0.16983992045824248,9.181806630496888,0.9057387080391409,-0.49880590946509606,9.755785237950516,0.013327442565033988,-0.09995844110829259,0.02775100977124847,0.01431046607034399,-0.020593506729011078,-0.012584317894660071,2011-09-30 11:50:49.514365720,9.159702207
49.03595286435803,8.395806951851432,115.48203954142879,0.04893108726309711,0.032573788939857455,1.7450316737610396,0.8436266827941363,-1.394362910986693,12.586782641100475,-0.1799114479393054,-0.12216797882306457,-0.9139066517957355,-0.06278808862172708,10.798408857838991,-0.6078459030822002,-2.3876429626713596,8.890840096731774,0.2538797756412053,-0.04620360411929605,-0.007233950648773262,-0.11731005740589383,0.06256813121663306,-0.00832417884580078,2011-09-30 11:50:49.624320062,9.269656549
49.039524107841984,8.395414192981145,109.02068190742406,0.07779859161997091,0.016634495673153595,1.663823585889586,11.184723909605975,-1.8135977783278954,12.789968006668714,-0.1493917337929916,-0.20817231283566476,0.2659087618313482,1.0431551784728414,8.242714764298483,1.0311038912408248,-0.529495276428992,9.581074816264527,-0.05809344139547053,-0.0009155129195427868,-0.01681470322666746,-0.057466327136853484,0.06272535133980812,-0.021781237405447414,2011-09-30 11:50:49.724388556,9.369725043
49.03398594423008,8.395137845870206,106.88069317820332,-0.031288828044727615,0.017692097142490745,1.6706960652040797,9.361433862167779,-1.7466616165055873,19.614296962682502,-0.20880116534478904,-0.11589128491419388,1.2181809897855949,0.022200412533119517,8.507467706922574,-0.8095041440753902,0.07223100306748537,9.898506228105205,0.08351712839969408,0.22342925654882337,-0.032326657854493346,-0.11483281256045941,-0.013376554183330225,0.021054747369149106,2011-09-30 11:50:49.834326453,9.479662940
49.0360452375064,8.393697904209432,113.65785795804776,-0.09190022729193638,0.010555006977918944,1.6832505947773169,14.415711214767386,-3.9853077717752368,10.260450332279703,-0.014856592057504586,-0.16511999900484645,-1.0516390476579243,0.39594528859462264,10.851856247536492,0.1477561063357102,0.7007672587481815,10.196254454245782,-0.06159031997990639,-0.05822268666831074,-0.030386992506064518,-0.02293700942231417,0.03840738197882432,0.0033344922008191873,2011-09-30 11:50:49.934333801,9.579670288
49.03767975885938,8.39471389095719,112.21417856507026,-0.04190681479442317,0.005830125682448118,1.6740905223845475,14.378213668041377,-1.6986613224919893,10.399530081811896,-0.21374608522750405,-0.05139160822356364,-0.9012243949677393,0.5424067370725922,10.063697707135706,3.2325215398879417,-0.38682211212185585,11.174861436970662,0.035020981042192166,-0.0694829996636441,-0.02054128384912448,0.08971164382222943,0.021438868302294092,-0.028375208172930315,2011-09-30 11:50:50.034591038,9.679927525
49.04301960702754,8.38883529376305,111.44800747389259,0.03917600444282338,0.02803928878183498,1.6676668829028174,15.566844109634033,-1.472909271185183,16.76082381913366,-0.34845543627688824,0.03957660048838388,3.731189981807777,0.1582118344794351,11.5641448689963,-0.8473659783822162,-0.3709767984613809,10.240455683768287,-0.02515748791434855,-0.030649800033556468,-0.010183517645113101,0.06283693497169075,0.09605138695485657,0.011343821549364419,2011-09-30 11:50:50.144336413,9.789672900
49.03937735398295,8.395103922954197,111.84212448599304,0.013641448744954831,0.014926954095696015,1.6594770279225761,8.362323987055515,-1.0941686016525094,14.774843466304304,-0.053845044062879,-0.3365206186703203,0.46767202654062845,0.3424045460385624,10.033423269420958,1.002991140326078,0.6156825129995032,3.615326070184845,-0.09217861418846074,0.023283598034873187,-0.01602699172714618,-0.007691844403795211,0.01993117176907818,0.016290793379012822,2011-09-30 11:50:50.244319640,9.889656127
49.036609799167444,8.39338422111844,111.81898802333954,0.06569640140930247,0.0012057251976543056,1.6822509640724694,-6.753059482674207,-1.26890873726745,11.217491303570313,0.11400079341253276,-0.17438975321613387,-0.28514861729509433,-0.19370060182467597,9.100953168224141,-0.003998583454983015,0.12298862895543197,9.700450289251581,-0.09787893445137968,-0.010218299366250256,0.03391886545639669,-0.05018497020730729,0.020918295429254115,0.029910810435264664,2011-09-30 11:50:50.354498294,9.999834781
49.03557578013122,8.395286583457363,115.38939762058101,0.029308764240915476,0.008598946444259906,1.6569734016583926,17.57620480293261,-2.985153232369398,41.77049813734687,-0.16718281495121656,-0.10528083555185422,-0.7236054247276482,-0.5118141847883769,10.824977286072627,-0.3847666304552643,0.9529081853688727,8.836362214987865,0.021491287887452765,0.02519105726719716,0.008265750065373528,0.04101922076347552,-0.035800600992391886,0.011865803390420588,2011-09-30 11:50:50.454494657,10.099831144
49.03272374057375,8.39516794140077,111.17733620997411,0.04257972410382546,0.016653796063740036,1.6777717963186753,7.734326831704963,-2.1354883620050082,12.16090460224107,-0.16253644601250755,-0.21782640260855357,-0.42887889177733973,2.6530482321243594,10.382192411039902,0.6403766141983595,-0.019520673092867133,9.761643973952923,0.0014058264864138578,0.19185040350228474,0.01291809282804631,-0.10198666953731354,0.024186731446089217,0.02587765942037261,2011-09-30 11:50:50.554461291,10.199797778
49.03916466121292,8.395469769574659,111.93701223308146,0.010020000259291294,0.020010949808028568,1.6811984407472031,9.932795265167842,-1.090333089702062,16.649948859092103,-0.06334672098171293,-0.0512228101429362,-0.05058413668794516,1.285888428386044,10.643183107461756,0.5793635341764003,-0.836649402727794,10.447727793896275,0.036280484671579405,0.03164307548416839,0.020282487015249887,-0.051373090478431124,-0.2906677640085501,0.02463246995422423,2011-09-30 11:50:50.664276471,10.309612958
49.03500289462713,8.394832810017995,111.78625250993026,0.050783866935763707,0.014458716777941104,1.68355314509229,7.358541810297076,-0.8487388212781921,12.137871038315295,-0.8441567978110257,-0.13906410588627527,-0.45883149913691745,0.9126571957455034,10.766110082674242,-0.3119352365238239,0.8765136008565062,9.448632492722876,0.1120441707694087,-0.021889113736708234,0.015557242648623851,-0.012497956773838189,0.08322915707301404,-0.018689242496534864,2011-09-30 11:50:50.764439996,10.409776483
49.01162488931417,8.394574647781107,112.54933187509664,0.050449837819972004,0.016569196954280545,1.6646875397445833,24.502095469022944,-0.8746960655876832,16.422824038316566,-0.11009009389546057,-0.12320785668749787,-0.2815067319332761,0.2862740368864026,9.351698327188826,0.6105352859854842,5.533708706741827,10.673600313867118,-0.06676192750462742,0.016694095792659167,-0.007385832964478848,0.016551387998380934,-0.1401038260413561,0.04585937432123916,2011-09-30 11:50:50.874408971,10.519745458
49.037831310536994,8.394911849066448,112.10043031838005,0.09797328657286301,0.0078695193197063,1.6872439885846604,10.799443815142729,-1.4073099731393248,9.845005754774078,0.33905513451643476,0.9341124440675955,1.1994933884675218,-0.2822745210648216,14.260015019812792,0.3530087793254163,3.770880775737342,9.414782665205392,0.08897609559432983,-0.005435431806580567,0.016315469958692347,0.026506003155019747,-0.0018604670518503974,0.03627693591453333,2011-09-30 11:50:50.974370663,10.619707150
49.03781815452881,8.395492921903278,112.24857559870671,-0.00722438677517101,0.018150811708915922,1.6915846608754261,13.767685716225987,-2.1619464648831017,16.564076394981814,0.08404111074309549,-0.09120606864878478,0.5651410763616866,0.6389961387951691,9.662520016965873,-0.9159598828058486,0.4835337824923732,7.422737284420417,-0.4639830007087522,-0.02997231593998168,0.015997327059612917,0.014169296949990504,0.030696817670392278,0.05157059985518039,2011-09-30 11:50:51.084338535,10.729675022
49.02837827319782,8.394612479275875,112.14187717783972,0.03379164323400896,0.0202509289857691,1.6755256828733882,14.067328060397974,-1.4002359596845408,13.623211858701657,-0.1540606066178542,-0.13800187721676116,6.453453764322127,1.372553794097309,9.571199912743413,-0.4142923867573488,1.668289013388314,7.1904990826268484,-0.02747739820495351,-0.05331201726900478,0.019939503037307946,-0.025541113402743724,-0.04180038243224098,0.02938568081924025,2011-09-30 11:50:51.184294886,10.829631373
49.026241304913036,8.394597461702658,111.78820825461219,0.011397738235438153,0.023919638428336644,1.679229991858625,5.619196594155773,-1.517061694846762,13.399601933281852,-0.004046915769153885,0.24365104452133096,-1.2746673095315226,-0.6199445562072717,9.499596232491864,-0.24818816680413208,-1.26445595393975,10.457982602681877,0.034154960636721084,-0.004535897743731922,0.1852822894431687,-0.41712315533457056,-0.06319100894375917,-0.021366568178255003,2011-09-30 11:50:51.284350529,10.929687016
49.03339025812814,8.39555123851002,111.42486954105249,0.12969167700394013,0.026573407603667748,1.6897761432985416,16.276450478342696,-1.3085595215761183,7.495264142920329,-0.3182222980653685,0.49551762981859226,0.5317169618299677,0.43976912294854925,10.32275258836044,-0.6625791932925134,-0.30684202209520184,9.099818849987223,0.05041976936852341,-0.056111959755842135,0.012521655151605903,0.03281010259288581,-0.011747383193435873,-0.014448375957080848,2011-09-30 11:50:51.394300958,11.039637445
49.034052659127816,8.394820033927855,110.57905903343857,0.062313073004416616,0.009647838406223715,1.6792855020075426,18.56124592651269,-1.7885569704215138,11.037322116630595,-0.3240626435244821,0.019857649270097533,-0.37963155254336856,0.6864325751420376,10.275910836309272,-0.1985006783118719,-0.7266878095780211,11.37103500742856,0.11491279918522292,-0.032037866801937855,0.024188335599821087,0.01946291292597559,-0.0005996944619019694,0.021053784693763216,2011-09-30 11:50:51.494521101,11.139857588
49.03328591019701,8.394388056445472,111.77719692682173,0.04669315044636837,0.014443423393241403,1.70071755751009,12.29916442321344,-1.7024932631134146,14.341265318903702,-0.06550133773900912,-0.06459834472970771,0.4300879870812293,-0.12056097464070385,9.740202450485429,0.5866400948109102,-0.14814222519862924,10.33778702018674,0.1275969871451216,-0.05735448691645512,0.018991511022538397,-0.07932558009558675,0.14216889007319589,-0.16015150610487383,2011-09-30 11:50:51.604318050,11.249654537
49.030894628536124,8.394577052005948,110.4838294741752,-0.1852479412194699,0.03045638724868611,1.6707102989369955,11.1676197252315,-2.053075187609369,14.510231663344719,0.20738407568806558,-0.18102392171410703,-0.8201216552257427,0.5310498675670804,9.577988041085337,0.6284968276390862,-0.05864180980302494,3.033844196220083,0.1619889807249969,-0.006249094176319517,-0.017976237828519395,0.10634945105710478,0.029294595517485804,0.0177619215604456,2011-09-30 11:50:51.704271605,11.349608092
49.04210601569357,8.392620235590664,112.04329328931631,0.05334755500137234,0.014255995146550671,1.743350962009433,13.892575090494082,-2.0785689316285305,8.620753179140884,-0.015911540335811027,-0.11841254184034516,-0.627874932656436,-4.988256171941838,10.221663906621464,-0.018837366311830375,1.3011797991421639,9.387609730045813,0.08786962123281519,0.24547350755704633,0.030791741026717674,-0.009174641172813025,0.04040419967823303,0.030204666531978147,2011-09-30 11:50:51.804289722,11.449626209
49.034047207118675,8.39031871043133,111.53231773412662,0.05075648693852503,0.0043861036622326694,1.6679142998740428,13.366771001879592,-1.4345681332515006,13.225180776200315,0.10759068612547212,-0.30611071715918015,-0.4936967773292548,0.10227921438504328,12.734131119707072,-0.3216843569166467,0.4171158084254775,10.517702457108093,-0.05716086213985566,-0.025085170117451844,0.07150658946973577,0.023207686322684044,-0.07329682245245822,0.0005140201297564556,2011-09-30 11:50:51.914304226,11.559640713
49.03094954954217,8.393261397777243,111.80279347975407,0.0406637982858612,0.0005624293317418186,1.668689906394711,24.851687144097376,-0.8010011120497024,13.825463533250499,-0.15754349981678112,-0.13299031978148151,0.32238818554201265,1.916125734762172,10.295390629566572,-0.0002644786795637927,-0.09093796959228126,15.410510391298565,0.028367535393921787,-0.02707940193722473,-0.030986976881106867,0.04201428385261538,-0.04233944975782398,-0.01773748069964741,2011-09-30 11:50:52.014384772,11.659721259
49.01993128382001,8.393691701117882,111.8052662111266,0.06991899321196957,0.006667957460500621,1.678537031057527,16.64405979217958,-1.5350611234204845,9.896262374721907,0.09341696377457458,-0.10038993103635199,0.7245547476720946,0.32194228692511007,10.097623382452799,-0.20133937383612133,0.6916779133450416,9.945278666208488,-0.028677763522184846,0.015870699788256042,-0.0010744522163457608,-0.0252660840301638,0.026092232086698745,-0.0006205735646675533,2011-09-30 11:50:52.124331642,11.769668129
49.03647625964945,8.394967801215826,112.20069705991561,0.03513420402713961,-0.012165536960607307,1.68381379394265,11.255641957786986,-1.517720853334054,6.739301298843495,0.06959665299171741,-0.25818820246540275,-0.06834084562481849,0.3739690055776494,9.793308249702731,-0.6328551421286774,-0.548466403882367,9.999251550302864,-0.3795538998376855,0.01722919641433017,0.0027005118601042084,0.10558829631670848,0.0012016894713239683,0.020863533787903035,2011-09-30 11:50:52.224284571,11.869621058
49.03576232074891,8.396092821081101,111.77915273245556,0.12417299084615657,0.01297287698331627,1.6943066111857479,14.707650356401231,-1.371188652620694,9.371350805252618,-0.288640644636854,0.20112189924103938,0.9919801142147947,1.0567189468057137,10.16364009791105,0.8645263775621101,1.3802736500332202,8.702521260494233,0.08304138966038341,-0.006755199062623694,0.005610832813225643,-0.0165892311569725,0.06157785060366984,-0.008110623443185357,2011-09-30 11:50:52.324270808,11.969607295
49.03771049607255,8.394571348451583,112.1323954873635,0.07574990704749489,0.022666749989919764,1.7070607111641762,10.876894795374705,-1.8113975406901899,14.917292207263607,-0.21924353659390436,0.34910450605897747,-3.495862832319366,0.39986356735571266,8.949022635255522,0.6925703373343551,-0.396117852153116,9.785187130325566,-0.025773690383621713,-0.06224262565167014,0.006417824499824872,0.06719845589253605,-0.06254746687102689,-0.023016476016237027,2011-09-30 11:50:52.434253575,12.079590062
49.0336786819984,8.393925405188773,109.74029977144548,0.12054607206654988,0.015823356458209408,1.6995154215698285,11.86306082209587,0.6311997133809084,18.25317790206384,-0.11590335254506587,-0.14210435536984056,-0.12136996942466134,0.9868478683293871,8.508966359213465,0.2782310623779314,0.3071757011845663,9.384873430365293,0.131752280286805,0.033235049464685085,0.0008717189120740467,-0.033951205158388384,-0.049634016344441874,-0.002682035274646798,2011-09-30 11:50:52.534372176,12.179708663
49.03516634816876,8.394816630134413,109.00137772877781,0.14595605203263817,0.017454515509600737,1.6749010373655393,11.80591862809983,-1.3708393600004283,9.50265999776575,0.10289009286865422,-0.8095363058601271,1.144282562473831,1.120413435778948,10.785735051599218,1.1237729368956888,0.158075555856062,8.831768385968997,-0.07715230510382422,-0.05001311525403979,-0.08608288662878974,0.5222515692264946,0.08791560310630708,0.025783689555992542,2011-09-30 11:50:52.644263734,12.289600221
49.031448054326916,8.39584302483475,112.01536081837995,0.07345163757677624,0.014882414259402612,1.6798252489654202,11.344660894503678,-1.7497762950944629,7.249059717380162,-0.22083241735181847,0.2683083686284282,-0.1721921933871968,1.502369105032675,10.15362418007084,1.0401343817863424,0.6777173775554022,9.862728800566773,-0.04224037173099523,-0.1547549820361471,0.011765132945957043,-0.20954524365203325,-0.014430456428578847,-0.19954801870660596,2011-09-30 11:50:52.744279813,12.389616300
