lat,lon,alt,roll,pitch,yaw,vn,ve,vf,vl,vu,ax,ay,az,af,al,au,wx,wy,wz,wf,wl,wu,timestamp,rel_time
49.064514887236996,8.398370030545912,111.89398963083848,0.02317414647459897,0.009194186129712822,1.671054728963542,0.787558029402037,-0.06656422292100261,4.396340396255951,0.1257128173001498,0.10249154015601748,-0.29099273434206313,1.321426996940903,11.927014721250668,-0.18835838980814307,2.9590886668974554,10.714179918452766,-0.028339230618728048,0.0006442968992449016,0.09272160823445363,-0.029243336279935774,0.021681274857257616,-0.00805564976731359,2011-09-30 11:50:40.354663513,0.000000000
49.030344198067176,8.395220098021749,112.32234478632445,0.048585119749291215,0.02071256990986495,1.6846158586613367,5.755438160786668,-1.4389010497046262,14.244025078510582,0.08263074862718509,0.00985313128078319,0.25602366064738885,-1.8420687564124327,8.788693601784225,-0.4290649921845348,0.3619206778683844,15.122357748107872,0.012397785744311239,0.04880949415990691,-0.03274110473769624,-0.017640412631580175,-0.1798903124575847,0.06351840171864605,2011-09-30 11:50:40.454677373,0.100013860
49.033699111362594,8.395041870695117,111.92764699372403,0.04486097649212783,0.01105095035252788,1.7326794953061009,10.599638157161928,-1.806059908849972,13.52745834265337,-0.08180348186430111,-0.14214412578352356,-0.06450217527471044,1.4698398897548124,11.006920623890622,-0.06910640504219023,0.4142243639826348,10.310188562656327,-0.03302146059910857,0.008221164049193406,0.04287969918772647,0.32712066590501815,0.08304054735008493,0.0012007329716918654,2011-09-30 11:50:40.564550882,0.209887369
49.03233082456122,8.39753996668502,112.1812835839892,0.048370310815414055,0.0022843370511883287,1.6366655415966376,12.052171256260449,-1.1155244358422531,30.750180466588994,0.046095996941774395,-0.5338350666898091,0.23127882450113602,1.61569944954925,11.336787964610451,-1.6465214162681132,0.12331724860678148,9.62854842814874,0.016983978239186272,0.005631431251414966,0.030739319612743964,0.06349214145697764,-0.027542511912873463,-0.015474847161716458,2011-09-30 11:50:40.664526758,0.309863245
49.031973786861755,8.395798698618766,113.02135779821644,0.034483245287205505,0.015349984990428861,1.6915347674037409,10.54436306081664,0.3471748340975307,12.940513781775389,-0.11014822122820833,0.36242725247751995,0.46173379238490286,0.6928336741336094,9.19859019786085,-0.015983690932908134,0.27572129634780423,9.780283741413951,0.11278285971138746,0.05035380246502625,0.01988384591394663,-0.20135472213216973,0.015522422755590626,-0.07089732696835602,2011-09-30 11:50:40.774533003,0.419869490
49.03492342571853,8.394436117902725,111.38783287668508,-0.05476650178774271,0.014053074944173948,1.6732510776435643,28.703590012986304,-3.0237732777987265,6.89076543189337,-0.09219527623299095,-0.23602292551359377,0.7841427082414947,0.9823921604207382,10.075061886893447,0.6398160566889857,-1.265590369264284,9.866355293455257,0.1736678955944406,0.02111589426449642,-0.00015142015361649104,-0.03572306219287759,0.06680328395857961,0.0036855717059904583,2011-09-30 11:50:40.874667202,0.520003689
49.03063912852376,8.39362056567792,112.68898698049279,0.07902940151853617,0.00512822600642189,1.6836449000518074,9.102829274193754,-1.736658398005281,12.322757008524844,0.7324006822651616,0.160176939806562,4.174217818329753,0.7349478236632956,5.57272581555993,0.26472270657480534,-0.6085264366114502,9.780650089032008,-0.07744516205948641,0.003981862870546759,0.021319913621990986,0.08445664817123823,0.08271824405320304,0.015039362590565547,2011-09-30 11:50:40.974697970,0.620034457
49.03636136723371,8.39490547356106,112.41099530323693,0.03247089380398065,0.011244384045127138,1.7078053600392769,5.892403193521715,-1.9443985127054018,19.443053192915194,0.09254142089217995,-0.13497083880382515,0.34454229464407643,0.6300513505493609,13.456566970867442,1.2975929375582458,0.9383234580576114,11.000759395283751,0.1014929078410774,0.012587335442614273,-0.08047988131874825,-0.4536539445643132,0.012185038345136262,0.030559689837926715,2011-09-30 11:50:41.084596356,0.729932843
49.034227825535254,8.394649041514429,117.25880017131692,0.07850151444375458,0.017006612046613516,1.6717492321945338,9.571300182989336,-1.6824541591402833,13.265961598134185,-0.06754503615411168,-0.32742861707978044,-0.4964844203644461,0.5016716427895593,9.224779159321344,0.14017086245231236,0.35296775083703114,10.359577118976901,0.08184986546883381,-0.0848208699209357,-0.004589143782132512,-0.0868129089554119,-0.04091342500632596,0.006449061500856986,2011-09-30 11:50:41.184519512,0.829855999
49.03162287017774,8.39505820010341,112.26150954489914,-0.2283867657933027,0.01626988373787122,1.6937454953615678,10.828424604723564,-1.0326580456416525,24.891276132579343,0.995706343515527,-0.0688665098623162,-0.5017269405574356,0.713640513718681,9.842899097397778,0.5767724373248859,0.09553139591436133,9.986776165725155,0.009056737970902926,-0.07120397887086685,0.0046147109275545,-0.07264501965509679,-0.037007495595730404,0.015211147013102536,2011-09-30 11:50:41.294511780,0.939848267
49.0342798249788,8.394308550908931,112.31759686251159,0.02870055532683774,0.012546861616174793,1.688089259315939,14.044115609580485,-1.3043614262931613,15.76448357711989,0.00012038644592418971,-0.2658590438176881,-0.05432164660085101,-0.12296187469687786,10.74603197185305,0.9657170806219998,-2.3748445509873837,9.904759271361682,0.27474411230220186,-0.09518703093331791,-0.028560619481916075,-0.017940486654757663,-0.02563249121901312,-0.037978198157557264,2011-09-30 11:50:41.394494454,1.039830941
49.031960406417674,8.395040415808458,112.68679923678478,0.05241964043071436,-0.009644004002988085,1.6919707224151979,11.594875459271822,-1.3847068412922259,10.256999732508762,0.10604518075188067,-0.26614746943489676,0.6303940051767409,0.6413796679492793,8.588875212749812,0.6584779857252971,0.10577577173304216,10.729169429345196,-0.10917228763285627,0.019097821412825167,-0.01462777079974921,0.008806820934562594,-0.014978148964374194,-0.01230681901071415,2011-09-30 11:50:41.494875992,1.140212479
49.01973104040306,8.394950472621131,112.24271057886047,0.04218518012957982,0.020653909513930896,1.7432770614361712,16.358761424654748,-1.4043450389089305,11.700661793021403,0.009236562555640858,0.05472220339428374,1.5295718861915901,-0.2549182027119592,9.541740549658837,1.1420472393302659,-0.5711452326408234,9.185241377191895,-0.5226656982085849,0.008457519919724652,-0.020957445116426675,0.05797298719149073,0.03645775781173436,0.011722443810169845,2011-09-30 11:50:41.604481520,1.249818007
49.03128012741983,8.395379864581347,112.26181756029908,0.0393849815003998,0.011463522074076958,1.684274411618064,11.873024011925391,-2.2357329529394567,16.4243161673776,0.08832711824943607,-0.18256414164170098,-1.7685971939962895,-0.6786939466410695,9.981915023104486,-0.12486865492999055,0.6141715449421983,8.916477528280216,-0.07089484755488056,0.07240657306320546,0.014285712026794626,-0.08208397183679636,0.13066331098415881,-0.047920518979691504,2011-09-30 11:50:41.704506822,1.349843309
49.03547328087052,8.395059437934473,112.9998796098647,-0.0010782323097931479,0.012913411752699586,1.6809077566875177,17.857407756536965,-1.4817349116148988,16.146266389655835,0.01824142479994864,-0.06716683132565449,-0.20678898560598696,0.0636443164531593,9.324903266734392,0.2794219845811692,-0.8169154271711123,9.206307867217086,0.074578218737472,0.029780821330729474,-0.10785105289686647,0.19223943658001608,0.14969207377950206,-0.0039658907557941275,2011-09-30 11:50:41.814532877,1.459869364
49.031227364203104,8.395222742428498,112.21787765236648,-0.002053004841349536,0.01616367855198847,1.7041529999166896,14.421170219432074,-1.5758859917613677,17.460596479361225,-0.05329871721534854,-0.27105090195111486,-2.7776499163645667,-0.4955833576504555,10.17810187740909,0.5643148436145908,0.048821104803271016,8.87890683317356,0.050680050515624894,-0.061742073906051055,0.011230675336697912,0.02029449269514345,-0.017014167309397213,-0.0014942478806189248,2011-09-30 11:50:41.914494215,1.559830702
49.038095131717945,8.395383389209018,110.77893618802035,0.03815894606617699,0.013743288241243516,1.696969925701555,10.829693360110008,-0.9369091785953922,13.40096422683552,-0.0606468024113321,-0.07182796981413044,1.575484783720121,0.7005615586824298,12.34823798661343,-0.14416793932363076,-2.9478452943090026,7.805958417233287,0.08292832165451973,-0.25583817131909947,0.005820710900831196,0.052276087191115594,0.2602725348003403,-0.0057303219652922,2011-09-30 11:50:42.024698124,1.670034611
49.0323026164017,8.394716502918595,113.71064336444267,0.07326075290053005,0.0038739864346625545,1.6806168175547702,14.844152807670442,-1.3086526915911418,11.761375200272978,0.14894299036296518,-0.17593340735666702,-0.41178652230221763,1.145315703010511,5.502182678485408,0.42331153701061347,1.0473540603182623,9.535690300995231,0.01804957546462329,0.015340764591012005,0.24489265206892452,-0.22167006524660787,-0.025124674703280364,-0.005204376365427695,2011-09-30 11:50:42.124492431,1.769828918
49.03322127588696,8.395206698564962,112.37460982571515,-0.10666078249358135,0.01396534682034731,1.7000828629669384,17.950537637042093,-1.380637542470546,9.906675448098818,0.12207337928194172,-0.22169310033334017,0.0927904121657191,0.5065372320175924,9.83980348436699,0.3172838767948456,1.171877087141058,10.402497128791698,-0.2867213685837994,0.010704321362793234,-0.0826715743626354,0.024898454106328412,-0.23678155136499715,-0.009091674577506067,2011-09-30 11:50:42.224508836,1.869845323
49.028837535638665,8.39759495729137,111.6251895618575,-0.21940813413180213,0.015797819918705817,1.68028739962014,13.435455903264904,-1.5908405327788946,7.1328071595100235,0.5420652302448502,-0.7297603330759243,-1.1386499299139887,1.1256902383204963,9.626577637126248,1.15945347596986,0.006794397981299272,8.7781684320781,-0.08309603517050546,0.07932073735885728,-0.2454235792361654,-0.033258985263613185,0.06935213071007021,-0.025995876180512037,2011-09-30 11:50:42.334495009,1.979831496
49.032503490815266,8.394749751123069,112.73035194064809,0.04586923374272838,-0.0014876750543660958,1.6919953291493284,10.535653232223023,-1.1926175545238078,9.929336754075708,0.12853165000702116,-0.08424822498611512,-0.2816992127327918,0.21322781918660627,9.052129643358356,0.4441898421966114,-0.03607042751025902,8.889669362523263,-0.04988118772105775,0.015870706015161596,0.016874052484529934,0.061862677912873434,0.01957775626188462,0.0082788675019142,2011-09-30 11:50:42.434482060,2.079818547
49.028999447427154,8.395025569791823,111.44016061182303,0.04645454577685634,0.01894832105882832,1.70052456700977,9.401591557180168,-1.2019951810131728,17.664600687691575,0.15935466265727466,-0.19385077315212332,-0.46045931720846245,-0.004743121965819441,11.010020130945339,-1.2358297740726198,0.2739816338238873,8.816064254223404,0.0776439923617368,0.061980683752349414,-0.10169582376825473,0.02600584436761562,-0.049424601725194625,0.01642719448332583,2011-09-30 11:50:42.544550561,2.189887048
49.03629996422788,8.396111602470537,111.42459310640561,0.0516816274462306,0.044939602166979065,1.6766813248282826,11.842654073666086,-1.2871198917101239,-7.981940932394275,1.4267310561208502,-0.40999125583223966,0.9801797609749278,1.0365047182664338,8.53675963873923,-0.15724524343496787,0.45434793215229896,10.087590512692431,0.0878178577364934,-0.026541113747959845,-0.0014986151121379873,-0.12219319666259139,0.05269180358169834,-0.011532412099528886,2011-09-30 11:50:42.644533701,2.289870188
49.02848027328637,8.395764326744471,112.0669077362068,0.1817258522059025,0.00866804460650499,1.6831408349259644,18.33204544925524,0.9411581944660001,15.649865435334693,0.10730445753644811,-0.1138967209334193,1.0698024608492562,1.1735160876189608,10.810033449442638,-0.3864653801919435,-0.7426389452806537,12.059459612225513,-0.20246468464574963,-0.34464527630080993,-0.01887792399592995,-0.05145190256567943,-0.01250461925425879,-0.0037657831238827916,2011-09-30 11:50:42.754615340,2.399951827
49.009325827896,8.394115096938743,112.45529991716054,0.0178624631866994,0.015197348807698914,1.699223871400854,10.983556461155422,-1.2707547396898968,12.657815841992601,0.3919059389406524,-0.007364064581224544,-0.6849748956432967,0.5334270847166926,7.5548271157203155,0.8409841007515041,0.3111435728946712,9.814993956979523,0.048977373355081205,0.053968931734687434,-0.0058584332695806795,0.0022581560190711274,-0.21107582803907232,-0.08710962639984031,2011-09-30 11:50:42.854474768,2.499811255
49.03412218527279,8.39551140348657,112.5467131039912,-0.0073460873829304454,0.01009909554551323,1.6968217254526659,13.94844660754321,-1.5086562815405558,13.901971108905446,0.0780117362069562,0.15450406215815365,0.02355486354005351,-1.6295247100041812,8.235114738853428,-0.35973389324377936,-1.219620322976906,9.244645838737915,-0.10331198279496533,0.017400822953175042,0.201083726118025,-0.07063372314188567,0.04573577335546154,-0.013942235011501238,2011-09-30 11:50:42.954666845,2.600003332
49.03773878933626,8.395055761997353,112.89941150524986,0.05744554965588083,0.0019223474223458471,1.6953802345257152,15.403207544117297,-1.8256897414492894,16.403388724971556,0.026084920122898418,-0.07975098300636675,-0.6050949811048721,-0.34897147084448427,10.409348863144043,0.9560162959344489,-0.7531676765237175,9.404074899178847,0.08358910455280938,0.021302332009419906,0.027410740926984898,0.005931557700411479,-0.15801214121345533,-0.010786122116184392,2011-09-30 11:50:43.064553620,2.709890107
49.031901475985464,8.394156431772256,111.88952426177245,0.06899849016890772,0.01833816216437923,1.685363380107648,-26.05379964490513,3.6123283626310814,39.5165320242844,0.24332367446229805,-0.3071893547087362,0.006661631475387786,1.0739541232736916,9.076605830421315,1.1242311711964488,0.31452381726701906,10.353272265488553,-0.1071747054834049,-0.03368873784164564,0.041076331796738384,-0.051697644163788796,0.03073959490675194,0.002464490480825895,2011-09-30 11:50:43.164463227,2.809799714
49.02862463678365,8.39645020505741,112.8534527687142,0.051207926164435744,0.029814411053464253,1.7112933176534524,13.484974213284978,-0.21612708752668253,11.756705013946368,-0.19099599275969723,-0.20829073971092105,-0.3529543054031288,-4.088119858786133,15.951186964677829,-2.5337693224797526,-0.7143927015547674,7.872684254758816,0.013543188667943656,0.0772527312625036,0.018359786115852716,-0.08102821154696273,-0.009759491773275276,0.00691131362948251,2011-09-30 11:50:43.274466733,2.919803220
49.028158709729695,8.395266809440992,112.49077327950641,0.05664696847877608,0.009747259338830321,1.6775877826075312,21.443782521688433,-1.6182177202208725,16.010728581977094,-0.023750338799935832,-0.10221108127139603,0.7189755653943894,0.375897720958699,9.998834318366974,1.9623480667583346,-0.6210186083640974,10.09579732243034,0.018648424659840228,0.16772903024902455,0.0006837755434599736,0.001604449978456532,-0.02073378038181882,0.0066071606489345545,2011-09-30 11:50:43.374607792,3.019944279
49.032261161799994,8.396482754189043,111.7734401257596,0.03757362574106423,-0.01849532156396862,1.6634954335864205,15.249670294456536,-1.889524778500277,-10.422262983008212,0.05510305929107893,0.022231654998803765,-0.21828321581081794,-0.3806574220713441,9.633958083879703,0.14068864651514357,0.40653969306704263,9.105667700789759,0.007906975914960344,0.23396873868532406,-0.002366720137793597,-0.06261589287146928,0.2636365887603258,-0.013107507882529928,2011-09-30 11:50:43.474592203,3.119928690
49.03834806413225,8.395526199873744,106.38984369661969,0.056213732729288826,0.009208959500863437,1.6635725577044345,16.951306049926416,-1.6507965877206427,13.322741646324626,0.12476081470211825,-0.2407809000858676,2.5071353868786646,0.6338872998550644,10.064280771536625,-0.6778914530687274,0.3545522212070759,10.621466646156698,-0.11921820233439115,-0.017839511289160993,0.005972339399384884,0.023660128151693705,0.0060270111736252085,0.00696560568781854,2011-09-30 11:50:43.584435957,3.229772444
49.034716406970006,8.394968707296242,111.51600872777185,0.05372179685907592,0.008050936401426734,1.6702988210371952,13.441485641842249,-1.4705646073511909,25.168063889620452,-0.07895107069896562,-0.05741800489971444,1.0255633253941698,-0.37311912008029174,10.127677483580202,-0.4176492021882137,0.8538696077473831,10.845392230555436,-0.4396614329030536,-0.009522315952127696,0.0037903187968971286,-0.0043584827424615795,0.011690059715593629,-0.008560766005978234,2011-09-30 11:50:43.684447135,3.329783622
49.03116146533258,8.395241895508304,112.46575560819045,0.009041725738634463,0.007843780190777281,1.684736265219576,-0.07350520630136792,-1.5448322932895941,12.190079244220033,0.12646088027129831,-0.11753262613639985,-0.017523720413243973,-5.973816108133883,8.775764250877748,0.5457281327287028,0.14285303666008153,9.245249694822311,0.05320809804529208,-0.01008887093393723,0.017171226138431812,0.07704279292340867,0.029173802462365173,-0.027411454287293732,2011-09-30 11:50:43.794452053,3.439788540
49.028766032160505,8.39426698060978,112.65949447548695,0.08864883838760587,0.010848676228771894,1.7068178919706847,11.926712707132811,-1.7101012443299668,11.52195558166138,-0.10037919735652304,-0.2713324909840085,0.24940248576886961,0.5398505013620716,9.778472717401199,0.3212379854753416,-0.2650744071065513,9.140221487430331,0.002851685824398014,0.10608095444165949,-0.004860133838186398,0.07198258524646595,-0.062055438470410465,0.04784028001300168,2011-09-30 11:50:43.894447846,3.539784333
49.0358588257953,8.394992239537356,117.34939260054507,0.08378931925139542,0.027376453979010416,1.6977619900965806,14.610094800655716,-1.8482963372995391,7.467406955800823,0.18955033074440197,-0.1864281041009607,0.23876071874099253,0.49247760938386165,11.086580343453274,1.4168268338803425,0.4193822370407867,10.133329698637896,0.043694239787892636,0.028491195868952126,-0.016073464593364693,0.04063643088997203,0.03260112851428281,0.06195455040780312,2011-09-30 11:50:44.004559925,3.649896412
49.034777420693665,8.394346590280445,112.12989859419233,0.0385970941568938,0.035093568520229074,1.6960924099969932,13.026463486622436,-0.9832329064885164,20.50567073847253,0.03367732198644836,-0.03823134176634227,-0.09133996756316762,-0.09271009792361051,11.427143448848689,-1.105609876879839,-0.05688759697832538,7.173904117860052,0.11575592563221869,0.07673470455719057,-0.012211794818367339,-0.0692614832257304,-0.2565068754125657,-0.004039855878265155,2011-09-30 11:50:44.104450489,3.749786976
49.012145512469125,8.395079735856033,111.69840671510364,0.030913355919527038,0.02129825938024927,1.692280803593371,-3.4325585780089476,-1.5339275617767179,10.99357469355174,-0.1316414822428066,0.9742044421826831,1.0306836712895193,0.04333133591689786,8.58919977187152,-1.8954297743691617,-0.5766642831328309,9.617567151614464,-0.028018610426955973,0.09343768368718851,-0.0010503330218259513,0.021935917459553613,-0.009949266731471099,0.036794226267415256,2011-09-30 11:50:44.204504846,3.849841333
49.034854999808736,8.396127911926262,111.82014770206993,0.034032661912082623,0.0008385953981801635,1.6729370466976943,12.757340186733952,-0.6231689824584501,14.285481611037758,0.13067831623788828,-0.12832271324326364,-0.9405425061648953,0.2233539379592801,10.414600755284445,1.2737754894416444,0.6621018987606088,10.337038764877722,-0.006714604291863771,0.011877864288754128,-0.0029695155538116136,0.039779504876580725,0.008950608826688631,-0.0012789190332496338,2011-09-30 11:50:44.314455900,3.959792387
49.034473877828816,8.396099716958362,112.81977083631153,0.04024411091220725,0.01643809782084575,1.6970881385402765,13.260527454626695,-1.7716094515394885,14.389867115649384,0.5101488674416096,-0.2210930319968252,-2.4166269729442873,0.5308542493541586,10.141838676548277,0.11611117316746503,1.0494045681510782,9.31226655856093,0.019929818812397138,0.0001926485596422823,-0.02127631402272584,-0.007972413218108107,-0.022404209861432246,-0.0076691722750465464,2011-09-30 11:50:44.414449525,4.059786012
49.03677619437743,8.38668205714744,112.17297365692673,0.03251052994025044,0.01591295834664588,1.658793744727657,14.631938727918882,-1.6150488785122101,26.126744283487852,0.9352819537573345,-0.2296435092120786,0.6961462573108336,0.011807108667695021,8.709589517067544,-0.5056088642284531,-0.45679649015290164,9.035958240342637,0.03541698578519966,-0.040532481508646516,-0.11081250671289489,0.04152422581589857,-0.020972301060525535,0.11271361264834502,2011-09-30 11:50:44.524631969,4.169968456
49.0296994435161,8.396530982450571,112.52122609324671,0.08231336047147218,0.05188535861383069,1.6908368772009867,11.943672468377706,-2.0128747770693494,9.997586053684348,0.10871362288687896,-0.04622714985010548,-0.41808391122341537,-0.17727046732061202,10.02261594798688,3.87211131243651,-2.97761097165171,9.598030025820913,0.04351848978957755,-0.009466021091495034,-0.010942378358779665,0.05266754843899201,-0.0341903607760787,0.0018128498432462333,2011-09-30 11:50:44.624450700,4.269787187
49.03843373675417,8.394227553478768,112.56347704850134,-0.005947493408063026,-0.005208561694784359,1.702696228361005,14.77130763333271,-1.4883655896378662,8.952054712690058,0.3012042854611591,-0.15565652366962776,-0.1787399847291464,0.8599638766588462,10.05834373404802,0.21247541583875104,-0.8438716333126437,9.678549527677246,-0.08943330476174587,-0.00799159970065736,-0.009993896834041303,0.012786603750424346,-0.029765188363613772,0.003371674857416845,2011-09-30 11:50:44.724425744,4.369762231
49.03027616138116,8.396337395268226,111.88532108590593,0.0638655454692273,0.021931237400608098,1.6730632652522566,12.85850932564338,-0.9977054127138898,19.373469416164735,0.13548392216581523,-0.3548584893111536,-0.7297902401525864,0.4046796289889205,9.592716169536068,-0.7354965539461823,-0.061761196813129166,9.655580751949945,0.21690105537920742,0.0816080625986989,-0.17498223174315375,0.06009092659607368,0.07840354826375519,0.018336118069531625,2011-09-30 11:50:44.834451378,4.479787865
49.019753644298156,8.392526584539237,112.58285394758673,0.06162047704087036,0.016408073527825758,1.7168038672437576,15.247295480086063,-2.5664415120254733,15.294133046213073,0.3505625525642305,-0.9526938256317102,-1.0506166260896481,0.8903083198219763,8.46568194359037,-0.4102518368289847,2.4352184553457756,4.96755859834555,-0.0034377968101633634,-0.009071009253521013,-0.013761728083847496,-0.03365399580784666,-0.053279418327190735,-0.012396144097793566,2011-09-30 11:50:44.934414617,4.579751104
49.035890321094136,8.395364739742599,110.58196754219244,-0.002339780705740646,0.021106670285144846,1.6700133530753245,13.91251585413621,-1.288188137360816,10.295636790792894,0.3075444155654651,-0.1869991525791436,-1.2785609756983645,-0.37703810889749856,10.893817157198677,-0.6217885015167386,0.08564698126977878,10.179483880377873,0.031149035285035858,0.0075407777430972715,-0.01068300942359212,0.06429652103344938,-0.011147604855402823,-0.009762503556124775,2011-09-30 11:50:45.044514786,4.689851273
49.03513635088534,8.394977422236419,106.87832734763862,0.07985402223310326,0.014994501266300649,1.7003865153730395,13.528920734020971,-1.0780679157215887,8.958290495717637,0.08684895410519512,-0.17956684051746785,-0.31460101876011826,0.9908287606327405,10.213150453383026,-0.5405036132260501,0.08988447797927489,9.08918551899133,0.06652287313835348,-0.03825609522058769,0.1150553220177894,0.11169095766079992,0.0033546328961138786,-0.12411940174638271,2011-09-30 11:50:45.144418893,4.789755380
49.030041369447034,8.39427470520853,111.80020638042116,0.03785783634520133,0.017492269762049692,1.7178121641960193,13.962824666317143,-2.080994348818561,14.365124322400915,-0.057051295264797214,0.04534389405347994,0.19984435681885315,-0.37879527994242906,8.881476312524814,-1.2973269920103978,-2.2126061650093023,9.84979525331174,-0.020758445791400355,-0.0821021556234539,0.005042996034097492,0.08872438306184194,0.009636502188257432,-0.022318625598624048,2011-09-30 11:50:45.244387967,4.889724454
49.03040778905743,8.39520919679508,111.95183025344218,0.08927516217919815,0.0045088691690225394,1.6919660456364112,12.768135679883656,-1.4159653334656142,11.883092577852128,0.30293394718231514,0.16716323263235366,-0.09253044002636385,0.39888763868594157,9.779257258097786,-0.28933594099183296,0.6122409959768194,11.706593995792849,0.007596689112100811,-0.06180689064903017,-0.2093160579298869,0.04009371886118537,-0.022280891750103764,-0.010603549214446879,2011-09-30 11:50:45.354372796,4.999709283
49.019599150402904,8.395075443064108,113.16184163173274,-0.015572787149545068,-0.006533841116504145,1.6927448682148643,15.507228642817143,-1.0085646451378476,24.05128784000017,0.051710177643560465,0.6628054849176007,-0.47002701895715215,1.257775129757125,11.380520612186942,-2.562809060131121,-1.2168758523595347,9.436005493455763,0.00040170056297861474,-0.02877092586041978,0.05450542844543521,0.03593959767519303,0.07018648081310612,-0.04457515827206458,2011-09-30 11:50:45.454485166,5.099821653
49.03997622811699,8.39290255373683,112.27462889216226,-0.13364061198879348,0.01690007518583631,1.678869142565181,17.489535316517085,-1.1554373034259593,39.70213775478838,0.015207404761098744,-0.15041057226190657,-0.5132711015879685,1.0760013550012526,9.2574530950927,0.5882204898918173,0.877196966887584,10.499996777716586,0.007811127424024917,-0.10544074198855911,-0.022571083778961068,-0.02722964698323178,0.04904743857010138,-0.01936053970618547,2011-09-30 11:50:45.564594254,5.209930741
49.01164329902406,8.39788889977215,109.99148795440902,0.012962305986466534,0.017298546329944712,1.6859891923236738,15.743016880687682,-1.309655822884843,12.07493937719319,0.014891806317598668,-0.12357721949967235,0.5853929078772563,-0.4868034999286373,9.975482935510067,-0.10336937405402566,0.16386164072184678,9.038953907441964,-0.03747762888218613,-0.05916095425852818,-0.014560156198433915,-0.0035449770376551823,0.003113371519995207,-0.0086297467691605,2011-09-30 11:50:45.664424182,5.309760669
49.04299049776833,8.395839584460608,112.09673867332475,0.03812018444713997,0.03833200424833004,1.6704696685710492,11.30596161882782,-1.293988643619587,12.109078610334588,-0.10461228616644738,-0.13537916284339602,-0.5112486085148141,0.6199012702992297,10.442300083559772,0.7341797052883323,-0.6221398138018859,10.01775142258233,0.04699370162336384,-0.0007006164500765544,0.004891453766727518,-0.04442491659183432,0.028087132419320166,0.006681314421299317,2011-09-30 11:50:45.774403107,5.419739594
49.0202281420482,8.389978596788874,112.04857766360281,0.022935895276956213,0.006836025045683912,1.5996903723150344,18.05670042443121,-1.6380468906695904,14.713228176391894,0.426298833162462,-1.1184939085637153,-0.21779060320351548,0.856300644594308,8.84191681405833,-1.5519563075183054,0.039158812755280686,9.216855518083657,-0.0978480216643488,0.037546093260765766,-0.01065078587893516,-0.04496218273302707,0.010581785989430626,-0.005723513695141311,2011-09-30 11:50:45.874578123,5.519914610
49.03675253106659,8.39447181405456,111.55101588835961,0.04402220203601338,0.0085896038520393,1.6976498045169184,9.962327033573347,-1.5809648347568208,18.01417258031623,0.039771866119515636,-0.2827911079041382,-0.3120396445200565,-0.21820470850765258,10.544768900962936,0.41854409576144447,-4.419694223765225,8.622582306640883,0.017380582597783606,0.02855248729404238,0.019390650974836866,0.21824096822698014,-0.036829019623475096,0.04664190275884233,2011-09-30 11:50:45.974638331,5.619974818
49.03096653747892,8.394602731809677,111.75400815072675,0.06680059062219418,0.02147515041074776,1.7019242317889796,36.95243299313728,-2.005001401469978,18.07251368026791,0.19216399798552777,-0.1462234713570415,-7.12965813645882,-0.7208401671670056,9.210205186038895,0.04037855271810542,0.41031416318215247,9.98984096485487,0.021115406496383167,-0.045347075774962636,0.004354803515104698,-0.0752101856285694,0.015851010758769758,-0.035090237193409014,2011-09-30 11:50:46.084435027,5.729771514
49.036344365970436,8.39399910410597,112.21585910117184,0.07405321438477663,0.018722706465918323,1.6761989323190059,6.153014831567969,-0.9985458096998162,11.221552940809262,0.03995657939809463,-0.3660058620465359,0.4851956463139457,-0.6736403281494665,10.028303847787333,-0.1000213750087687,-0.5644783530242159,9.914995697835183,0.2158975975943264,-0.046919694290104175,0.07323560476467966,0.08394075846004467,0.03236854150495864,-0.016410944310170518,2011-09-30 11:50:46.184411452,5.829747939
49.0323354043666,8.391668072926944,111.71645543182247,0.02691072642243415,0.014583013784544758,1.6653119619087593,17.185408058243908,-2.0386356760403985,-7.2582304390799965,0.3710901185257659,-0.2606749119572439,0.14920131005296378,-0.04755590449923788,10.083232982247806,0.1819850223258691,0.1881201721732632,9.356527628943708,0.04600586087381492,-0.05180875394904506,0.01784292940190491,-0.06133551227926358,0.051626098777840496,-0.012481092142927839,2011-09-30 11:50:46.294415934,5.939752421
49.03749377809311,8.39557747193163,112.0120661991062,-0.013902722206551681,0.012584673359484818,1.68777738545164,15.179427101689804,-0.8117734360146209,3.6888221474259755,-0.09467263144639444,-0.3187484789567789,0.3506731647001454,0.02018618936559753,9.957940285779841,4.9548140219697405,-2.3715870360214564,10.54656767334306,-0.18011320529772648,0.18551792571331893,0.013119423732501866,-0.3736880354222445,-0.002328976415505334,0.0461268967399951,2011-09-30 11:50:46.394398443,6.039734930
49.03266273860742,8.394449803360548,112.68498639149453,0.057036333874081545,0.020523011699286543,1.66813423224779,-8.836742850918586,-1.5317116421518657,14.081794465844244,0.1154470346796106,-0.11993169317742995,-1.6571638652866636,0.9203400590909281,10.330703157453412,0.4204444551203438,-0.4560682661296004,10.825695725328531,-0.021889984846339954,-0.47483245704576954,0.004605339416477134,0.023932008641183597,0.005991965297281476,0.020085432302365196,2011-09-30 11:50:46.494572704,6.139909191
49.03395259904202,8.39426743139802,110.23427892580067,0.008393213067190292,0.02840362269903976,1.6822516479496181,20.091136442678096,-2.2001067836376236,18.580586106040794,0.042395413705719545,-0.23295676622538125,-1.3679600691293363,0.7239006842618643,9.519063142411037,-0.05836632584425275,0.3464202765296386,10.050095283765394,-0.05465257151663802,0.020200311633623687,0.04587502124398567,0.08623745727788182,0.11590728444021449,-0.0008396299122578378,2011-09-30 11:50:46.604463866,6.249800353
49.03328633195705,8.394686250840515,111.75407724119802,0.27176331844059143,0.01526578673435958,1.6812494585663782,14.646069343275677,-1.6188167471027655,8.488603528027198,0.13071429894448422,-0.12522229177173572,-0.9535518981460276,0.30530705854263446,10.58092291668735,-0.8067315196535224,-0.5288260755576593,9.500595987556162,0.04784622277478374,0.10253900607001346,-0.007798902078982513,0.05535924875026599,0.02443810915081972,0.030067650738810542,2011-09-30 11:50:46.704382604,6.349719091
49.03234567236989,8.394732619248387,111.89914826898567,-0.019202361518243876,0.014251813466847101,1.6909514328448814,15.274467458197016,-1.0347660978223807,15.792261776017892,-0.04854418626408747,-0.24248838530246825,-1.0278382893463691,-0.829555565276732,10.804040346811274,-4.6845280272182706,0.2455999644217614,9.73021168039929,0.40953339648804865,-0.04003403496786202,-0.01796025112115594,0.03195842593242284,0.04906431572095343,-0.07519152432452435,2011-09-30 11:50:46.814388409,6.459724896
49.03484282164541,8.395620875820962,112.15198962799273,0.03448786119246784,0.009394568554597013,1.6774775778171334,7.931665225865027,-2.4131787740636703,20.07258644984845,0.051406116620464126,-0.10963521052892,0.6547060218730768,-0.2086099866316887,5.500622618170592,-0.3760468216254841,-2.7446836351145087,7.728770029238046,-0.015666457887034548,0.0075261474770787476,0.05262240309839126,0.09928132770266648,0.2576596320162967,0.010771327140722273,2011-09-30 11:50:46.914357825,6.559694312
49.03177428335208,8.3949310063114,111.71078279898585,-0.3016788786431168,0.0394105576475486,1.6957089026636722,11.920646359535494,1.6747971127463444,15.159048790688395,0.07609593935523491,-0.15575781735369731,-0.08998477749236578,3.5521761209468825,7.777185121390042,-0.14402039354833318,-1.4992184300497768,4.368181543665436,0.22761202440838296,-0.380549474025327,0.013735080175204313,-0.07709288818898959,0.026328720595033335,-0.017459437126691874,2011-09-30 11:50:47.014477539,6.659814026
49.02986630946351,8.395168229439756,111.76309564242018,0.04395117109341307,0.025146059687687707,1.6988616020535967,13.764107591465587,-1.8372662732356222,8.987401142279236,0.03607742552889187,-0.0329299054992086,-1.5687648675722328,1.4249385788592397,10.082342689238084,-0.7206885933191973,0.1593296059629064,11.409988766920671,0.001406992805848252,0.0017308308604693711,-0.03027704745040896,0.009481658642150925,0.017447548706981217,-0.0033101801061381757,2011-09-30 11:50:47.124385543,6.769722030
49.0495134493305,8.395276934983613,111.9789266124702,0.02061480423347241,0.005121344735463421,1.6895418644014157,12.784185278017176,-1.4231790667533524,15.82707527755871,-0.09945134163847891,0.07353285852135008,0.4204930427700437,0.7540672645041993,10.358092255522122,-0.25068835731187256,0.6229713794873628,9.461420551592528,-0.012395774765713907,0.029208793047089426,0.04635255207838945,0.06270001337886846,-0.055748038452348554,0.009456666553895515,2011-09-30 11:50:47.224361430,6.869697917
49.0358179124533,8.394447602344684,112.16397073082754,0.1603575627190885,0.012620524165679887,1.6953661625711585,4.043177425728553,-3.1073196980608313,16.939967878808286,0.4639104248345998,-0.0919613485940945,-0.5755966593316559,-0.8430225566859265,9.729454822803122,-1.040676516230459,0.5111820354864318,9.623532515982996,-0.019243384548108207,0.036800067012437564,-0.0025120486845834613,0.04256777166363987,-0.0007207980914019445,0.0021543937749675173,2011-09-30 11:50:47.334371376,6.979707863
49.0357368943209,8.3945621369171,112.63478150982684,0.06194374632888976,0.020170665885002926,1.6878395888196103,13.097619206434064,-1.606215817625531,13.964472846268148,0.11242749508679925,-0.13916175963784205,-0.6625550839735933,0.7410368564762598,11.02203422146247,2.4098911166877275,0.2675372183485221,9.471090463083446,0.01489179208227294,0.01542290324314197,-0.003357960825086188,0.00761876920581136,0.028557864757742746,0.03529910912362234,2011-09-30 11:50:47.434383505,7.079719992
49.03326982156299,8.395405287643282,112.48759730319753,0.040258996038381734,-0.03593678838510227,1.6907138073251462,14.082957158870249,-1.0652008390742043,17.117288400594916,-0.21361486761720191,-0.0557829778889003,-0.28090298352673826,0.18293049134965472,9.119331594110925,-4.348449741583526,0.38685798331851695,10.174926034585658,-0.023208235320199833,-0.031076451354864587,-0.03614252866127807,0.0032389504245224,0.09157841717805194,0.03836258290838231,2011-09-30 11:50:47.544408031,7.189744518
49.03615000076789,8.394993837991112,112.44058186429916,0.024205813213648834,0.012193053698105218,1.7606724544402266,1.4050961259955148,-0.2953903851926889,12.25625021387454,0.8613333405023711,-0.21250731340736723,-0.208576144103578,0.1700122484710452,9.974098095134373,-0.6174006312016835,0.7204405855999946,9.621551042917394,0.3925919115449192,-0.053769093784976726,-0.2058705884137212,-0.027419973407371987,-0.06470563669213529,0.005324817152670171,2011-09-30 11:50:47.644360974,7.289697461
49.03518230997219,8.394953078784582,112.03640892165566,0.06468514493682602,0.011941562978217163,1.6757604028354658,19.767048883997262,-1.4846517759562792,11.242504210631257,0.16421192423913697,-0.08469390443629887,0.09906769249681274,0.5415854269606859,9.727347116249339,-0.6140397217122975,0.6958348533492611,10.6894710468878,0.09678222220212097,0.04712600472029314,-0.031210758281695783,-0.03335127608265421,0.03410324272134414,-0.021684307731777378,2011-09-30 11:50:47.744381482,7.389717969
49.030387103264346,8.396288787205165,112.16064393328922,0.06575655622705025,0.02631162527458807,1.7033594987602338,5.9265843003881065,-1.9072643433110266,11.465020229680333,0.022104033559088746,-0.3145461674158849,5.7690579959255,-0.5166664796103498,9.135400314672085,-1.323658528605804,-0.2620727796448436,9.421289445820182,0.004422723655744525,-0.011315517748399699,0.012925946899291545,0.02676427363446162,0.0408297968870316,-0.020634202349595353,2011-09-30 11:50:47.854412220,7.499748707
49.02831729785325,8.395521006354299,112.2746664442091,0.07842580337694871,-0.0007541457649211901,1.743979442909067,12.597999494075976,-1.8170338394642163,11.346278350964099,-0.08186076221293219,-0.032939050557186156,-0.032476435501999024,0.0342017743479123,9.64590020864923,0.03728873698163687,0.0862229885154058,11.306755025733647,0.06122108643917194,0.02254734345968237,0.010900068242175815,0.0543909852103505,0.007847215084631647,-0.0015716483077650018,2011-09-30 11:50:47.954573717,7.599910204
49.03226998127196,8.39398704917552,112.7771405252769,-0.013775633471475417,0.015891674339876573,1.7050865507554227,16.470966666536384,-1.4696563773836768,11.984675120251799,0.06764912834718192,-0.18561323884187628,-1.0648146460211203,0.5116739988868809,4.291844164321801,-0.17623506340424605,0.4896693600839027,8.303938479022378,-0.06794761904401923,-0.013086130727341735,0.001428823181382073,-0.0381269937205806,0.007628793513447141,-0.014618628538251374,2011-09-30 11:50:48.064433049,7.709769536
49.03806116007022,8.395106186939628,114.06501456983001,0.0438185912334141,0.004314014611940389,1.6802395362470843,13.770476754844482,-1.22590099133819,19.2501799189836,-0.09559104442000067,-0.17959587493796114,-1.3452500845644129,-0.2917429549318988,9.384176098390252,-0.8865615586059862,1.8191285441488134,8.953348530615427,-0.07262889329935199,0.00018673637288672829,-0.007526861482604843,-0.08920705787003509,-0.10041779929139116,0.002304632489395522,2011-09-30 11:50:48.164424300,7.809760787
49.0251417642663,8.396564720929756,110.97471594903647,0.0812932158685957,0.016395923622645317,1.6736798794235526,18.64951782455095,-1.0222756965308295,13.896120002959517,0.09179964345225092,-0.015418478213560988,-0.902631748978006,0.31191653639058753,8.90800727801923,-0.4794858064833072,-0.6020071789601764,10.443572802560027,0.0644913184696629,-0.03582382857552542,0.011253491771230265,0.1166451793638759,-0.14978508771105212,0.013516151677795863,2011-09-30 11:50:48.264321918,7.909658405
49.03139680005478,8.394569680674989,112.08758287455058,0.0471636571379968,0.017492697732471748,1.710468707596186,14.751305517703484,-0.6654071312401932,6.020349343192169,-1.3412710505683276,0.3030092003597862,6.633759575277754,0.03387906892241779,9.367271587828336,0.057371435305851204,0.046868281211074864,10.934523345500734,-0.021747079477360497,0.27190469853243515,-0.00048546214058727634,0.0679757456311417,0.010281713718276277,0.16940371350841124,2011-09-30 11:50:48.374516522,8.019853009
49.03038146993813,8.395852800108024,116.86713751475254,-0.011960760596867348,0.06275900938133429,1.6988589988456473,12.472208170335987,-3.5275458235462813,15.512195584611256,-0.18638695952460407,-0.0898490856932054,-4.292713331580608,1.520800768427861,10.260625600122388,-0.2262549958083953,-0.029327042101552632,9.628500724492866,-0.02374447297170849,0.09997555034560282,0.0394610758771259,0.06056908652991548,0.0002153815617968631,-0.05021658730858961,2011-09-30 11:50:48.474440339,8.119776826
49.01398908713379,8.39261566107245,112.97807156608435,0.0033068220657372846,0.023253468887412622,1.6994776207436564,19.062424933371396,-1.4012869816488767,16.67581936883228,0.06292017018925943,-0.08581196192620688,-1.218729995232318,0.9095927494861271,8.901395776775919,-0.8013994548424596,-1.3827721476551391,9.81534069074667,-0.06399949307675626,0.03783783666434658,-0.02523012352366352,-0.016971651991009737,0.041271761628397685,0.10544053347751386,2011-09-30 11:50:48.584370192,8.229706679
49.037447768605695,8.39573870362502,111.53732230015528,0.017715406896578193,0.02278229026609377,1.6867399544072246,10.723637610738898,-1.8399489461944336,18.962613473726016,-0.06457706904770584,-0.03722605441362184,-0.607545182306226,0.12732489266674432,9.706625313431612,-0.8878529943129587,0.9647872477888291,10.067621882845081,0.1710058413635753,0.16866464962421954,0.02766064316645212,0.03934540399823453,-0.03042073817794785,-0.004788321884724554,2011-09-30 11:50:48.684354809,8.329691296
49.03220947131823,8.394805612894805,112.23477686990476,0.0400081167964203,0.012354762041692615,1.6895003734050007,12.124517524967958,-1.7839265203107582,12.266151759168276,-0.9839396783815713,-0.21400178231915257,-0.5527536335955221,-0.4225738850645919,9.666326306159998,0.21792557086680492,-0.13948523182000955,9.807419495793816,0.029915129226761778,-0.011602617645468164,0.0007371802173945941,-0.007975704461789851,-0.08140362567631014,0.018033563763861726,2011-09-30 11:50:48.784332687,8.429669174
49.0331295287228,8.393733738996588,111.36637184524615,0.00887696463865368,0.00499894649342676,1.6801729795650766,11.605107324992673,-1.8811492293995686,14.509620860055916,-0.12124605322001591,-0.07942889606882356,1.2651272203089228,2.9438195437744064,5.7907535559825485,0.34884173233905913,0.19188322217891488,2.4024561856214417,-0.0697268345633285,0.12060918123520355,-0.19648249950422658,-0.11978979821467496,-0.03447622196601506,0.14349084869087778,2011-09-30 11:50:48.894330855,8.539667342
49.035887698778666,8.394526761279229,112.36209789142964,0.018668063964176845,0.025304487232290552,1.682260410604365,11.547713677746708,-1.5369196156263214,18.71171760880209,-0.20081367570129907,-0.14735989889490225,-0.4562336947543834,0.40924559871004434,9.946723742090015,0.7578460482964631,0.20882878626598855,10.441631039007827,0.03515879764548653,-0.02566890570728871,0.005630890812366665,-0.024930196154880718,-0.022708381881154052,-0.0569303043156674,2011-09-30 11:50:48.994545298,8.639881785
49.0332583560344,8.394676978342284,111.50582159825359,0.08088936704461594,0.02593312859654829,1.6722505253103799,16.426772516400895,-1.6581682347954407,9.140541658787429,-0.08572067553243681,-0.8919774334833483,-0.274141535851544,1.8645087363974504,9.71450114299423,0.3387514850854213,0.49016279069242874,9.907141546473596,-0.11547757221604249,-0.03857226516622704,-0.018233230571246012,-0.1060211700801957,0.04414200500385194,0.015231374431649883,2011-09-30 11:50:49.104343491,8.749679978
49.03892316483684,8.39436839537695,112.90175094803465,-0.0019721569722728483,0.012839523296892518,1.706083246757782,7.252621028459166,-1.3509540757157734,12.460351659109959,0.03690334727694426,-0.0941559984545651,-0.3258263468258237,9.887952304759214,9.10793890663989,0.40711274525738766,-0.06190792918100241,9.70780145996926,-0.09788719665492894,0.03225001869765172,-0.053292517558569036,-0.035340181439525484,0.06562758601806215,-0.012823736348270335,2011-09-30 11:50:49.204333178,8.849669665
49.03737412417615,8.395107409490862,112.47196660915375,-0.05508214760184921,0.006781839156309977,1.6909820496471382,17.32163933696187,-2.142908547624393,14.167074875627794,0.6756493432756058,0.028063685700020227,-1.8085335449230546,-0.10522645366460873,9.230526189641257,-0.32679148225511945,0.26627349981418774,10.461962316862627,-0.07077798306716651,-0.01999170418888265,0.01237419213526158,0.28872861623492546,0.0966395002542534,-0.01984271534945506,2011-09-30 11:50:49.314336112,8.959672599
49.02868668924765,8.395735487518268,111.66302041161481,0.05962761703255141,0.009951995132653851,1.680693148938368,11.979520393321822,-1.0116089506751678,10.192810323412433,0.07757446949129994,-0.2542508258096443,-0.35142615501353053,0.9100075684568314,9.425971568952523,-0.007950445321045066,0.9750750702224588,9.586214837149605,-0.05122683603838901,0.15173154211848805,0.040312789236840126,0.013836559873068283,0.005558572996314964,-0.009514942775033602,2011-09-30 11:50:49.414358681,9.059695168
49.03645698933481,8.394287715213931,111.60983942382376,0.040463481271016524,0.010044307318142893,1.6516580400397969,8.881177600760477,-1.2241583484718475,12.751789164404626,-0.029310269197388654,-0.09231699216102464,-0.02957545972256814,-0.58955420215939,10.287714702815652,2.662613401850205,-0.02062176928580696,9.050671405395779,0.019057202297857585,-0.00047571587974886776,0.044726840988843095,-0.1204592052959662,0.04103570281662781,0.0316712285528543,2011-09-30 11:50:49.514365720,9.159702207
49.03960526871379,8.390812891489645,112.18189074444722,0.07290416487951731,0.01611978354767084,1.625931242420226,13.567875288030915,-0.5762262195560203,9.765057980062881,-0.10876166755321051,-0.04878873867021151,-1.734558932563937,0.7267418262465967,8.95312522650284,-0.22646183150674062,0.277922521072483,9.796151241627978,-0.31800659978677814,-0.00466722916871189,0.01789112194529327,0.05165329459900962,0.019307022833848227,-0.018953072775082937,2011-09-30 11:50:49.624320062,9.269656549
49.03216516292086,8.394730770246081,112.82407508937092,0.24601027580688503,0.015265506244199286,1.6907623642704364,9.548469213532428,-1.5533155773309357,-6.1998939716922745,-0.16186298156235243,0.15690750704910505,0.6923105280614065,-0.18859895828029372,9.422524622547533,-0.5495746397523402,0.3482577668963469,9.999566731188656,-0.017607499211498418,0.005831522629348214,-0.0824237817470562,0.029339207340259098,-0.004082954238460801,-0.05285856712615036,2011-09-30 11:50:49.724388556,9.369725043
49.03677961826079,8.39577334395048,111.78354327186496,0.03663109902417306,0.023239536879154386,1.7038653950833378,10.470559044095186,-1.753347052731749,17.23018198994453,0.1573118592487124,-0.031667205402179294,1.2967790166333304,0.015419811351617074,10.001231659223818,-4.712760814523482,-1.311640658627424,9.463048434532675,-0.10111627199693737,-0.0007270836117398444,-0.022402455210962943,0.04977188376008695,0.012490818575585287,-0.09171245680445242,2011-09-30 11:50:49.834326453,9.479662940
49.030796487427864,8.395256934153617,111.05019629601213,-0.04087140028301062,0.007913387371134216,1.67998365035381,16.158763197994173,-1.7231199303517144,14.724442072373355,0.019797732811231955,-0.15031061429021003,1.6149178550579917,-0.6516856759326022,10.4120976692722,-0.0692484937968996,-0.4051012631708086,10.145272342191364,-0.052570469941360186,-0.019637944312497026,-0.01102265537818409,-0.058807340097977064,0.05401551093094937,-0.03175223556011235,2011-09-30 11:50:49.934333801,9.579670288
49.03062100106106,8.395491610084806,111.42979528570508,-0.042883978571749526,0.01620802711224178,1.6769923114794045,14.42041998945864,-1.8352043530001585,13.031114508927233,-0.23287976734068688,-0.18195410971593065,-3.070584500414384,0.5654346049302671,10.424621077144032,-0.47359673762837184,0.3183187785820876,7.709922092909111,0.041582708544313896,0.007210123262221058,0.01000073300990918,-0.05178711501086553,0.02536663764869302,-0.012782472727687524,2011-09-30 11:50:50.034591038,9.679927525
49.02098327255241,8.395803765807226,111.2774543002637,0.03949065875382722,-0.0024663179616784565,1.6854006290670078,18.31424541957942,-0.6820405819538615,15.171476970507065,0.00847079561245788,-0.15145776128929886,-0.16837131561848556,-0.5764892554800789,9.699531496145534,-1.0532432757201775,4.229307135234334,9.779798206224319,-0.17162488725453998,0.012475089227757528,-0.026965531277075176,0.00849186200518015,-0.04930601013487773,-0.019477248520774,2011-09-30 11:50:50.144336413,9.789672900
49.03720889886004,8.394367683268674,115.19346586537557,0.023932714369575284,0.024873408859256086,1.6824486943208485,9.423883878776945,-0.9536868641933272,11.26222574796495,-0.09833630090890777,-0.13338109845928264,1.5785068592035763,0.17841304776668496,9.325039441455267,-0.017565738995180276,0.3235817482794657,9.080773192124909,-0.05478587243861333,0.032687040900342065,-0.008675163583746658,0.05000541829895545,-0.07583907720309456,-0.0026324329256482764,2011-09-30 11:50:50.244319640,9.889656127
49.033370666580275,8.394702050267485,111.78614698716596,0.011251483775066275,-0.0004894691314263466,1.6078433954270417,11.491774701797473,-1.4379218910930804,12.624523964460108,-0.1797082056217043,-0.04824387685384973,-0.38480869430404196,0.19529221285936377,9.44458719329562,-0.5773370224194662,0.8916545480852792,10.02168710959856,0.022658487499203572,0.006528939117038286,-0.03420555946570222,0.09837518197439188,-0.0030517631667962715,0.007403489732509655,2011-09-30 11:50:50.354498294,9.999834781
49.037925819293385,8.391781240911584,114.65581928345132,0.14867970050180246,0.028468523952857913,1.6888744425642228,10.570348275553648,-1.8439172830790806,10.634796127279394,-0.08159273190355273,-0.19548256246821782,-1.4107787114853456,0.4148410210928313,10.079045131809716,-0.045262045801868,0.10208213435582061,9.919937364610288,-0.07373064088160407,0.0013624462307743907,-0.019906266675490135,0.3796833470364093,0.08675872008819593,0.012701829669807768,2011-09-30 11:50:50.454494657,10.099831144
49.034812709714046,8.395911919734594,111.70403489602161,0.0358800234566977,-0.014440421714887193,1.670152881863438,12.943126087726517,-2.6135105581895766,14.004148945608955,0.44513712814600725,-0.24578407393523444,0.45113425247400746,-1.473852351063459,10.139202820380152,-1.0546101610078527,0.9028209127753677,10.707412746454223,0.041340926891688355,0.03316024597584016,0.07743682552611407,0.050944033701439295,0.07680971469990415,-0.13025084407244197,2011-09-30 11:50:50.554461291,10.199797778
49.036415875727485,8.393930181229205,111.73873516552118,0.06380422971086282,0.002294038962197764,1.6837660587890715,10.385205458155594,-0.7627858308378879,10.051378629883928,-0.03189345420978666,-0.027259822264699335,-1.0142107332044916,0.4775159617723843,8.948513416840456,2.095018303906035,-0.39720942737706183,8.926060632350884,-0.008760589020326632,-0.007263627910960812,-0.016307561877603193,0.01661871150808232,-0.04828781948845067,0.004120287689734116,2011-09-30 11:50:50.664276471,10.309612958
49.0346794104008,8.395852038929913,112.61106107989143,0.09134887875177083,0.016426264185130327,1.639440561051417,14.958413663152054,-1.4880775248797211,15.01030572333273,1.2434299487737874,-0.28884683375747666,0.09036595171409406,0.5549549567955001,10.165294332586202,1.4225690249995944,0.37301525475143604,10.460422227489097,0.11128091875471968,0.002738323595534256,0.020502922548704672,0.03560644310898779,-0.3397560693692674,-0.008811777870961861,2011-09-30 11:50:50.764439996,10.409776483
49.03938337557647,8.395285204113199,112.208840729031,-0.006426957816616355,0.010284634087875224,1.6711029389407133,10.898655790965984,-1.0602458021962191,11.106773199413134,-0.020965746961961837,-0.10736387840319349,-0.6106647834346067,0.4032868076537253,9.316721216677847,-0.9712801629472635,0.567653707577402,8.933505344173575,-0.440850993874606,0.0341591933702933,0.013040831614634344,-0.007548201758384594,-0.03527292118774313,0.026894908472001995,2011-09-30 11:50:50.874408971,10.519745458
49.05307826043939,8.395673289489972,112.59915389418691,0.03616898319133367,0.016766722170658766,1.6938842818575086,11.577106202180326,-2.000195027916014,14.121674430962623,-0.16574974131240583,-0.2492368166761802,0.05267221696674221,-4.660663914297069,8.553190768579533,-0.09211422533969657,0.1859466846263031,10.252789658442472,0.013965523470112555,0.023923957028637914,0.0011101458378173258,-0.0031278584313185927,-0.0012609453335740628,0.012565924557674458,2011-09-30 11:50:50.974370663,10.619707150
49.03221238375431,8.393917119207067,112.20552206714416,0.03204322654677589,0.030791358972639654,1.7561221415957937,9.860520535959209,-1.122092229472857,10.532211040780984,0.8178295515774738,0.08342088044213453,1.135496889014725,0.5778813727830905,10.330346179847066,-2.804317995421814,0.076918361153623,12.381150862498744,0.01176827048864693,0.21123879759140715,0.005367389527219723,-0.05913663974472637,-0.05759964668905275,0.028841231026408082,2011-09-30 11:50:51.084338535,10.729675022
49.033243147991136,8.39556909570696,110.04202402998993,0.06699898262141968,0.032944924597977265,1.6830013204573826,10.333221051295526,-1.2425304350516988,17.153127627186173,-0.07606394027907501,-0.04623770695572858,-0.31918324885815963,1.258603657792421,9.950352987350245,0.7681624663033025,-0.8450740520916122,9.593498076322744,-0.07075766849065163,0.03865833300413682,0.017948189570352262,0.13297666558426532,-0.10884681653172182,0.08851220210623324,2011-09-30 11:50:51.184294886,10.829631373
49.03060736908125,8.393941828472045,111.68438473066591,0.022040208265881843,0.023171972991586662,1.6634419213432985,37.59590312484004,-1.2890964786247763,7.773198976686254,-0.16678272256288632,-0.1137589490791487,-0.4182961138379103,3.841372214387383,10.002326946224825,-0.5492198504357089,0.5447746643726957,10.718721388991252,0.013187330001874172,0.08980545088633299,-0.013706919185025004,0.0637403561524454,-0.03502893778150513,0.04809839113227997,2011-09-30 11:50:51.284350529,10.929687016
49.02998984601235,8.398570861786416,112.01636603339605,-0.12314020617139347,0.06699651337555654,1.694122035337764,8.69917559818327,-1.7480234070035787,21.65224019111953,0.025389779002736187,-0.11844171745578351,2.8238881928870105,-0.43984842962411447,8.283805105473508,-0.7328727346820031,0.8003242567868227,12.60995815440162,-0.054345426580579045,0.0024724450540151224,0.01580737287334909,0.13245449685651486,-0.01272834806907935,0.09869869895265848,2011-09-30 11:50:51.394300958,11.039637445
49.036131991717376,8.394497734295127,111.53947821022982,0.0821702778156649,0.007849822467832921,1.6878309795122188,9.184408974669385,-1.5298376505943059,3.361079266390032,-0.11484935193822318,-0.17349651776263453,0.7230711549807793,-0.42830458215819767,9.891263682879059,-0.6461785332074748,-0.037704285703979434,10.069328483857223,-0.011598481090064908,-0.06499560566230882,0.029815435091782312,0.3922940303952107,-0.009143241381701642,-0.00034867261621854273,2011-09-30 11:50:51.494521101,11.139857588
49.03314242654034,8.39499632108638,110.9266973648872,-0.07092078323741208,0.032806776543390856,1.6781188325705003,14.062664545874005,-1.351605492064424,15.80098080009734,0.11676641652875852,-0.167269862750093,-0.44813641844566243,0.24649147895015772,9.459066924101112,0.33951784544481334,-5.2219186523513486,9.80585054241339,-0.02768188399284796,0.012795504136254734,0.030362529400807345,0.09198662308456095,0.0473245501690887,0.005193800095634106,2011-09-30 11:50:51.604318050,11.249654537
49.03315106159058,8.39500381615446,110.5173828442969,0.04899718868311202,0.01043907402720226,1.6942377124714392,10.163448773676844,-1.7969793388117707,22.824880533193646,-0.08909984953436678,0.23893813785412,-0.14543555391277524,1.8148091149112422,8.780442964612197,0.38849661183631023,0.5493408988739873,8.922735792631029,0.03869212599381417,0.09236549958126421,0.013599407452045801,0.09353214001724033,-0.004210614922900003,-0.024348063035759926,2011-09-30 11:50:51.704271605,11.349608092
49.04003226997795,8.394311379994898,112.53693382573667,-0.05857265397728921,0.01801501688221417,1.6930583437752806,18.078020556252284,-1.4456932190068703,19.811280593487083,0.10394901363118583,-0.04282585780037294,0.5589748453058316,2.10376285776412,16.586149972960015,-0.252461332837494,3.997676982375523,16.61399535065742,0.03566391391474729,0.012702497381585253,0.0024444334316779236,0.10254827322770713,-0.014265209992240886,0.017899995816839633,2011-09-30 11:50:51.804289722,11.449626209
49.04171703485328,8.39470606832275,112.27602718477641,0.0772118525203086,0.017033755803333394,1.6954586081444003,13.543850830315952,-0.9659857867637851,3.9390721508780135,-0.027286044024081742,-0.15705223205931101,0.17737921728751035,5.624266315057838,10.202868173919253,-0.0545360560072396,0.6965381283633685,9.731308898738728,0.020497692467475685,-0.118910464308944,0.15543021513383537,0.074010872703761,-0.04929568550546768,0.017557717278671323,2011-09-30 11:50:51.914304226,11.559640713
49.037032650699665,8.394411148098271,111.97122188413233,0.03063130819317448,0.0028728495230327823,1.6955583984800657,9.242821657971085,-1.5177815021844603,13.275378896792612,0.1078490014697354,-1.1235904396255827,-6.733810977607396,0.9098002081070996,7.2473345593804686,2.5783335254620052,0.017457498840496966,9.579484738319179,0.005870531313102584,-0.03697951426251593,-0.021989442023298354,0.125583791252266,-0.034392527007966585,-0.0022568933643357285,2011-09-30 11:50:52.014384772,11.659721259
49.03629080285832,8.394962136476567,111.93712861371976,0.06740352894708965,-0.007623315383014232,1.6752115378671253,10.300517282498044,-1.9231891866732476,7.297707574451585,0.061219240126153665,-0.1749592704777252,-0.29063446805506554,-0.7188648414649721,9.919659241474243,2.171032417657139,0.44213527623417914,10.613806473259782,0.04336741231063446,-0.06991336978858899,-0.0049618014986368255,0.06469286235208627,-0.004655701420316637,-0.23855961080016888,2011-09-30 11:50:52.124331642,11.769668129
49.03823216170772,8.397684652839017,111.82240457101109,0.09119645545562982,0.023968762785884144,1.666491322990431,11.337700267581026,-1.4401078605984983,11.14798623111222,0.011395156470410589,0.7661855598244317,0.42760869679541097,-0.08314555582105007,2.2916293772250933,1.5136547879906785,-0.7987223067995943,10.273476816259299,0.06232386875079807,0.020261654790970036,-0.005118114028535605,0.08044553298989619,0.2520493980525831,0.07531218918827629,2011-09-30 11:50:52.224284571,11.869621058
49.03716979882076,8.394161677715283,112.22344541994144,0.04269164620327534,-0.006195070392093171,1.6757776386714076,12.037120820993822,-1.5213661790463746,9.506297072182614,-0.00937818840721658,-0.11535021368742387,0.9005227715819509,-0.2289782166310294,9.683422215759304,0.2209154346822769,0.10576982409795047,9.645876103496724,-0.223888712518652,0.026311485464782052,0.023877092745275337,-0.0020658998578309898,0.3710740656937079,-0.02652401305870128,2011-09-30 11:50:52.324270808,11.969607295
49.052263798662,8.395629107276772,112.10291596631703,0.05851959203659955,0.0006374700884201525,1.684944821193164,16.359191913123947,-1.1227233920660527,0.2954974569633979,-0.18250576799353796,-0.19257888788045174,0.3144576729628321,0.5446156677952867,8.965075302934851,0.08569425509279976,-0.5705187645870357,11.49069014904547,0.7865204887135072,-0.010702034735931952,-0.03127048622390055,0.27424480964669734,-0.030124200855927537,-0.08962590061099446,2011-09-30 11:50:52.434253575,12.079590062
49.0376324171181,8.394334658991156,112.5853713004525,0.10283375968478428,0.006627162416909046,1.6789080810648043,3.856711497442646,-1.6141740046671955,1.227843150877984,-0.016047332819978246,-0.8209437093777021,0.5009132399324092,1.5596833719318144,9.605341314630195,-0.4394064322617167,-2.871113042417252,9.520013904329701,-0.010035401371824241,0.2830756195644423,0.10392090120138922,-0.021602235949470347,-0.04222884860256422,-0.014163818028173573,2011-09-30 11:50:52.534372176,12.179708663
49.03111523174331,8.394042955762545,115.19303594647688,0.07199803552028416,-0.042712811002862006,1.6614288542520188,13.500012422074972,-1.7285161467580155,13.06370910953891,-0.23884809150065137,0.0519055024658156,-0.18394195604134528,-0.06510459449800243,9.103446193618797,0.48532419877128974,-2.603467018347797,9.089479762202394,-0.0024595079757068986,0.04307504509005597,0.007928748471720131,-0.07918063879313227,0.030190006219651292,0.06250400646830057,2011-09-30 11:50:52.644263734,12.289600221
49.03218108821924,8.394028774558825,111.87247646326162,-0.17353147709856048,-0.02605784553115282,1.6903282746122112,12.482681280593958,-1.3324499851626799,6.257927156833213,-0.09111383518702039,-0.697130807306408,-0.5570430391571071,-2.1155015168404048,9.387468657736152,1.1884603385976684,0.8193033943956065,9.557654006299662,-0.10522494598341012,0.02116444762418214,-0.05871666875994855,-0.011016885277852134,0.041557592816034494,-0.03000186427547725,2011-09-30 11:50:52.744279813,12.389616300
