lat,lon,alt,roll,pitch,yaw,vn,ve,vf,vl,vu,ax,ay,az,af,al,au,wx,wy,wz,wf,wl,wu,timestamp,rel_time
49.02626940166983,8.45390670859559,114.19259764506167,0.020955550688409336,-0.031178327954962948,1.927218481980843,4.932882817585748,-1.5642878121966213,68.62832950772903,0.9544911432217748,0.015868359453604375,-0.6525864873358195,0.829427336612373,10.262642413051912,-2.4269193123672754,1.111153743749303,8.419375672130496,-0.01473147261151621,-0.2014407590581577,-0.0563947856282188,-0.02407436526691551,0.14930257775789074,-0.40174550954546984,2011-09-26 13:14:14.274189870,0.000000000
49.02678294582355,8.463097734583952,109.22704431118545,-0.0058873227381357335,0.2102417742070459,1.7606883715761341,-40.96861602131811,-30.60901657868211,36.03951679117219,0.07561814450565205,0.1300044129086685,-1.7230241375955897,-0.43401369381794064,6.222673600698027,1.4087356102794186,-1.336168438051765,8.060946681232624,-0.04959374263337373,0.1534179674728383,1.041552765750196,0.018335594245626016,-0.3594266991045011,-0.3679192312235875,2011-09-26 13:14:14.374162269,0.099972399
49.02463715304717,8.445477074745138,115.62600848996927,0.04147243939459014,-0.012175362968259593,1.739328658993455,4.483921228341803,-15.31068499003144,3.0643305612324028,0.04138556713909017,-0.2392956432953564,-1.023704425187617,-0.20570069158034032,8.551101080999047,-2.119210766587375,1.111590084674431,11.165348041585542,-0.005297149341242133,0.06927063886205354,-0.005780165010390111,-0.010017211157391844,0.003662493767098889,-0.0248525290300544,2011-09-26 13:14:14.484153036,0.209963166
49.02597485606746,8.449033313157436,116.22519008972216,0.014540623415162865,-0.006057566167029647,3.6268812525455187,-43.71955077292215,-16.318316425070385,26.721289196208378,0.13124088596300362,-0.0758787246893857,2.374185497830715,-0.7205279363723054,8.477339354260005,2.4176108524335422,0.858421399238709,11.322579598180445,0.049918700233964365,-0.2388785929853443,0.49484974215170385,-0.16172127253689345,0.09624095960964309,-0.14748523531242658,2011-09-26 13:14:14.584217749,0.310027879
49.02241111542794,8.44753270423474,115.63815558190453,0.02535749060161542,0.07394424106934218,2.1066189160009263,4.190465121019226,-32.15767495014404,31.041213900727236,0.05010331729850759,-0.2110344979289241,2.840481787206344,-1.1773848977946981,12.549131572257492,2.4950499967427286,-0.9825107004817064,9.403453410127717,0.12573567489588922,0.08417520237975161,0.07850298974947999,0.012427004326897785,-1.0704075695909427,-1.3318041008343375,2011-09-26 13:14:14.684237582,0.410047712
49.02657819552147,8.452722874873714,112.26489715165926,-0.0009887096395750777,-0.14047583342732228,0.824440146926847,3.013492607098664,-9.234492632782164,-15.348872241346657,-0.12545235911537317,-0.45157255712668376,-2.119581297535034,0.22599369231379335,9.623222820156043,-1.4847714605101905,-1.197428526153388,9.003235292904192,0.09808542238359365,-0.10161585615122042,-0.23392279727713985,0.22538787395157456,0.08762461860709643,0.2178828883396233,2011-09-26 13:14:14.794168305,0.519978435
49.026461162331564,8.438924705621915,112.4069330904429,-0.017721001151489092,0.04263215653480786,0.7894528014330549,5.418666538418393,-10.73641904358831,4.61988200784868,0.23363498482244155,-0.8412651850598509,-4.139455121799344,-0.323151357277754,1.9097426586358734,0.4235932950910611,-1.6126267913991459,8.025651879629253,0.10008548314423152,-0.0076486834071664445,0.8025743912424769,0.10761913896400882,0.19121707199812624,-0.11447138980595396,2011-09-26 13:14:14.894150525,0.619960655
49.02722886885716,8.444269705385278,115.07322081557697,0.021770964914541016,0.22267252267745796,1.0914223744745846,1.1824592725152945,199.23190487846173,24.512494843640255,0.06531769024211169,0.6592331000524427,-3.9874489165393223,3.828016618198462,8.600463528552703,-16.767462985194395,-0.09616993601287338,9.382526414045305,-0.018797382292611235,0.17999934221891725,-0.09319514347249479,0.013560587770155638,0.13243396835959775,-0.21584720544178526,2011-09-26 13:14:14.994133669,0.719943799
49.026454665054864,8.443004330609725,109.6466109767507,0.02253139129243144,-0.0007824528690167712,2.186300801060112,1.534714307607297,-13.710480387887543,-15.695114835519083,-0.16485462375027143,-0.1421290437007613,2.717698715249962,4.14186762778504,7.656406317825194,-1.5697333179105497,0.06592263794371853,9.785615682804337,0.07943605635981071,-0.016781222074901556,-0.1210376493237342,0.031044190987528926,-0.004411756667861219,-0.452112592167264,2011-09-26 13:14:15.104158964,0.829969094
49.02715272853313,8.438489991568874,111.87079654299212,0.1989269011037727,-0.007744342022610063,4.423372103710874,2.4588807109771125,-10.961060738630525,-31.725717601148723,0.3741049296270857,0.0643555121077975,1.286275390756785,0.9199492092367358,5.049307227917107,-1.7399037211111026,1.2347499449145325,10.556791633803046,0.02728977537011766,-0.07276744139193089,-0.38338301526429397,-0.003912553550026058,0.1657425077021428,-0.10072903394620754,2011-09-26 13:14:15.204285324,0.930095454
49.02738133139494,8.438918351923583,111.24462328347646,0.01190973914060045,0.016521351407705043,4.891471073019088,3.9925457717335635,-15.960039067057359,41.237156688406365,-0.13737228223776277,0.10234955486343913,0.7266459395299653,-1.2228193253706898,10.861039983337095,3.448562948705945,1.568170822091134,6.062568424418676,0.008391025118147684,-0.07247266162307404,-2.356847864199326,0.023145268472857614,-0.06325356501999649,0.5640323397801901,2011-09-26 13:14:15.314207299,1.040017429
49.02549530902668,8.448670084165624,110.40401568622741,0.044306862648682915,0.017441859601943704,1.8463643688065847,20.273762352362453,-0.9050521540324894,6.167972621708589,0.12184682003621412,0.21155779774909494,-3.62397880751108,-0.9156557209321563,9.332439490637624,-2.451528941769849,4.75120271943779,10.529928433666905,-0.03507611047877274,0.03683535508562119,-0.6267412590878858,0.00013320358218767148,0.06668631858003979,-0.052886414900481675,2011-09-26 13:14:15.414305536,1.140115666
49.027085315525056,8.44864226460295,117.36543263374553,0.03605588878163809,0.024704647835720024,4.93286191223513,-7.156992504625711,-14.099823027634216,6.504581899533897,0.5936074984992269,0.21477290474594585,1.7165977473394411,-0.9430421861131257,10.17715079366727,1.9735863606836295,1.8757191776548219,10.35192192190052,-0.012111540041998693,0.2766326539279404,-0.4665746899034872,-0.02140498108851648,0.014387256136581502,-0.3647733836881144,2011-09-26 13:14:15.514164770,1.239974900
49.026537210038924,8.442424559995809,124.46961420456364,0.03746954813927548,0.04912946887510336,4.015161020068307,6.155503883718205,5.898441083228706,-8.972015387868705,0.47366064160501536,0.04345611531793628,2.3781160796925365,1.9713668928520596,8.207916299755162,-2.0945609721937717,0.6650231786137106,8.753228676374034,-0.2409457671100099,0.17723987405651104,-0.3397381586019023,0.05259387329816131,0.054895338620649395,-0.05548662652369188,2011-09-26 13:14:15.624168581,1.349978711
49.0319601960969,8.440325171322018,109.41994100097865,-0.09790734716420284,-0.04748339625206207,4.029632703200181,4.772635930286137,-20.140427626504167,0.49434490992981495,-1.714299147511096,2.240740634631864,-2.925492903068033,2.925895370330802,10.784149187472028,-0.10448777130203096,1.1041666808958073,8.099311061311424,-0.012307093108019859,-0.020597227129239788,0.06406945568576425,-0.03477045218855334,-0.4098790040095427,0.2368862280575752,2011-09-26 13:14:15.724421320,1.450231450
49.028045666143825,8.45372987136074,112.83599976173944,0.07396233790202376,-0.021007603125957355,11.241991944993037,6.097847712645626,-141.44369829076464,29.39654685774577,-0.5246707819254233,-0.3437651454914902,-0.9245224063279699,-1.1199482659923223,9.28691298083611,0.9431599718343524,-5.525873420305271,12.627827701129762,0.04535200807975143,-0.03159794057319606,-0.04683882271103104,0.04635287775623671,-0.49997636146782926,-0.1606702517289017,2011-09-26 13:14:15.834156384,1.559966514
49.02572042601336,8.448807173095124,114.42248294408445,0.02079334377444108,0.017627887714022954,3.9852121859020952,5.342285072406568,-15.403553952929695,41.75630772784072,-0.1112828274398079,-0.03420998410563036,-15.59472340715664,-10.808597143702674,8.653233489057047,9.61866618721832,1.3227468935052473,16.1432317048326,0.04068415540201853,0.046345314007580594,0.0673480589297312,-0.039384478703884805,-0.0515037982926577,-0.2154958737221896,2011-09-26 13:14:15.934173839,1.659983969
49.02527511611789,8.47558287638034,120.29741326381473,0.05049707345312122,0.021851154541021288,2.869418521953692,2.366578762058342,-26.158277720712547,-2.137040121368859,0.1259136192483329,0.3975046448976514,-1.2910870467631306,6.383612708467073,9.44469083389554,22.273053850881414,-3.5471385621640925,8.84387884207938,-0.006377807906185453,0.421927331158973,-0.44385926117350616,0.049331979465789134,0.09265569692001684,0.03058848499661428,2011-09-26 13:14:16.034192973,1.760003103
49.029575899328144,8.437860478563723,138.22156931476593,0.04697878252875543,0.04105723965091098,1.6711116578500582,2.9454751839429014,-35.42720072390097,-5.329208487265927,0.04652936372403125,0.001098377352595048,0.24899770226456386,-0.9065929535992153,12.122820821045998,9.12000748038581,-1.4918478331449498,10.697476107685192,0.08440339320976101,0.0776201143383339,0.11719498007012977,-0.005529142179583311,-0.018512432514704705,0.035245691373743074,2011-09-26 13:14:16.134228244,1.860038374
49.026866144655415,8.455275555440702,112.4511375795618,0.05669084634187916,-0.026510355717788456,1.8816468880470922,3.538361662220355,78.99751282463183,7.048657247939149,0.010522711630480248,0.2884885085789548,-2.1661868520841727,0.39242456619028854,10.545670602704739,0.5358097253256942,-2.062694904654286,16.605050480359626,0.0057454832807120266,-0.07651213203692174,-0.3140806742932473,0.014107198850430436,-0.0703740748865341,0.06628249481482336,2011-09-26 13:14:16.244258643,1.970068773
49.025303974288875,8.439701155903599,111.5269040356762,0.05251746378141334,0.31205402212630345,2.057456319015417,-4.0064836399403045,4.072729224190228,61.2222113277225,0.1880107888353607,-1.9094528274903662,-16.229790870054398,-1.7349380147825129,5.562739691670642,-1.7721288682109366,0.31596534443929014,11.355759187714677,-0.05924084612034122,0.181281387969371,0.17112552969103365,-0.03393288287152744,-0.06650697573089961,0.0637363009594498,2011-09-26 13:14:16.344179824,2.069989954
49.025557324838715,8.491154035783262,110.76286643265328,0.03457436255805609,-0.008340547355669295,4.133859718948101,9.456058730803885,75.70509300471818,-5.607313488640209,-0.8435825145351198,-0.052501303280905076,2.3666738424407074,-1.0091057172321964,10.380283552424672,-6.054181429306297,-1.0557390244138174,10.056262697773136,0.009688779307120851,0.008169185253155534,-0.2055521553045904,-0.04794311098007777,-0.21935114184058402,0.015462641329430255,2011-09-26 13:14:16.454197462,2.180007592
49.02654249235522,8.450733553463426,111.08120172356496,0.027377866440326463,0.03230156164238359,4.066947922707646,8.464670730716485,-21.738150754537976,34.67136392497506,0.28205829910100444,-0.013572547984381303,2.2510847569811516,-1.2952473845513932,9.992797492915894,1.8816152685246694,-3.4117335295053213,7.16169980037664,0.07294109939299845,0.03237134217037479,0.8777243769171591,-0.024383567852355438,-0.07963006996881176,0.07286627063412182,2011-09-26 13:14:16.554238255,2.280048385
49.025106937621466,8.442924534198065,113.19747213151155,0.02707214542604937,0.026802946000129956,4.404173535053143,0.3761694573492722,62.178286431713104,-3.5344951592735647,-0.26652275159497996,0.5131048900517019,-0.760453685422054,2.255832449458304,10.687145716930475,0.1765945593472142,-3.2555500359568246,8.294798476744694,-0.039472605698497185,0.7850742226501629,0.24663375694088782,-0.024687473173226976,0.11242654123386925,0.07839446703732925,2011-09-26 13:14:16.654221048,2.380031178
49.02985990527343,8.45778251572483,113.31585055775321,0.04439786750467183,0.22439542825230327,2.8040141672874235,5.743767430039671,8.7056011986929,6.620016198903987,0.0999258136911431,0.2763889498831143,1.312935226592805,-1.4667943422965644,10.00608988059185,-2.872627756951796,-1.1278509829792576,9.37119441764363,0.06424013570978904,-0.13601072823850124,1.3217677519930318,0.016523096897658615,0.09631268455794546,0.11372530312772362,2011-09-26 13:14:16.764258181,2.490068311
49.02548803764425,8.452138868635199,121.00299494451045,0.03543257187928534,0.0028682743630144775,-6.0776212075722995,3.4902043655130726,-24.15739834704744,51.79469351110044,-0.08814931694022377,-0.11025470991600836,1.2358632037251682,2.7345540405305706,9.980027110359647,-4.900921796941472,0.8339378790754308,11.05088683354412,-0.16625079612070998,-0.07691523583613363,-0.10854225825898285,0.03700389163140914,0.07077267723688543,-0.20802624071632977,2011-09-26 13:14:16.864231812,2.590041942
49.02683493056274,8.443882089557981,112.03085138915233,0.05144908646061447,-0.12226948668154648,2.783075841205529,41.87107369187163,24.056791799172856,34.51015028320704,-1.6774115055600434,-0.3502150947612137,2.3341047671996566,0.5729529119530989,8.92289662246582,-1.7294684512320941,0.7828047321794942,10.019013257123154,0.08618104128472287,-0.10578169767252128,-0.6533549620506602,0.10407836542723496,-0.14485459361955022,-0.0022632677550872794,2011-09-26 13:14:16.964229930,2.690040060
49.02739082686297,8.4446379667401,113.37817603092527,0.028393127252918152,0.0016845251917048467,3.96207308596827,-7.431686442643016,-6.563303852913361,17.730676713476324,0.07069428229957767,0.088188082024132,5.382362613224246,1.0417950723034108,3.6862200183801486,4.24689084820809,1.267275007553425,7.715907875561534,0.562181846687408,-0.09903873368504701,-0.1700701598923706,-0.06355279745692086,0.15048775889784458,0.5376101580270897,2011-09-26 13:14:17.074283366,2.800093496
49.02620488863714,8.450888903062602,110.54332537851161,-0.013458351505559355,0.05755076325968212,2.4101249752849636,2.990303393162986,-11.825668558736075,-13.144665505442823,0.10075595845628317,0.028803492072004055,-3.213458141417648,0.835704131890648,1.0262095360764807,4.72506610415723,-0.8251748993122892,8.833525623335428,0.012768584734596557,-0.19989570199474718,0.25653499070243685,-0.16411898618498916,0.08936769998094944,-0.2754429870033913,2011-09-26 13:14:17.174286604,2.900096734
49.02663993592358,8.509269566556553,118.43715294857978,0.05026801756521024,-0.017188695572238656,1.2219772094475525,1.1582590091165779,-35.78812380347851,34.149744072175665,0.34839987144872825,0.09306779726914416,-2.692405093987997,1.372455152021124,10.852096764656793,-3.3455876366489044,0.44846673812626875,7.945216845916457,0.016415828566041582,0.08599101911158243,0.055744311355314616,0.03677307258220583,0.0452959158879261,0.14540501292844377,2011-09-26 13:14:17.274323414,3.000133544
49.026830083274206,8.448049681495236,115.05915538358289,-0.086892034521128,0.016650048260328763,1.8093907277817012,24.59551584304841,10.675004823506123,19.65250243002392,0.028492048904304845,0.008741256032661071,0.7906913027028362,-1.2063549389767576,7.99634822929792,3.261609850488698,-1.0437519059605525,14.794395625923922,0.00518680469042964,0.10119079031631473,-0.04509686608282255,-0.01783302884689643,-0.05249558613580928,-0.8046216563326877,2011-09-26 13:14:17.384255599,3.110065729
49.025411268380175,8.453245662009435,114.44599839036276,0.02817263304086847,-0.019348545557186618,2.12336547342192,1.1523461262951535,-3.5384187871411523,3.220064878656725,0.20066961537973593,3.626745716323059,0.13591426138098073,0.7262966823879021,9.525020032472042,-2.5381730661971242,0.004204895209255488,10.14819654164284,0.04726291727618724,0.028559416097067344,-0.007297669368522223,0.06658368465909724,-0.1867908584335734,-0.15238735583629837,2011-09-26 13:14:17.484436187,3.210246317
49.02762032767623,8.449948838429279,114.1941816889972,0.04773744449680441,0.018473070296951388,1.7683819224566475,-9.974651215587105,14.515191663963433,25.14117814898431,0.2112437959630608,0.30133282703493913,1.7609043799273394,2.16395497670204,9.779601186508028,-0.16423721277531242,0.6866380323752768,10.576329706120376,0.060705146948698024,0.13809539370060225,-0.07551615747043203,0.14991788945952683,0.18269215159869473,-0.13686023534073574,2011-09-26 13:14:17.584443850,3.310253980
49.027255475420375,8.444264603175206,113.66806862969815,0.04072193599269665,0.038841322018963766,3.3674466540752253,25.752336875903442,-16.121726812738753,17.80023352060941,0.024140740714796327,0.2835284290059489,4.085389293755445,1.002001390111158,9.67268264838165,-8.695786122420602,2.387023984503245,10.271500941381726,0.21325820113254537,-0.5283483725469171,0.3562636794145453,0.0017006141604132517,-0.13537851289053843,0.07122262997380027,2011-09-26 13:14:17.694340341,3.420150471
49.02712229977112,8.43990607759055,119.93695621739884,0.05016048794895413,0.01903407404440588,10.707746566381227,6.044327958541013,-5.329073080397692,1.7023727422173849,-0.19998498950198035,0.3989908684743639,0.38511663191328455,1.3575105289870217,10.002626905546432,2.134064025118222,-0.5629836402023362,9.932386118642974,-0.02653901233657325,-0.05040352714487508,0.1630632795265478,0.09314647687609444,0.04407057045660338,0.15459312479245374,2011-09-26 13:14:17.794315983,3.520126113
49.02608413451548,8.444892537555807,111.36848356677905,0.03491687857603058,-0.007264548811779788,3.261593401697025,5.942774183715132,55.57181457011093,13.640166876673481,2.463829311198294,0.4409972405763793,1.6341179194652313,-0.15089342191149913,10.034547943277326,-0.7546954590137749,-1.8903066745753487,8.702923720018326,-0.031744635606058766,-0.1223618473150189,1.602116941241131,0.022583559451151702,-0.16405103766397375,-0.324407751160277,2011-09-26 13:14:17.894286483,3.620096613
49.02346911958216,8.448123862096816,111.14891094500975,-0.13105165682500924,-0.010275965128174717,3.862023457033253,2.962381755212108,-11.573202993104672,-21.182419859166092,0.08182104931591608,-0.14091918190959635,4.347706458355787,-1.5015083752695033,10.422581738478838,-1.086106108561344,-1.7518020861870216,12.472182534328208,-0.003739799807264582,-1.054643009713189,0.09788430138695946,0.0026703622173587303,-0.11088972324206291,0.5773386735623836,2011-09-26 13:14:18.004269687,3.730079817
49.027151710989145,8.445131669968628,112.78287408665028,0.02184322532118229,0.02210145500431425,3.408556058624457,5.017292546353315,-26.82678991503805,6.879115883972276,0.23272293670521738,0.05690064986239572,-0.03626943843936001,-0.6214578761417127,12.257377200606212,0.3828068019398416,1.5322778305684552,6.33234566846956,0.0054686146219674985,-0.01744960016500366,-0.05295024909178753,0.02755283628650763,0.07246182691551195,-0.3805311910468683,2011-09-26 13:14:18.104272348,3.830082478
49.0257769838006,8.440191889065927,106.63949033203903,0.04906131475281635,0.045842920620456605,1.5658162946999965,-8.318458518136998,7.515275194605202,39.724447437730994,-0.1707592707944257,0.288475507669243,-1.7985167654967023,5.992953773887213,11.570387248316933,-8.389264852239835,1.078299593702022,9.94930285947805,-0.039122304453225,0.34165824284782315,0.14122922944356914,0.06632927762951395,-0.017640648627092772,0.34887232925028566,2011-09-26 13:14:18.204404348,3.930214478
49.03418001181565,8.444075735315304,113.62832636396023,0.06834755542254316,0.003526743902978379,1.3001278764747015,2.221485482595686,7.374831093555347,19.767371328055436,-1.0325995376397359,-0.18768851087098398,-2.1665953801290003,0.8672474085836304,9.692730503850166,3.488289086281788,-8.91800749148536,9.950887831417235,0.02488798902365861,-0.17025011093938291,0.6593098083509654,-0.012382706068720014,0.21344778830248834,0.014902727972758299,2011-09-26 13:14:18.314319507,4.040129637
49.02731828285767,8.447671652112984,112.29713390535647,0.04332372520902257,-0.014220431708411264,2.023440874271644,-4.520462196818752,-29.037913236866643,28.2530292643295,1.4271924201972062,0.20111290394069087,-5.032258239210476,8.836537188349809,10.224743716705877,4.42363714919646,2.821884551996955,13.519200335741688,0.009786287210448722,-0.06764934620581171,0.19412128978938437,-0.03290262553591539,0.0804131583075907,0.17862639959967802,2011-09-26 13:14:18.414368152,4.140178282
49.02476848068793,8.443341449083883,112.26550798859702,0.034823556793503234,0.05986128585101581,-2.6851372433347764,11.301015534737694,-7.827124335248284,7.5616837770226555,0.11159448703658047,1.4044866294669045,-5.10975128660876,2.0914170454074634,10.837712439510621,0.24038880231601648,0.008161856960721248,11.377143312447222,-0.07390338456636535,0.02021388179896983,0.23610305074714752,-0.026940970085133197,0.08000108451665304,0.8545729021521344,2011-09-26 13:14:18.514351130,4.240161260
49.027741864874244,8.440532634896387,110.42009908612194,0.00195788878765428,-0.26177677399026394,1.368102364941288,3.460998804141899,-12.906531971053685,52.79438107681001,0.3395154052819621,-0.20585237303054743,-4.161185656586245,2.652270261784213,7.181659138005709,-2.920638545775478,1.5993762935555496,11.964481575103706,-0.03983552010907193,0.13389999271403233,0.34843311145517886,0.02797749069269308,-0.12020298736151985,-0.0620215923548751,2011-09-26 13:14:18.624332478,4.350142608
49.02670950066345,8.452882883375814,113.40880180126034,0.05754051060598915,-0.0712627589092168,3.4172617799765237,1.201458377631286,-26.6217857989972,7.010163829948148,-0.23944783409954823,0.17066641322881052,30.069012091941268,0.6392989010827919,7.580602335751515,2.7259631123022166,1.7206524174959217,11.380227369903212,0.008452529873588948,0.7017943191648038,-0.30159414810806895,-0.026379003726154808,-0.12973714019918794,-0.3550768479887403,2011-09-26 13:14:18.724384272,4.450194402
49.02632089340643,8.439189368252272,113.63665112055881,0.044273715628196424,0.07068151869141807,3.523220890265047,10.275513712292547,92.23615956127225,16.6165155345584,-0.25133658946308246,-0.1625599978066659,-2.529167011367481,4.822122345262347,10.296968530371203,9.95112060601421,2.313446350338576,8.809324438576185,-0.08748602966434146,0.1946002486866277,0.14037219330699519,0.03922662830324205,0.2883559537756431,-0.10736908388678648,2011-09-26 13:14:18.834318932,4.560129062
49.02644777457792,8.428610189067982,110.47094922701781,0.008797709031633804,0.06517851322405618,3.859625444122133,4.570086183417671,10.338144789734306,8.226673943906944,-0.1933933493585534,-0.7179065426642842,-1.797071818476377,1.1369987946973823,9.990607176116855,-0.0364373146399998,1.6476413536784482,4.535075587746249,0.04512548394498799,0.21385018803275443,0.10284290515792485,-0.06135262748414702,4.9015703588845515e-05,-0.21445431085498243,2011-09-26 13:14:18.934348003,4.660158133
49.02627818993757,8.451895454201223,112.2859725726486,0.04771446070248962,0.008136846080880188,2.268753196444595,3.3837827860315715,-32.8191705441923,41.4472533856822,-0.1439607362692795,-0.28197407319793394,-4.250459690569098,-0.19965293896651048,21.516634174903313,-1.2035887294399192,1.7851473119011543,9.767322500146529,-0.031095833632633598,0.1302440132409197,0.07291736105299379,-0.1018955031120934,0.05434574999351413,0.2808237683706533,2011-09-26 13:14:19.034350226,4.760160356
49.027044243766305,8.440569752653007,117.8329103990932,-0.002631252537401336,-0.05044947735799329,4.907440964140028,-2.3233219542937507,-7.71967851462037,129.1235667980127,-0.720720569200926,1.1288047461533284,0.2027271121284125,-1.4345530657626302,9.817186992047812,-2.0541610351177724,1.4069562855492883,8.662866261554248,-0.0558914585416321,0.04623336995974777,-0.06407680072194287,-0.044076722331058235,-0.1409006399064774,0.12763117676059757,2011-09-26 13:14:19.144393215,4.870203345
49.027822446896536,8.449352035616744,101.94531396304941,0.05139567672206462,0.03671661704158012,-4.224236164626895,8.768053862579574,-16.59111174089077,16.467097544033514,0.14769129270041914,-0.198598788801176,0.9886174340022967,0.9141727941528184,11.170689469288437,-0.9256554950172287,6.346314662056081,9.768542504240655,-0.059762387858908514,-0.4521527765656786,-0.36738648781223016,-0.09490878303632914,-0.09809001136800248,0.29112871890855746,2011-09-26 13:14:19.244622037,4.970432167
49.02989698802395,8.438898513682227,119.41699555624672,0.05116481304223479,0.016726520971929473,2.290405613759706,1.9475919433708127,-27.304453410949833,27.78567938812089,0.030880517755976916,-0.15143383655884057,-1.8067428077106256,-0.2012164885402492,12.735794615549814,-0.09543106421807529,0.4039779098102024,9.94644750066389,-0.19002012279145075,-0.14035135542521002,0.24350674108543335,0.049085753342296014,-0.1320964704448093,-0.0015175926011366386,2011-09-26 13:14:19.344371848,5.070181978
49.02702138816593,8.450548709687066,118.2616103685573,0.0005295336174776198,-0.00011273779031658465,1.8148834431075447,-0.690227468617131,-29.874100424371168,14.674525394391004,0.7552592532504412,0.35428578442862413,-0.5188411542501388,-1.0013747826455934,5.417502895781591,1.1518209938455986,2.2784628748379525,13.816515413926297,-0.03529260624201819,-0.08603509513661416,-0.07881864852065895,0.04234976910776579,0.19608846621703382,0.8350980033043743,2011-09-26 13:14:19.454390172,5.180200302
49.025544668154446,8.44281455478952,114.01273519165622,-0.016730807684154195,0.01397287705118156,3.2914580054206013,-8.385079185092057,-21.879304300009423,3.9086717070594528,-0.8920627354513975,-0.07828571722029434,-4.32945915058188,9.342614107207243,7.751123852360871,2.4035551314263914,-1.2080504890189052,8.586265347434995,-0.0291101736815758,0.0206258352153169,0.05407534702501017,0.02781366550788173,-0.20446237760832076,-0.16249946674282348,2011-09-26 13:14:19.554344408,5.280154538
49.02687133892038,8.43645248584816,101.49957379946667,0.05150704045577571,0.025827687099256095,2.394989439995419,8.100413601283663,-13.50374153525672,-6.749584412541184,0.3517156513664782,-0.11803248212981846,-2.668560249792241,-0.27415524966014115,9.990146021388778,-1.7771598002724027,0.5039211794793891,10.289712133271049,0.0015721749661490045,-0.2562515273560808,-0.09763043526276165,-0.14559448420045762,0.017595214952707272,0.04735085228156725,2011-09-26 13:14:19.664380055,5.390190185
49.02643622113452,8.421647193852541,115.27166414199492,0.022619478348534346,0.07141590162570825,3.701148851852074,69.4358624074833,-21.63002967220783,4.773735756450174,0.3376888911339515,-0.01842631327130429,-0.45199962270049343,1.8663280317772473,11.613720207503533,0.02335720238721775,-0.009212791978013946,9.78703383318283,0.07554415546945552,0.30230329881955853,-0.211828120240464,0.055237144831354716,0.019194271987519863,0.2564901319266017,2011-09-26 13:14:19.764408659,5.490218789
49.02487903249034,8.433158728874,110.32608428410504,0.0024078421318817524,0.004421695090998899,3.0059052411375418,-16.6955193666378,-9.265831229245386,75.94046406566383,-0.17576356022024103,-0.3390361298823502,-0.13997899352894033,1.5735077336966867,10.030612304593989,-1.7731724215043905,-0.5763606275230784,9.079739890746566,-0.08678127339813588,0.019830968956608627,0.016671175812827184,0.17530832779251893,-0.00892516909412678,-0.12261615462270098,2011-09-26 13:14:19.864422308,5.590232438
49.027192549839796,8.42743158432005,110.49668365701444,0.041708551572778786,0.0497142095883305,0.8923257418690171,7.907865867431818,-13.411522240448562,10.277342944355205,0.17750686768078788,-0.2849851779220232,-2.145345915336215,2.0113453225984763,10.041109963227001,1.959819679304451,-1.0840163552998336,12.297569054215627,0.16265003170352865,0.4309153113609305,-0.5714760196172707,0.06271210865579471,-0.10036228519740469,-0.18639587518804898,2011-09-26 13:14:19.964430127,5.690240257
49.02638688582973,8.440767720788791,114.56784586530404,-0.0015676745328262812,0.12400179227503569,1.5190805885226328,17.902145017751373,5.148096416609979,17.800441992286814,0.22568689630809252,-0.3599928145744901,2.1285726154227103,0.9407006958864451,9.341707889426761,3.7177478090921867,1.6954274800283629,8.121217812230817,0.056411142854286306,0.07293345992483322,0.19463128747836628,0.04402757895080046,-0.620180786094256,-0.25487804608538134,2011-09-26 13:14:20.074377307,5.800187437
49.02757889405556,8.435714934243535,114.73017384609602,0.04693558130201783,-0.02096459085485155,3.3113770835944205,26.07066780606396,-11.070930855389232,34.462455446786926,0.030095580945759856,-0.1366697571684449,-2.826217546222388,3.382949985785369,9.146770799348312,4.625098279803081,1.3574268964460336,10.90946163663304,-0.005375156365325991,-0.06200514498146066,1.094658894598663,0.01900083898788215,-0.12694133834001733,0.14985484403939697,2011-09-26 13:14:20.174412791,5.900222921
49.02549179390406,8.436744280248147,119.11547903998141,0.018780337125927596,-0.036067041663374405,2.6615418710779037,5.945687589586974,-2.6626572176560988,-6.02754669835975,-0.015514317622544294,0.1297000173205097,-1.0813939514587165,-0.3849851124950443,9.328855500255921,-1.6482462976100205,1.0250955181924397,10.329496388722541,0.11934500783991618,0.05198470048201901,0.008696124713360585,0.0560462941407764,0.10817280948910817,0.11931950229845165,2011-09-26 13:14:20.274422067,6.000232197
49.023318365048354,8.445278220942624,116.77524897251844,0.04337889250365893,-0.033155420875926524,2.506119896462771,6.841929495740106,-15.995333336740185,5.400144977288951,0.1256526429537554,-0.7173945765762445,-1.3260696860346357,9.076572140735598,11.506889938112305,-0.5928201272469675,1.1478874718402166,8.686550629212359,0.014805831131865123,-0.1267567241401496,-0.2078751956069167,0.007252229946238413,-0.12008779005681197,-0.2567340626746355,2011-09-26 13:14:20.384560679,6.110370809
49.02710483783295,8.440809282643203,114.12567577451932,0.03257829795220462,-0.05009166831700714,6.286207113650523,-1.869437402189491,-76.73147866864666,13.698814133394306,0.2521157756767988,-0.143468537678102,0.7653079703552644,3.5027974878757564,10.913394512709718,-4.671539689028433,-0.0777126742504678,9.6678593770092,0.015047872537322593,0.06327427576011035,0.34855438122445637,0.000550499179066145,0.0772136141125571,-0.19836696605944243,2011-09-26 13:14:20.484587556,6.210397686
49.02652753008639,8.449636807238063,116.7520153819597,0.03156536499852421,0.02527221097201563,2.07616042127913,4.010289321126133,-6.166970339808066,-1.6566605773375862,0.20885226189949818,0.49344600867064214,0.17136664898066067,0.6075501692712967,8.807111802107935,1.9399838784370502,-0.2846534649741666,9.675030650305386,-0.03340240456250013,0.03427730549590838,0.0071572405978938825,0.4608425106292315,0.16475036724298772,0.27968305900025053,2011-09-26 13:14:20.594413518,6.320223648
49.02683089647126,8.44431794217152,116.33439389305792,-0.20168689996408054,-0.08495872341608662,3.701640938036756,13.339842835224449,-47.42765300377175,46.646671198376936,-0.10721716165574734,0.09737207294805109,12.69935392996192,3.8251110774843218,8.97565967185702,0.9724003145430611,1.4431989234511637,8.868599356020022,-0.07785886710697726,0.06356736236918492,-0.18205514064085518,0.07224748838783464,0.073085070621461,1.8340566668685294,2011-09-26 13:14:20.694581503,6.420391633
49.027244728133525,8.4542339843386,150.8905549187407,0.005545483856947978,0.04037343947001835,2.855894973127869,-38.862558761628,6.455909778979079,10.566905988058625,0.12998672869315545,-0.6804855347665284,16.974968776459427,1.3336899003791758,10.377258570559157,-1.5022821236543276,-1.1305800092766904,3.81938298734429,0.292490118823529,0.08826196334593696,0.1123516245393022,9.032713305415609e-05,-0.038357489162941856,0.3161204957999371,2011-09-26 13:14:20.794485836,6.520295966
49.0260468244178,8.446201159455642,109.76109296995337,0.03629935356293003,-0.016412450857537356,3.4114242252759848,2.640904280696482,11.248763793878956,1.2057645275735673,-0.3768086723278251,-0.0971755357952429,-1.07899618868171,-0.9267298064461534,10.864260852219376,-1.5525565359993252,-0.8925746624076825,8.118281156360075,-0.008929121553301465,0.019547230086823186,0.08191718380092397,0.03878898985722622,0.04368702790626024,-0.1892505953588973,2011-09-26 13:14:20.904441940,6.630252070
49.02592861155781,8.443114549759411,114.8018813210764,0.0781681968268036,-0.25928918961132874,2.4148166273831535,15.017362082005128,-5.239761701588163,5.350858523933827,-0.1807398656076994,0.10672453589972414,2.8773823360660202,1.5186747456375291,5.352801182778807,-0.7335234678467393,-0.8183574018742921,9.838556086157647,-0.05340588743990357,0.12406073387286758,0.17709139573200872,0.020012089772110688,0.883631345035727,0.1903715548648631,2011-09-26 13:14:21.004450074,6.730260204
49.02547801477716,8.483200001321109,115.26492964162537,0.02990703898175696,-0.024226027865315858,7.020532093995914,10.755217509917166,-91.13510020237571,19.27971835278082,0.321687151910006,0.05302711078995933,19.747179898393757,8.48585024929785,11.855011641727389,-0.7784894928124536,-0.221118286708567,8.99204352779535,-0.047520662469647174,0.011641486080822236,-0.0015574728432883739,0.007683762222328558,0.11448747470812871,0.15049054285433755,2011-09-26 13:14:21.104473721,6.830283851
49.02727650702821,8.442535791300916,107.4677429660331,0.04931109398273553,-0.01657964885777328,2.0187365218004913,5.923170145845357,4.261832440299502,22.96631480318039,0.2084832126952485,-0.47779475864428944,-3.557291860321746,-0.4133721458740801,10.39202741521282,3.6133394467569535,0.8541916003789398,10.289352117013554,-0.07174157905098373,0.003709417053252461,0.06852742681094169,-0.09564029781538216,-0.06331929108503849,0.004048686978112025,2011-09-26 13:14:21.214640425,6.940450555
49.026991350045954,8.441094062971933,113.08586727976741,0.027605925089716564,0.05291802380643146,1.581148286088927,-4.6112073253720816,-3.9761756629538247,34.99187436462745,0.057918302945228615,-0.10339326190715642,-0.7218712777607925,2.3891452874115124,10.658475376836554,-2.143086449132184,6.203484904981062,10.163815865441348,0.0403518305829169,-0.09749213781163991,-0.2957662786497137,0.0273878382307928,-0.40935324957923314,0.12262106450814726,2011-09-26 13:14:21.314464029,7.040274159
49.02746566639599,8.441718970868916,114.40024996142299,0.020611862709114845,0.1109944094563675,1.8400347277104738,8.412286169394843,108.48600679134312,32.61945734542641,0.2969588364213518,-0.3612974523408615,0.3718365388250807,2.065924590228263,10.580118070966764,1.4535034748176532,0.545525221036551,9.128370261988412,-0.0451114265184882,-0.12287131932815126,-0.21823488563451277,0.5287861331660508,-0.45986343750309056,1.517830161115984,2011-09-26 13:14:21.414541573,7.140351703
49.02797862686681,8.45365691817365,115.39038156299372,0.04483776884115365,0.018627796936034727,1.5929485025365562,8.086325549621915,-8.778389588269462,25.47907568487571,0.3082933055191861,-0.32354905871182654,-2.8539024805437974,0.8849116089538022,9.892065127251547,1.310331292189267,2.977320663604604,9.904299322360092,-0.018472691995321366,-1.057543019502864,0.17492448369673086,-0.0802691841563615,-0.5627550646658954,0.022067335418540838,2011-09-26 13:14:21.524452628,7.250262758
49.026593735378185,8.440684057325015,116.23041725622798,0.025094521622108852,-0.013681225111108261,4.195958195153713,8.987016842127458,-41.287554174803866,25.856148318396848,-0.21840995589069795,0.13817252875599187,-2.9544078811535965,2.1101810718175043,10.057515141401565,2.3959594085095173,1.352297195647548,9.603972285936344,0.07962254108640769,-0.004806230473610075,-0.12736787799633859,-0.0042131094053965,-0.11925642598167412,-2.644484061173606,2011-09-26 13:14:21.624461477,7.350271607
49.026438905513714,8.441215353836563,84.56804925923788,0.08990203044715774,0.018862472929031985,0.9721753105369919,7.9410876707559535,-21.07289530278392,23.42028184067336,0.22570203008430934,0.3044119715914972,10.877474781058638,0.5409332246225875,8.491558231715759,2.591773492300378,1.728228454941525,10.383831084914386,-0.17540177456537417,-0.36880347760352633,0.039100498416875254,-0.09891690851107868,0.02256219130244629,0.04574736824645953,2011-09-26 13:14:21.724634502,7.450444632
49.02763514287101,8.450109438739805,118.04697559134523,0.0481894676351393,-0.014460264680198487,2.246956013487439,6.4167584093345535,-15.956012426874862,22.95825305571389,0.2948281676875668,0.0542752032872626,-1.1694478430835047,0.3405730981698515,10.502239019588997,-1.7469049361879385,-1.5047733449586478,11.071293287063718,0.13044796779521434,0.8900997694876861,0.05290932803898954,-0.03761126934246009,0.04263339763666434,0.9816252621391087,2011-09-26 13:14:21.834476986,7.560287116
49.026487621671436,8.444014238517374,110.49216612141679,0.03048059281296147,-0.058569422135740984,0.8803140966605978,10.111619588135333,-34.455264533125735,35.112268187574244,-0.3371537594228078,1.2868114371577943,-9.590480605851072,1.1927897101676725,10.771875413407852,3.4912903339819716,0.8626378865855157,9.45992433019475,0.02252722560030122,0.12650229893252385,0.08579095360832495,0.04602693547074095,-0.008116225569235538,-0.30570142033401443,2011-09-26 13:14:21.934507049,7.660317179
49.02634088627083,8.440875382506203,103.53314949828666,0.03702415778058266,-0.009985466814945172,2.795272072523794,2.2426794260736047,-5.290113334348204,17.85532178090687,0.3800954066089524,0.08632354428960762,-0.22968492708319113,0.10527276179298983,14.58772197304869,-2.454981164032531,7.004781654330056,7.753951077178639,-0.0830544577769454,-0.0891334515600881,0.06646162416604756,-0.01543747164721982,0.49200832141468986,-0.05734099190556289,2011-09-26 13:14:22.044511125,7.770321255
49.02548823830407,8.436622797837837,114.91296728648913,0.02720541488505205,-0.010092010941244336,2.8649190283153465,-0.4212680176745085,-7.136222388419653,26.050064709329874,0.26452925205254607,-0.10437394693257984,-7.067945429917398,0.002065028127731572,9.752168336723043,-1.4535498270480904,-0.23987026839170705,8.765468235073874,0.041605772299045225,-0.1117770460317119,0.7341079697717814,-0.08601458458705932,-0.17739339937948873,-0.18116392253083824,2011-09-26 13:14:22.144502975,7.870313105
49.02704339822166,8.443674344154633,110.99503535425879,0.038222117326135605,0.023207056118365085,-3.2522651535318117,8.864094141880273,-24.117651061596156,-0.9177402118576357,0.34962034087148675,-1.909617986556506,-5.031668976217635,0.07923499538523482,9.605805794274742,-1.0137520626230714,-1.2521250230599352,10.589333958104621,0.005408730245871715,0.021852813985682614,-0.2486490208035258,0.0659717117141209,-0.06880552699632057,-1.0710732908795262,2011-09-26 13:14:22.244646854,7.970456984
49.02758256947683,8.445338256884577,116.10265296375626,0.021157746484755803,0.01066125473157103,3.5097980995002818,10.480924629755073,-8.453718367920668,12.22137626542044,-0.03422231689605029,1.1449760479761701,1.704278494742523,-0.1528325761192716,-2.910271001148196,-0.3548836366644845,1.1334664582710579,12.067316323168107,0.07997058101650839,-0.013263997995466285,0.09192788045659876,-0.017442545547237398,0.09555508634195291,0.16982236891391186,2011-09-26 13:14:22.354508893,8.080319023
49.02828638174143,8.445035785089631,115.90927091356997,0.012920043207689098,0.02382573409099542,3.2258378196259168,-3.228073168120247,-42.173710488271304,-22.279213585755308,0.008109657004779017,-0.27428798060188425,-17.13661124057819,1.3926057610779923,8.867554710807568,2.0114622666005775,0.9197239610627914,4.469484913392223,-0.016591686275739394,-0.11449170782842706,0.001014591765483304,0.07756470656789141,0.08333516755618137,0.02843636195941506,2011-09-26 13:14:22.454476298,8.180286428
49.02775018048661,8.455836000558536,111.16061089025978,0.06121619548202571,-0.002746117546409325,4.664264223315273,3.0521221757815327,-13.033037352490927,-24.9495255812015,0.09952901516225633,-0.1344765700415444,1.3902983853310138,1.5455840253881483,10.357660209031815,-2.028578018199731,0.8948537380812213,11.12476435211547,-0.009176773131526188,0.1705548513254396,-0.215189887547095,0.01903292132338786,-0.04358107457480557,-0.001538050890076647,2011-09-26 13:14:22.564511117,8.290321247
49.028506664764194,8.458275193611398,111.91485264379118,0.033331569391319454,-0.0385297074535412,0.6462424535453848,30.59291509282026,16.20167460891182,20.196095208060143,0.28257075928521364,0.35421316790087415,-0.11814678474693263,1.0080472784594183,10.917630694503016,12.741175327327968,-1.7675116631565873,10.422208525070584,-0.015073279945796337,0.42957630101683547,0.20364552472463468,-0.12493998866409786,-0.057796072946111346,-0.07796627388890251,2011-09-26 13:14:22.664519916,8.390330046
49.02820095115046,8.44541541854043,116.52135047478743,0.12212217016414428,-0.05561916234349464,2.35043194995281,5.867912564731097,-48.60964162408188,9.302422269214333,-0.016316433947045628,0.9169107399747681,6.220756332743804,2.229380821802862,9.207496930877857,3.0171772415961824,3.6823455777451652,11.986118269018158,-0.05753066943934392,-0.01973228100605038,-0.2486139167324856,-0.01611267720324349,0.09622439956945894,-0.3968925625267812,2011-09-26 13:14:22.764566793,8.490376923
49.02722529174835,8.451298427095386,113.37750166732647,-0.08251178854377829,-0.17787583781922456,-1.4698829882634374,-3.3553058357879455,-4.08006885252613,-47.84813440050738,0.4266687214338395,0.14932486435957867,-0.060124486350496636,-0.09080259060292006,9.309957404018604,-4.622643034743314,1.2062653152512075,10.162508927598125,0.0006993233943034844,-0.36072607733981515,0.5162675533467751,-0.010912368678766445,-0.5441553526457549,0.15383319716713167,2011-09-26 13:14:22.864546171,8.590356301
49.02953904769536,8.442549248949879,113.89457329165617,0.022104504074543608,0.023078614634816162,4.5846492467884294,3.729789489361204,72.9215533240001,-10.042378865115069,0.25689595028937806,-0.08161759608006322,-0.1446896595546626,0.1941804329050722,11.480581417549258,1.339161238149823,-2.624593686635197,9.07156791203874,0.07531009307055721,-0.029053489706689608,0.19052974500134987,-0.07159441270005296,0.026519475007976363,-0.30131854961058696,2011-09-26 13:14:22.974524802,8.700334932
49.025504312199814,8.44992442580054,118.7620381245387,0.030487801156636168,0.0040204431947752405,2.5063177148224587,13.941126690373688,-11.942804313936715,22.964501933958225,-0.003062340328895727,0.36598070107458175,-2.260552059478975,-0.4303656973514306,9.989465460438756,-1.3689746410539354,-0.38775945178212967,14.125780052288377,0.02764300063498649,-0.0078272792815064,0.09359629113732876,-0.025766324404241356,-0.05351095303274606,0.021135803558846013,2011-09-26 13:14:23.074546093,8.800356223
49.02751375043311,8.448887260832446,120.96435555269277,0.08656862342927141,-0.015842298367858873,3.7474746398518377,10.434314563200205,-31.497933147053295,15.621782027876925,-0.025014602413805875,1.4733442345017802,-2.8248690281825315,0.36384844061971366,8.652819134839827,-2.067001232461486,-0.9657903726911518,8.57419148611532,-0.07405096651268528,-0.0279806614486001,0.3514264422586646,-0.015498595919974255,-0.9009862627894726,-0.10961190387618795,2011-09-26 13:14:23.174585645,8.900395775
49.02731282490451,8.435599000220115,100.07268035500324,0.09027235719353066,0.043634405388612706,6.678990742754513,-1.5041968585988954,-37.903908157025086,116.07017024244301,0.43912186670505393,-0.23729346439522153,3.131559501010946,0.9533121863494692,9.818418788089925,0.5471601300973483,0.06256245981931527,10.75789404432993,0.3692657266122626,-0.11758587950368544,0.03766963087094451,-0.10681341556193723,-0.0012916838534500867,0.013400831414718211,2011-09-26 13:14:23.284715399,9.010525529
49.02923280344463,8.454740220549764,111.74427195520265,0.037145568064893525,0.03413875664473142,3.04323504947959,12.559080010528035,-17.485778963258877,-204.72035602793042,0.24753159011671905,0.09761791739536786,-4.119806861709293,8.806938493498917,10.14069443485994,-1.2929880100169562,-0.1452694495880735,10.507062161223232,0.050921898849431886,-0.11102447574748502,-0.28451161489434046,-0.0075957479142203296,0.0580351329615266,0.0329487806316131,2011-09-26 13:14:23.384621419,9.110431549
49.02814089090443,8.434102720660038,113.81578507392943,0.0316338837055754,-0.021322443978407168,0.12695600004297702,2.1241115667314157,19.93341201977935,52.375273076833345,0.3964128938542368,0.26045262049863055,4.148010731794181,-0.5002774599699676,14.021429680986781,-11.102190996735626,6.429300303853448,9.781005060758652,0.04994308674138151,0.13267266885837906,0.07674161500885393,0.1902736424670721,-0.6078495549819737,0.10714850590646224,2011-09-26 13:14:23.494536374,9.220346504
49.02678357245958,8.442726406516929,107.80268347371445,0.06292382504021188,-0.05849300853790547,2.552975162162136,-17.13333179164966,-22.961189093402968,49.7187982182233,0.2527770216001586,0.2066665640019538,1.6582132171750712,1.9686341586059535,9.491048893572525,-3.1707370010584213,-0.298021128633994,10.672309578549394,-0.23838696786000535,0.10261854984601287,0.2737017628391064,-0.06784561846361518,0.18040956291903232,-0.3093478686329097,2011-09-26 13:14:23.594598408,9.320408538
49.02673783110918,8.442183830130377,109.6935197098151,0.07386459195836839,-0.008191172020125885,8.08435132949868,-0.31994069118733615,18.291732093491547,16.812772504130518,0.2591880273151239,0.23339680535354618,-8.499791316350462,2.864686558927873,8.569031948944147,1.2328366905739465,-0.4056228715828736,8.3565244425176,-0.06512050669358899,0.15450294804057757,-2.2219716518069323,-0.043804635406894984,0.02120885537030431,0.5679489500330356,2011-09-26 13:14:23.694712487,9.420522617
49.02709599708357,8.47682779478767,117.52157294426652,0.03634147923594135,0.004323916745222551,1.515349465043493,3.6671785072876446,-8.51321858246223,18.22628438924823,0.08584955828952982,-0.03460695121966836,1.9474004363876134,-1.2368520428533376,10.266844636477888,-2.8809662872847634,-0.7928199315180536,14.982366947485513,-0.2302681541147496,-0.23057418115593675,-0.5790731757056584,-0.07335116931567963,-0.14041057103888416,-0.13162312369926685,2011-09-26 13:14:23.804638678,9.530448808
49.02644764258629,8.457057148600608,110.64903844605462,0.037051439381187885,-0.006449082296274513,4.195364577155271,4.820272763625425,-33.77341934733492,9.047081521304062,-0.123279030303839,-0.13387808287950687,-2.8636126050551005,-1.4467619274549732,8.40705207288991,-0.5426390801817833,2.5393327993463983,9.827232687052227,-0.024041048633536496,-0.056391676890219795,-0.286524672972218,-0.029119481085666386,-0.41283901420949753,0.117325366697242,2011-09-26 13:14:23.904591433,9.630401563
49.03012049404514,8.449677494116678,119.7296209042992,0.09953140558498544,-0.004314836414150094,0.8520410238227454,9.349993436376447,-27.94346576947584,-17.21154339523138,-0.1685547164736344,0.3030035480886924,-0.35444901814620433,1.0120955136452414,8.439907826963129,2.1463714493104287,0.35264735976404266,10.458967844451434,-0.03308082296620492,0.038341849806298005,-0.16268410949437503,0.01737817780733108,0.10463845879983716,-0.3803162266874426,2011-09-26 13:14:24.004572444,9.730382574
49.028750046407126,8.438772840895627,114.08595580686264,0.039121983463868394,-0.14523991336670658,2.287450017438844,3.5315028469258314,-10.658480256629622,0.6714853949860267,0.051040866164982,0.10437098527734283,-0.16550567650510994,9.372474007919335,9.45549704734432,2.2638358646844225,-0.477190107840627,9.141297066170367,0.04387344815855396,0.23312114955226657,-0.12732424479314447,0.0843291082949554,0.1589255599576846,-0.04935093989308075,2011-09-26 13:14:24.114528485,9.840338615
49.02798632567305,8.44264694491737,109.1037499046551,0.006080712914751263,-0.02190245962238758,2.37747507277024,3.6713404180783593,-88.25947017091788,6.87080203595441,-0.393110145627582,-0.17076622923210996,-3.120082025730004,9.480330889099065,10.332964221239944,0.4307059799255155,-0.9531084182661285,10.537972071676709,0.08273272572540494,-0.034515359957912384,-0.9588020047879491,-0.05537023039056495,0.9763979015125189,0.27427347908159583,2011-09-26 13:14:24.214680134,9.940490264
49.027557699538676,8.449741649042366,113.49926995588288,0.06868506459749306,-0.09936249923648532,7.914099554669031,-4.5270197280392965,-10.836893285966074,14.641181658361768,0.2510040984341324,-0.7176348099399441,3.6993549773988166,-0.6636125401605095,8.27229888859512,-1.1413156971042808,-1.1416481815429822,10.709730261199548,0.047901606775753905,0.0012033631886830404,-0.23665693968122267,0.08009042273801682,0.24695919533400643,0.07870650073448678,2011-09-26 13:14:24.314593468,10.040403598
49.02592625494838,8.445979205250802,84.49232991278447,0.3809684061848333,0.05660002589224536,2.316781278522249,-4.209687916578511,-13.316562775926226,-20.999416172147946,0.25257983676983337,-0.2747826192460878,1.6825516144529693,1.5663257171536489,13.408221162729017,1.6197058215227338,-0.7528197749345792,7.518294013769658,0.154535558565061,-0.019742791102993092,0.11525624182174607,-0.017836254506531448,0.14719823185945582,0.5590433944713159,2011-09-26 13:14:24.424626367,10.150436497
49.02839964866292,8.446136052663368,110.65814593067714,0.030655978634041715,-0.051034171362397386,1.6047194514894454,1.7381942881362442,-9.065466600542955,11.869839768564713,-0.2833254725351812,1.0486688118536545,-3.2467420955739956,1.4740613730613368,8.263240337857049,14.826205161583069,0.5274949581432171,-0.3388748459357309,0.09800688798827538,-0.025101791329460405,0.13207990316589835,0.030531959948329506,-0.07174369285243085,0.0833964645951216,2011-09-26 13:14:24.524596312,10.250406442
49.027428507806356,8.446171008816407,117.955416415357,0.06750462780774147,0.014723897505929102,10.448105281990536,9.306343710835307,-9.57966842258222,18.574212073440204,0.7497911846208565,-0.2047356452268757,-0.43621315814850675,2.018494483284365,12.419269245698771,-0.6827620105555858,1.1081770679534215,10.143373576035062,-0.2649022321898234,0.1346471996576818,-0.11692491564254806,0.0072403986429810906,-0.5907422996255292,-0.7179622062936384,2011-09-26 13:14:24.634611077,10.360421207
49.02690028559626,8.445499962064478,111.55346880322156,0.123699031368502,0.05996025006857289,3.27718874783315,47.322563706157595,14.316399495825886,18.085497226191592,0.35338144127719884,0.1156434942403391,1.646391369062866,-0.41366364944054934,11.804744378057723,2.0174619442018056,-4.154137834896029,13.109537015937157,0.10301280857080455,-0.022489822898283395,-0.0919287699483455,0.0320234812820568,-0.1401560697214585,0.05887165530376271,2011-09-26 13:14:24.734809582,10.460619712
49.02771467221506,8.437780480248161,116.70045657930581,0.02476007128882777,-0.020538476694913824,1.728470582637513,0.9824974606469556,-22.443273339820514,32.717325903065294,0.046227490565279764,0.00046981327684399166,-8.81446703172603,1.1004321596772715,8.581615699172737,-1.2567248155404802,-0.5303981452167277,8.806073087632743,0.048235267994879656,-0.10663905020166878,-0.16037830545404136,-0.05094758536261883,-0.046206537783316,-0.09486327019484979,2011-09-26 13:14:24.834608356,10.560418486
49.02532678420707,8.4372200600496,117.0279906991916,0.027729650406863544,0.0009610581331029652,4.435935380353385,8.103131625959666,11.453708760546366,15.55331067591171,0.10752607387235341,0.16137781589040995,0.9110273279005974,1.4361079072539922,9.630170188311897,0.579735846988279,0.6833452755110786,9.858017070397944,0.02169742107940806,0.05614502834768619,0.2556705912392528,-0.2368033884854535,0.05227429671451498,0.1325944782570855,2011-09-26 13:14:24.944610176,10.670420306
49.026833149344334,8.444418162729155,116.8912043011395,0.006426462199464578,-0.044064692123072735,1.2920175147320454,11.215562452380173,-34.50147009812577,-1.0803699732343084,0.09928130662077908,-0.5028101475233303,-1.977176489194724,-1.1612672589892026,8.569293556876536,-0.480656929042014,0.2601252002552145,10.842903362261337,-0.06986218986765694,0.005264551147373601,0.006014172459469898,0.05740197473986154,-0.014388786626384044,-0.16684609666875175,2011-09-26 13:14:25.044621142,10.770431272
49.02850135755116,8.440765983851705,116.24635952533839,0.2797117904210948,0.07596842241219284,3.932197978095978,9.699871777713343,-3.0449323880397543,17.70056060108638,-0.08415664103235804,-0.03325327072313558,-1.874337590285165,1.8801328139034093,10.253007528241971,0.5161090659982132,0.2651439428244693,7.139805820128165,-0.48057460086693415,-0.09093321928013214,-0.19761449096410913,-0.04366553020248795,0.10652607581750237,0.42233036456597206,2011-09-26 13:14:25.144635150,10.870445280
49.03449047603096,8.419358563111057,116.18282060925465,-0.0040145205899055625,-0.00820911207601901,3.4443974869939367,-2.6634900547752864,-17.700040599965856,12.788125236333071,0.08021154826123705,1.7174052331958554,11.7202165554171,-0.13705433612301976,8.670315550786976,4.871602074973277,-2.4504814541445987,11.368385636119235,0.0212520154899816,0.09523182049062033,0.13341359687955995,0.014531514500258979,0.1408051122773904,1.2762757315036877,2011-09-26 13:14:25.254911060,10.980721190
49.026968492207644,8.436288138403476,113.78544051002848,0.06421428849526656,0.009881562029620313,4.886110142137273,37.94270605313488,-56.267228383258264,21.02923500393149,0.16901712262755858,0.34181830868690855,-6.275157775006015,-1.6970913220698831,1.997370228841671,-0.4181111448650567,-1.3941880274844902,16.310265330329717,0.048029393532868045,0.026098118600337554,0.41050774786933647,0.22193792232016746,0.10308109914564235,0.09396080092730472,2011-09-26 13:14:25.354668882,11.080479012
49.02792093457627,8.441727757308913,118.03774473603981,0.0007472379845740972,0.019334837309636758,1.626249471740847,12.71926743430134,-110.04393951813078,9.246706226665427,-0.010628234644506088,0.4687257956692611,-3.627437711659005,0.8658129707169068,7.2795644087542914,-0.18602838087455512,0.030079544433622873,9.89208729109799,-0.1369398287527549,-0.17874705071393884,-0.1520966580466848,0.00815846566542542,-0.4392897484424241,0.4731923348450346,2011-09-26 13:14:25.454637153,11.180447283
49.029142863888325,8.454542404542757,100.48901732984913,-0.0023362131381386396,0.006968580037028687,3.2739609723756824,10.016845906838657,-0.42253045431164615,21.731955216866908,-0.09140517120488864,0.3783365860879442,4.277497572605115,0.27239177645543305,9.53842282818877,1.378427638984563,0.0666553320642031,9.809949447943268,0.07624805663115972,-0.019589314995018266,0.1398554213886821,0.09864452884808117,-0.00871738350049871,0.044006706689754226,2011-09-26 13:14:25.564662963,11.290473093
49.026395028002916,8.452002234869678,109.37151499119733,0.06067992259374426,0.04726296774717527,2.7649380833972486,8.50383906388568,-25.942313910130004,25.83257624190999,0.2477659340995665,0.8275723658728928,-2.0809952491469117,0.6381884778092072,8.587399350899737,7.161532340124268,-0.43955526668651096,12.057364136408864,0.49250872659066397,0.00010162082187700067,-1.1464445216888972,0.007713703586612081,0.009130443258723482,0.17753996422247315,2011-09-26 13:14:25.664661392,11.390471522
49.02740291868867,8.440319929181236,113.15061149797074,-0.006548913553480744,0.008137536035211891,4.850125340320936,12.094430681613003,-21.20354389509491,21.971125879996965,0.0877255048881775,-0.15547832050826638,1.06912108019277,-3.300320109580843,16.769625259403306,-0.9557150772688666,1.3031540515236222,6.34688941605875,0.0441398934359474,-0.06525674516326874,-0.32086908095713046,0.08066124397197628,-0.0628603370241947,-0.13938896145054433,2011-09-26 13:14:25.764691671,11.490501801
49.02702537011906,8.4058870006936,115.5620925594222,0.013625240969867104,-0.027670055684374167,2.990562177929467,14.011404053577436,108.46153457492889,8.635712138975709,-0.015964415375559954,-0.07905743975109608,3.061170085098437,1.1085000944108554,12.798222062618468,2.301227809473587,4.971276179564405,9.348433111814956,0.055157039290047616,0.04447653314051838,-0.06567525633181934,0.12280651350894069,0.012341809270664358,-0.1603997907306183,2011-09-26 13:14:25.874672798,11.600482928
49.021485770443654,8.446975066033666,117.6955737015317,0.0160667283396323,-0.025777341408734663,3.017707247067787,2.4435177148401865,-55.465852323659476,35.084867646617745,0.08625224079178988,0.23151906438391798,-0.43220711845196835,1.0291937272039076,9.528644970407601,-1.0893993342404917,-0.7775996692528098,8.947698326660161,0.028596005900805452,0.053870165988076986,-0.19702618881714,-0.03269954275206465,-0.10503384846700868,-0.21592930260799745,2011-09-26 13:14:25.974679901,11.700490031
49.02750328851696,8.448666209859239,114.24927324208726,-0.016495991726406985,-0.011186328165747847,1.0803373984654607,0.9435578395665605,-7.700991402895526,-12.171521276372573,0.12378552644842908,-1.0960146188693198,-0.6965635069285814,1.5328150614194322,11.006748415005642,-17.427865987659157,-0.9326742933742268,10.96569283102304,0.09201299425150937,-0.0754852102637495,0.20660551735546515,0.10027993857267642,0.07550075582387203,0.1538598036522644,2011-09-26 13:14:26.074709422,11.800519552
49.02788666258498,8.435457807203976,109.60209196486187,0.022510206061321553,0.06212788475279025,4.397278134969413,0.7193961450882491,-21.09396482745769,30.466526845993755,0.29383765264856837,0.13762070583241343,-1.4214187152399802,0.9488857552994098,8.454885485636199,1.3866301121720235,0.8402912312216542,10.565101465459025,-0.03449424602823112,0.07569126623281913,-0.16659037657647746,-0.0541791739844335,0.04227552864667057,-0.003452180522199531,2011-09-26 13:14:26.184709829,11.910519959
49.02755263353281,8.438716514264648,110.51333935373589,0.053250923133099134,-0.0002232740226543132,2.352343423433184,3.5171771545192625,102.97055454069576,-2.1298144917948925,0.12010693452176956,-0.20988460489050298,-1.438718069921028,-1.3340141298521346,9.672850746038984,0.17033083170181396,-4.109211987411217,10.03581744848996,0.1606876023801956,0.04328532272057469,0.18396030420977055,0.03510064006494047,0.0035248781700996483,0.07176140124274963,2011-09-26 13:14:26.284888284,12.010698414
49.02817040657525,8.445819217185278,113.91950760507217,0.04226835379941474,0.04714220790786796,1.9064807804995865,0.829957327271762,-34.752352238164,67.31947194816246,0.23703708655067895,-0.09527624480012514,-7.976141688018604,1.4538794976657456,8.948926445794706,-0.9184147090396867,-0.7226992047453343,15.55304029129708,-0.017673844346571654,0.05098027005913108,-0.33051467273167473,0.06108496375682743,-0.027111350012256865,0.12221760505383314,2011-09-26 13:14:26.384842970,12.110653100
49.026884184799975,8.445417764703562,110.95033647477146,0.02934226639175458,0.07412327433746523,3.132982765762981,-32.150326833943275,-140.09995383816275,-56.22888455455677,0.2989325521169507,-2.2967188936939436,-7.421510675255697,-1.0786072889800542,10.988882729031692,3.970695610034965,-0.38642348674736393,7.048868317150225,-0.021865838203402065,0.00882855173877809,-1.7294006501638475,-0.09445155485862927,0.26882277530621124,1.9990753971776154,2011-09-26 13:14:26.494681878,12.220492008
49.02762029787112,8.44673102600784,108.44439450432233,0.07164927502396491,-0.006906340612712855,1.5159533504096858,-4.834908065438612,8.266228194473376,30.84482014930969,0.10826772437384413,0.2694062197577387,8.590399825714702,4.446244166703236,8.865429613346935,0.6734855005137795,-0.6907295436279416,9.750253388198287,-0.022819688366058865,0.09955356078761418,0.3182774028050495,-0.36231277558020597,0.04508263722786078,-0.5859461439518144,2011-09-26 13:14:26.594702098,12.320512228
49.027470019238855,8.440753313133007,108.26694488203452,0.05557655985811598,0.0031107310894442353,3.750349351726097,6.990210014152092,5.615891078599775,12.469458752713688,0.1935124289164213,-1.4459310907952376,-0.045583803142490664,-0.36829708106508763,8.063767778164735,-0.005000729509542168,0.6414327306179738,9.088620023843957,0.012141918266032885,-0.3045823188600318,-0.24197190588661383,-0.027098122898092228,0.46039438461319293,0.3379198122392108,2011-09-26 13:14:26.694796602,12.420606732
49.02690895351098,8.439621876387296,119.42434245607055,0.03753576713251645,-0.04124458877478049,3.6765125488904333,7.542003949190196,-42.70578084649054,-19.814937308707762,0.005927672212680979,-0.06510691181472784,-0.04814784920774551,0.8232157977277975,7.549676665491845,8.176081559844397,-6.527773196009014,7.906873165339423,0.04534471673028029,0.0864286046541836,1.614521687936319,-0.050062270375039866,-0.22336017048467452,-0.14997745793146167,2011-09-26 13:14:26.804687400,12.530497530
