lat,lon,alt,roll,pitch,yaw,vn,ve,vf,vl,vu,ax,ay,az,af,al,au,wx,wy,wz,wf,wl,wu,timestamp,rel_time
49.025667872228446,8.439973879639869,115.14120251525578,0.0650434614075945,0.054919674611819076,-3.406582650984358,5.940860433557329,-39.8723895440683,27.95071324352019,0.2792968345987709,0.2718775334620853,-2.59993941528309,-0.6834297788915181,10.680906548478823,-2.410224224122418,-0.18071088200015203,9.79781033074942,0.03698619677155659,0.4764431351552813,0.008419664726087243,0.0023546111469096645,-0.06418091999330854,-0.15888700471924727,2011-09-26 13:14:14.274189870,0.000000000
49.026090031390765,8.442937993145241,111.99678082882876,0.021672307839344585,-0.043635736425757125,0.8091558673032773,12.360608273880132,-18.549947682793725,6.365701181232047,0.2743117648090153,-0.10366735444951146,13.727772329752936,0.22810020614178006,10.173351729943318,3.3126891349176097,0.6006741308364183,10.531582791281075,0.012829386350188727,-0.10356057345552741,0.1909416033917782,-0.04422516974481592,0.12758977490490186,-0.08558574388057284,2011-09-26 13:14:14.374162269,0.099972399
49.02724751467845,8.450048562998045,116.79843901574617,0.009085177027477399,-0.23700480944563862,2.18567017032656,17.686624464405277,-86.42363555823431,10.256439226108716,0.15790983332443465,0.5319863822565464,-2.3169813542869115,-1.5110194310740557,8.590908337206573,-4.158636361814345,1.467969814212429,10.275281417649563,0.03135828122828718,0.06998796550336571,-0.06807753558337731,-0.03423287273965254,-0.11725593126488423,0.14831841602636417,2011-09-26 13:14:14.484153036,0.209963166
49.02663504428698,8.484509130921303,113.85113747144693,0.03461337220312503,-0.028115079519254002,4.073028678608706,0.9350330894742527,-2.7950530525489476,-58.890623385544735,0.7985004062194536,0.0028460354043924746,-1.123216128114105,0.9417312969170235,10.707997388660784,-2.439765498110971,0.240394592049176,12.99976690287699,0.013927649361725835,-0.8285051653877822,-0.12092281110808045,-0.06439699338059601,0.06091269341812887,0.1104072582482254,2011-09-26 13:14:14.584217749,0.310027879
49.02731448988468,8.450731382226023,114.33791867501337,-0.009522243941500162,-0.0006445949824533887,2.980017912016905,1.1058404477781227,-11.238781197945073,2.6243981461506927,-0.05931328023995599,0.3750767669743819,1.6922905184282933,1.029836572797432,8.695409359597312,-16.93070098090981,-1.3705982949877278,11.298618797300556,0.0519804197686266,0.0233288217262852,-0.02780832221189598,0.045675535366811355,0.018518459162612497,0.1601057781567861,2011-09-26 13:14:14.684237582,0.410047712
49.02811797183929,8.450926015100746,131.93401905805356,0.06732506890675923,0.06604863328997888,2.048300023307731,10.813362001560325,-27.86116231940185,0.16515104655639767,-0.05492673012435844,-1.7770172378267843,-1.4495945489927387,2.0254164830439425,11.442045497339747,-12.929795369896134,0.7276213847856726,11.302360966528815,-0.01830468887200612,0.05489359992989811,-0.13046989825854005,-0.12303445344501643,0.11324651383848423,-0.11942235559973544,2011-09-26 13:14:14.794168305,0.519978435
49.02790037409364,8.451630550728172,112.75164484234789,0.10998517587408363,-0.010122830342953753,3.19075254481545,4.531248473850685,-23.485072573592646,11.085704943814763,-0.03807301321025176,0.2639553395766777,0.11018495420940644,-0.06312582452675242,8.194006051790913,2.429613447384086,-0.5069581085458195,9.951338079639735,0.03549626921740778,-0.002458425548257712,0.1266102691034955,-0.06187346536191791,0.432335721449847,-0.09437148111093432,2011-09-26 13:14:14.894150525,0.619960655
49.027654346814245,8.446755900359694,111.28508450172544,0.046038571511400596,0.07465794818537734,2.971179641253105,4.448611672230843,-20.283839772317542,16.769392248838685,-0.022545648563266116,-0.08017326810285284,-1.4811731748262131,-1.5778671789032988,9.312485027410126,2.4162343031603166,-0.1886729239741442,10.149885668682542,-0.04134167521417215,-0.1323549253279716,-1.116378449928679,0.008609962936669996,0.020173093361763948,0.1994228292599689,2011-09-26 13:14:14.994133669,0.719943799
49.02153824910723,8.446958232663606,112.87262110519562,0.051745133683907936,-0.0120465277622517,1.9884424942196572,-9.793308169906645,8.93245765456928,49.13571811120303,0.04015409809079552,-0.41105911291082325,0.46003329103515633,2.172723251537767,9.815037661273461,-1.251177926075623,-1.2565172214057563,10.130517470590874,-0.03200181245552566,-0.04233436986037629,0.014068101649783175,-0.03615559998750274,0.18432103424548957,0.03663942650755096,2011-09-26 13:14:15.104158964,0.829969094
49.026611540347126,8.452208131714825,122.88599001262669,0.11196911013180816,0.0747069391208079,1.420479612431677,1.038953424496059,-5.923933382135424,41.03283563759662,-0.9989772132599674,0.29380813960137153,-0.8395781511692431,0.2998743966069326,13.91563269188842,-0.8008653708250016,-0.8079079484279239,8.344965901151376,-0.04904333140030773,-0.02315857052607373,-0.24904305766896415,0.009255393365753421,0.168095982046028,0.09790026722284659,2011-09-26 13:14:15.204285324,0.930095454
49.02746591765814,8.438794358551451,109.40829470282615,-0.0033326648235257675,0.019950584019359372,2.9611035897137707,24.190517247930693,-9.549961572510274,9.277401653320943,1.3679879544145082,1.8361174189071838,17.093697744038796,-0.9588246427584276,9.7840999492509,1.932610700511505,-0.2952512840464994,21.612234474429954,-0.026321600615655315,-0.025768894258628192,0.21468997844402563,0.14170696026437762,-0.11012362894784677,-0.34716750920938017,2011-09-26 13:14:15.314207299,1.040017429
49.02909872749192,8.442992027322367,117.56488848956087,0.058750357132948614,0.04005859152497295,7.1047405960878764,5.874551766039584,-0.20262508879917362,22.672196443560644,0.4204148062719783,0.23750746192789468,1.2444926524027493,0.7967919283538817,8.441418246874477,-7.9476266263619335,0.47342675934108985,11.241054552558298,-0.03999807907584234,-0.0961735617312557,0.70736977818424,-0.07928870015364586,0.027765831226548403,-1.6071100804572884,2011-09-26 13:14:15.414305536,1.140115666
49.02845035498416,8.428077187920024,112.90997651992694,0.05457191695100663,-0.09929889433777629,0.9097359408763022,1.4779667286369413,-2.028794417193005,15.177587258880406,0.22085727621608858,-0.183264428354406,-15.799356020559834,2.214345724446655,12.912637317463032,1.6536784179713881,0.5473155607226426,9.608461622878801,0.0216561081883374,0.08068025162573907,0.43679708194123296,0.07102682687626073,0.14657660778271084,-0.13137004969373783,2011-09-26 13:14:15.514164770,1.239974900
49.02680478062937,8.451280390765191,114.05854282044858,0.04505911606152409,-0.15390170245068097,3.0045784280870924,3.1343532846965974,-15.669156822638879,28.581760883357163,0.040370254754203604,0.11711345208003916,0.0013904078566387146,1.5980755096014994,9.137702087212846,-2.5000299471259537,-0.696356298065381,7.652125741267059,-0.013950096207971486,-0.009657310572766892,0.08113084339159246,-0.06969525966352064,-0.05462229641709952,0.21105885581440198,2011-09-26 13:14:15.624168581,1.349978711
49.02506374889766,8.443413352666889,113.80109889633647,0.07875202387534119,-0.020655969579311147,-0.9788691231386721,45.315575166326674,-1.8347394986916754,33.376195768178064,-0.9981121021304813,-0.007796266723647173,0.5665892570146019,0.17408522093991113,9.273280026113218,-0.7526721324899937,-0.36315058776089587,8.357777674769386,0.005094281087842862,0.0804062086207631,0.23724566351785106,-0.013464709160102338,-0.11521845310903944,0.19995982974296655,2011-09-26 13:14:15.724421320,1.450231450
49.02720488742195,8.45469605162728,110.39439228149658,0.024611480877381978,-0.009715475026694296,3.6873716422108096,6.263447392702019,23.274724243443092,3.221450262467382,-0.3366655571011439,-0.3448501837312631,0.06654811998028065,-0.7048866336212662,1.6880893696387957,3.802099686345352,0.40350022835327426,10.155561444733202,-0.045783330298748384,0.6854235372770571,-0.2817111180694506,0.0769470661946405,-0.04101318641751236,1.2917899597433995,2011-09-26 13:14:15.834156384,1.559966514
49.026964137220496,8.474603997812112,124.46861874053175,0.0815603329325566,-0.02897502170934744,2.550615676551848,6.642487771900836,-55.36251096011004,37.48927794653015,0.21306726041768018,-0.19772477889310205,-1.3096411325587214,-1.0483769082501924,8.284174552687725,3.7703668219874538,0.38428917611732266,3.5753249786365924,-0.0610293550859106,0.3418889737205062,0.1735252019865816,0.058669372940762805,0.13471710823348781,-0.17824196794775343,2011-09-26 13:14:15.934173839,1.659983969
49.027500096454936,8.453244562762976,112.1675013248672,-0.0016182723437498797,0.1019735006700149,3.45263405428252,54.23790465229264,-47.89632807116413,39.68138315167967,-0.28167655803780883,0.4497160823022649,1.7867079155035714,-2.4287302766538534,10.82059403566786,1.3188739463199897,-0.03359336275987573,12.09445916649142,-0.07225724317746307,-0.005797862433360687,0.24745881520810287,0.10747053919432763,-0.06555844931797383,-0.29222201014993876,2011-09-26 13:14:16.034192973,1.760003103
49.026271459773454,8.447181277365306,114.1542539644843,0.07332906005281689,-0.008334571905542898,1.9564522806889766,-4.428154043846344,4.306247107043955,-9.36811773251723,1.5270451428588685,0.09279072755462497,0.7922329032330689,0.43147397794872666,10.802870707495563,-21.093523524506512,-0.0464066067044028,9.7272883687376,-0.031481775522311094,-0.20545441817410645,-1.9360354118642904,0.22670647451797588,0.036617989961311985,-0.2348521359062419,2011-09-26 13:14:16.134228244,1.860038374
49.026954001740116,8.391389861232778,122.02047208445654,-0.0347081362757279,0.051963832615288585,1.9056285960629942,8.862782099276354,-36.41745503000215,-54.502139682977514,-0.13325507503556175,-0.0384190786856835,-4.617868221384363,0.7036767457442845,11.503666399153477,0.18858937307540025,-1.1793427052625938,12.847196586357427,-0.10388393426808923,-0.05548475756310266,0.023336169314722228,0.2442678275872836,-0.10135644081387984,-1.2704593005531375,2011-09-26 13:14:16.244258643,1.970068773
49.025793136617246,8.436387264761532,114.58608127546259,0.041459562648106026,-0.005515620723875787,1.1716026813840423,13.048410749034328,-8.192131588938478,-7.486591140589914,0.1536174641739298,-0.1549996236509726,4.830702476322435,0.5918137747610445,6.821231141489903,-0.6751774113836438,-0.4636545172536004,16.946533621474448,-0.44463835571590815,0.14844080013298022,-0.15642064361173502,-0.07378291059089609,0.08850012665983223,0.17540076881363778,2011-09-26 13:14:16.344179824,2.069989954
49.02551966244188,8.453603649937621,110.04031728655168,0.03232973186588876,0.01684270666542121,1.6355215786151636,6.04673122939091,-29.543421482805087,30.758379991057822,-1.2272017229954866,0.39351483584951175,1.7063349783765758,0.3839663167305282,10.580403573775857,-3.2858422309911774,1.890012901445884,-0.7065327270823811,0.004791786747345227,-0.009409021677709992,0.2867293767558318,-0.004320947203199844,-0.04085991272400326,0.02940449569804584,2011-09-26 13:14:16.454197462,2.180007592
49.02660611426091,8.443211275690109,118.06912618960241,0.18478034929855816,0.010309950573382107,5.091838140343343,8.72883757810306,-146.41309582136338,-71.70517979287243,0.12645824234705888,0.06681766579429262,-0.8409868371041849,-2.9265025618584506,11.170654920456995,2.417022422474125,-1.608496679016272,-2.1061115183700725,-0.03742113075811422,-0.28622325929111136,0.6301565119790317,-0.0705566550757749,-0.017905934842952567,-0.1262989688787936,2011-09-26 13:14:16.554238255,2.280048385
49.025633346663405,8.44637045959689,110.77567056367322,0.06664718848340495,0.017853324390519842,2.281289069157003,34.05561429091636,-26.401838620454367,46.15187086173699,0.07298463666895329,-0.5276116578502179,-1.093968513774121,1.5428785700213745,10.43179654554329,-2.168272147950628,1.5229062711212555,7.71291140949705,-0.016280491388477782,-0.14231154644077085,-0.2220355107478337,-0.05737090292763283,0.05176758708468201,0.000773580829354947,2011-09-26 13:14:16.654221048,2.380031178
49.024715636416914,8.45101375268766,108.39757165524162,0.16234054025474134,0.21289413075235014,3.742684460318278,13.575846862357736,2.8223605322143968,68.02928061201273,-0.5345226517732262,0.660163802034331,7.751094989254684,7.2454482470951795,11.977827263956403,-3.3309658603321908,0.0774917563275469,8.31338241286856,-0.019588587333051202,-0.17749759492289613,-0.10050550123703135,0.052417423930699286,-0.04987231335640111,-0.199485339208586,2011-09-26 13:14:16.764258181,2.490068311
49.02795229104536,8.433129283782339,113.58700800849056,0.05084096739839053,-0.030534134690401615,2.850743804847457,-4.370168498929634,-14.326461784657052,50.882669130465665,-0.316346918071133,-0.7786541609261041,-0.8485493268827826,-1.0190317624804988,8.77448542289637,-0.3471338219700103,0.8270763633542235,14.811837622494021,0.036568502426342166,0.15966726630049582,0.09983053724608673,0.17017653082048156,0.040647829303497654,-0.10266335069101652,2011-09-26 13:14:16.864231812,2.590041942
49.02805447378218,8.4438634120528,112.45586866886612,-0.06777572095547202,-0.014464570486920588,2.139935758009492,24.736062610837774,-18.126348335449947,0.9384589986939176,0.08282825785260237,0.0667487270612015,6.096642234505863,0.6857596710458589,11.16250516960712,5.5730377308424925,0.37022094841520314,10.692674510514987,-0.005714838365202738,-0.05289702608027706,0.08646018750441302,-0.004108655699172986,-0.06510849410863034,-0.1278663025797117,2011-09-26 13:14:16.964229930,2.690040060
49.027604922195295,8.449428882107991,112.57472646068818,0.040294612935198613,0.0464224837657597,1.231293261530793,3.361509826782322,-21.288481292235016,93.77631713180665,1.565489128034166,0.4460373926536406,1.4367554443690254,1.1171936807088385,9.04097234817895,19.374521973585892,3.2423370991366705,10.637482912116802,0.036715134171031685,0.13177389565427605,-0.43470831373656915,-0.04370675959054975,-0.028491137876557465,-0.03825522689232512,2011-09-26 13:14:17.074283366,2.800093496
49.02727388050519,8.444540934631718,117.4782967748395,0.03266938744319761,-0.0045099351910565435,4.792557384825355,0.03454775667441545,-13.959541066512202,4.938207799838695,0.04598209764402483,0.1480201721341042,-0.8291033952875182,0.5040388584979915,10.868887666123918,-4.059911149301615,1.2958503264215895,5.4618748090225395,-0.04936253069920324,0.009474020495679813,-0.22286335348381228,0.027206030921158066,-0.08982274439945713,0.028203310498109983,2011-09-26 13:14:17.174286604,2.900096734
49.02879582576884,8.447346810610535,110.68136573736172,0.017896696939922508,-0.023697585648566034,6.395606414743282,1.8056398011716581,-11.977221575229013,-74.89343700924996,0.2752401231613416,-0.1904822677287059,4.250439569131009,-0.7823925705158262,16.249286278309654,-2.840287805411559,-0.29449584464995693,9.567923908278502,-0.07061975947186463,-0.4998315125748065,0.052198657224443674,0.031303234469004,-0.051112353455528,1.0957237612616597,2011-09-26 13:14:17.274323414,3.000133544
49.02665329283037,8.440898463289196,112.22577621645124,0.023799592068136793,0.023702879801918084,3.3551566814574607,8.318301587642782,-30.66518472653722,26.105549672495272,0.7760672073787561,-0.28460648068436406,0.4362670231497329,1.3770747292633663,9.284369638048092,0.468789286745632,0.7016746082950903,9.537310001732145,-0.02360257220328573,-0.08317845710338695,0.21189545156171055,0.18163251178033607,0.0375333979422885,0.32538892623320165,2011-09-26 13:14:17.384255599,3.110065729
49.02629957987955,8.44428519793567,112.61564969962956,0.31869724799003096,0.10974889759788468,4.281040815979491,-13.258703468710378,4.699422268375658,33.675627711969156,0.4236560038038981,-0.013343437566570582,0.16491708459635113,0.6928765323617367,8.95767934726542,-1.192000322826294,-12.640788126270177,9.598210154590785,-0.674133549545178,-0.5820301889712965,2.0083873004779917,-0.10021947604571572,0.5823207854775461,0.012396493992483701,2011-09-26 13:14:17.484436187,3.210246317
49.02556799110342,8.443177531951191,115.42876040042496,0.05838386716153603,-0.14161076223183888,1.6490893007433383,4.182442541997792,160.61296705423828,8.384381001603199,0.0053259429850882195,-0.03615070708014321,1.7223321180886373,-0.631581152072946,10.693639367215907,-1.7060532246435505,0.7127206913073705,9.700517187179013,-0.03759857806458518,-0.03395306192336515,0.10030600326106195,-0.08882222049886501,-0.11759590622156718,-0.40075739794742926,2011-09-26 13:14:17.584443850,3.310253980
49.02042556238978,8.449232400955983,117.38408814231019,0.03603701708936031,-0.1716173338442475,8.49228075058742,-2.251170447762383,-14.4156114039797,62.15821174213754,-0.09019882965503953,0.7299315008539992,2.550932392121077,4.824251418250009,6.895022834215801,0.09700373980145899,-2.43558988105258,9.988660913552033,0.06343310141150721,0.07719987371132461,2.236955934397102,-0.009277618005480059,-0.07531162608292681,0.012734473220307978,2011-09-26 13:14:17.694340341,3.420150471
49.02715641644553,8.453114255707634,113.77232899676362,0.05395221035027869,-0.03309370955506799,3.8726693107508967,2.0795930191759404,2.045589342964025,23.37422448556011,-0.11540926489087662,-0.3482681367103983,0.9857249328526612,0.04621335285263406,11.325372399065731,-2.761651480153849,0.5691872295539246,9.387659111151876,0.007911652625113124,-0.061554029315108345,0.35951008783314403,0.17576577189122172,-0.20768828141858553,0.1758451790351009,2011-09-26 13:14:17.794315983,3.520126113
49.025754993807226,8.449535572797858,114.49684891363894,0.014077738167986364,0.04770268763791345,2.9396599569642423,8.964281178072358,-16.422218587170306,5.399195806231589,2.417801193972509,0.10046325574571584,-1.205410066907509,-0.3828563862824659,10.377230056381796,0.03446351018246274,-7.493501090094646,3.252335140178631,0.3597536880229099,0.1064321557104218,0.1908336238099502,-0.45773883338898996,0.26062324159723516,-0.043980345716242195,2011-09-26 13:14:17.894286483,3.620096613
49.024956718654636,8.450450462708698,113.79256297490649,0.06583174631625266,0.03585192407859503,3.131595986081062,3.706706363227773,-31.32902257630632,-14.762576471387884,0.19350222523179605,0.05646193676115708,1.279522925206382,-4.838450610233199,11.058948356174518,-3.922516274747654,-1.2907129202482788,11.056246339068716,-0.07056058331393615,0.5551356664502827,0.31126981714449575,-0.050462938857347095,-0.047737414318157236,-0.006511464740927855,2011-09-26 13:14:18.004269687,3.730079817
49.02649332907383,8.429964346187559,115.56442429010144,0.013076276236990935,0.028539976051103116,2.7598353860162805,-2.505334793590852,-11.097520973813412,17.63546487539357,0.14500393254231211,0.2568853789186017,-2.78687985730095,0.962425051425317,10.259123803863135,-2.278153702848441,3.62471655144006,11.658183009427841,0.015026783388002,-0.34277486419821784,-0.07839632684117158,0.1727400113098652,-0.5530457075397319,-0.024895635153151276,2011-09-26 13:14:18.104272348,3.830082478
49.02679383582465,8.443192363598145,114.42608165740067,0.0035380352341120927,0.03922205922637188,3.4582300993731647,37.11736052226137,-7.068983961031624,15.411816136365303,0.4858554298736829,1.3336136958307276,0.18731275208418147,11.654399381399095,10.03385578990231,-2.4830537523126983,0.1833798012250223,10.213578907082441,-0.07390090613901704,-0.006449560635670131,-0.2560408568319483,-0.045736359591365024,0.07172448974102207,0.17884104102008605,2011-09-26 13:14:18.204404348,3.930214478
49.027528670813275,8.446348281255485,110.32940043778649,0.07955229416984871,-0.02088103985731849,3.255295044395914,3.3284836698975746,-33.372693692902295,59.79246986029292,-2.1900507405541783,0.022450494681265545,-8.314053184395249,-7.973648690940786,9.785265079197355,0.5634834475596329,0.03124697146170874,9.439588244999674,0.1106996448500763,0.09971713361460446,0.09338886727998127,-0.02145413011392809,-0.0773591554098619,0.23221841592658668,2011-09-26 13:14:18.314319507,4.040129637
49.028092445979134,8.443128217827937,117.89026114520819,-0.09603860461586688,0.05309914371623701,3.350058959923415,16.815247277580273,-27.19362663212719,26.661982621448075,0.43642127044911305,0.24676608785418158,-1.7228407360247777,1.4879470732612572,10.081659562885585,-0.94567276734838,0.38470525705952546,20.0815129792905,0.13189121876714466,0.1204111799390766,0.36022883438412656,0.005373608459608755,0.030669402721451845,-0.02498754499756812,2011-09-26 13:14:18.414368152,4.140178282
49.02505455571284,8.441785451850448,113.03574849019914,0.04348484655956497,-0.22600616867372117,5.345502525004738,41.209036163430426,-4.829167108447837,11.615501914258743,-0.2170624045570085,0.21659715950859393,-3.8345436930597656,2.538633166505308,9.448347239337128,-0.7709721249527767,-1.469828581541928,6.795618887618193,0.13227653271148118,-0.1548899331801714,0.8354383574753826,0.06854502416319933,-0.06873576612804312,-0.09215085092252409,2011-09-26 13:14:18.514351130,4.240161260
49.026559467081334,8.444839313587858,112.84340765817251,0.04599016036281285,-0.024747211783462134,3.7625673489481946,2.556086086605576,-22.439463111112662,35.34749686435357,0.17340845315399464,0.2408227181021061,0.4697484028865541,0.7939202975604378,11.127790720965034,-0.6935723597359323,0.06329394080167805,8.20415740813945,-0.10648826959255846,-0.07215701971039087,-0.03638001171667662,-0.004108404751867226,0.10536818788732687,0.06179109928788601,2011-09-26 13:14:18.624332478,4.350142608
49.025499067100654,8.448413823948277,107.9146245606311,0.027336652811348883,0.0345635426956559,-1.802579592032921,8.604293004504214,122.85115174035985,49.13756048463427,-0.20145348606665336,0.28623417728035183,-2.669017746909744,2.638418985269526,10.559714138523434,3.230029128373222,1.852748394212536,9.727353168864813,-0.07580096533406375,-0.079893146870398,0.07887632519930739,-0.02700125868307921,-0.14234649922319617,-0.021396165864070296,2011-09-26 13:14:18.724384272,4.450194402
49.02584140278633,8.446625588853648,112.69465004196,0.039054061265002146,-0.01844959289525534,6.519906806125391,7.078339478515907,-8.559182218236316,-3.2425290809299536,-0.1858272451841521,0.24388635280809984,-6.002061988291777,2.019242642563605,9.344659118195262,-0.8141537684124049,1.2681532270702545,10.34018359653614,-0.0939697668673793,0.06703828878265143,-0.07449951799331327,-0.10537078571462563,-0.07309587708373497,0.2897930021655376,2011-09-26 13:14:18.834318932,4.560129062
49.026023423166144,8.450047434307036,115.26748010184637,0.032556807719363146,0.04316959519465332,2.4449673792772684,20.7410190204827,-11.510682523381652,3.766234208021272,0.14634846067391075,0.46135384867615736,3.4511846097966465,-0.2711040855806419,9.810842855016345,6.323870474964826,-0.4137108192599588,10.282245015633213,0.0373955570104448,0.07267465002104834,0.24700856838129964,0.038368756416114064,0.24520807404531458,-0.00017392617236088037,2011-09-26 13:14:18.934348003,4.660158133
49.02573136551915,8.447988580372137,114.0070339390027,0.03193509033894981,-0.1096372473768546,2.2461083147754346,2.5470189991677534,-116.08883231548663,10.3434900269178,0.005938883465372677,0.15654454297980688,-12.898524310233377,1.369855309838777,9.723109393415632,2.8981338218826864,-0.31689285261611,11.222866028973648,-0.06126991222075921,-0.4888712153590311,-0.07640618304778277,0.3537371593963497,0.11448479206545945,-0.10115049375316283,2011-09-26 13:14:19.034350226,4.760160356
49.02772807161748,8.446164200320673,105.00893313662587,0.03779110017897316,0.05518917706555514,11.444962709887832,3.45313604416319,-7.681815910798083,42.97510068761163,0.029782912574809514,2.977695444817781,-1.9678003791426641,3.2311714274825993,-4.000057961260316,3.1849656359662806,-0.484211620769207,11.401034469761733,-0.006566590864691432,-0.07113217162253933,0.2265117041225318,0.01217054854717561,0.5655402407222834,-0.036883572200823174,2011-09-26 13:14:19.144393215,4.870203345
49.0258732052878,8.455595782784691,110.51602881429102,0.062224733390204484,0.2953254640591612,1.823319157457942,0.7878946861111169,17.654294249925357,4.529678461090013,-0.09022325605501777,0.3578207480292387,0.9581502317335958,2.3832961122952065,10.537417455663933,-0.24761414449380334,1.2105993805493287,9.955479669260821,0.00556289259790729,-0.14590639680800235,-0.13834341876014133,0.057867765157978666,-0.07107189528310673,-0.18183132149581105,2011-09-26 13:14:19.244622037,4.970432167
49.02940455186685,8.447812759801813,118.40395479069346,0.030518334931142973,0.06791488806001046,2.5451982879412203,8.361054684473352,-6.088805427693532,25.57481450219195,0.49267796508551,0.19290384273175987,-3.901654995137642,-1.2032690883170274,11.63140561084849,2.3789537313638007,1.2836463210531899,10.863763708842065,0.04900552987604626,-0.03611745980438193,0.10196413632953338,0.011431004417599195,-0.030372136665188305,-0.22484995938882044,2011-09-26 13:14:19.344371848,5.070181978
49.02828265264224,8.4428927184664,111.04560772404616,0.02485673897292093,0.07635405975546873,2.5723080526768505,-4.934690303467392,-18.406562303702596,13.632938852253291,-0.10812028614569263,-0.7833965135146815,-3.337137717650321,2.1618797963394836,9.943685350847426,0.5914232950204505,-1.6849790015155248,10.598407776150307,0.00320202667445089,0.4736340028179234,-0.24289383218794777,-0.023227026416622606,-0.026787521438166678,0.0285737911963178,2011-09-26 13:14:19.454390172,5.180200302
49.026187957862554,8.44290213364611,116.00750066427526,0.04836799649543384,0.006789071449887754,5.206761735423762,9.172030645493676,-44.70736404081977,-13.565297510257473,0.12137087736337711,-0.0536206458361218,3.4307062264901504,1.2822884257547738,8.575358263471578,3.669969526527924,-0.0031056274893124236,10.27844159392365,-0.057724215431265796,0.11129263873994003,0.18117477003968074,-0.0019268901073541253,0.1523149165507353,-0.02312275967213378,2011-09-26 13:14:19.554344408,5.280154538
49.028142155046915,8.44829391867983,115.6134130260321,0.015193200704325907,0.09433210963828415,6.129236015549486,2.021901176297887,-19.427199043436485,11.72826041402652,0.13759487084211178,0.35015359370578125,-2.316503567101677,0.23131424545890789,9.339409794342064,5.106150217176008,0.9031217007226517,9.417584667707498,-0.0086273873667264,-0.1339001983292211,0.05013724370962448,0.07030954691043212,0.023238991563128225,0.08065900068345931,2011-09-26 13:14:19.664380055,5.390190185
49.026435317045994,8.447974840627786,119.35794701826738,0.022580985092436504,0.004581633916393734,1.4533366882364323,-5.553682349602454,-10.401069322668707,-4.690739019682562,0.24682064094376807,0.17817110172206319,-0.2163067940349083,1.6239918714857358,10.204821487355861,2.584087655580643,5.225298794311303,11.503272466165384,0.03130450203931066,0.7648080091563302,-0.11931914161918117,0.25852478763449327,-0.019337565648305556,0.26390088672785317,2011-09-26 13:14:19.764408659,5.490218789
49.02762963386689,8.44511241615878,115.22726714401668,0.019247576070424287,-0.2716020255973366,4.526640387217725,34.4774324637779,-19.741351752788976,21.26475202627214,0.006917994822504006,-0.3319116311027509,4.66633629638147,0.7466668669522663,9.95939020909384,0.43444379401521177,0.08495653072668463,8.863200551725775,-0.010321000631475246,-0.031145400803187416,-0.2245945691862505,0.0001592183290924174,-0.17389516775283095,0.5513648636295856,2011-09-26 13:14:19.864422308,5.590232438
49.02526018528432,8.438399283964259,113.75994447685848,-0.031859435362298585,-0.06001636451717549,1.698972672937336,4.713157423794993,-6.727019797905084,26.503048375216988,-0.11406706441919467,-0.16160513124922518,2.4109203815502873,1.2863388248180028,13.497329584718065,0.4703752642024239,-1.8870043771386473,11.435196343326465,-0.017740124364166318,0.567634967610767,0.18131387302487928,0.01690583684923779,0.1889922348034476,0.0040554982665524306,2011-09-26 13:14:19.964430127,5.690240257
49.02732960086812,8.444801611047387,109.23433839073526,0.07534145254273789,0.010854078729095742,5.095494768765384,5.25876468165681,6.455992669922059,23.136847976532493,-2.0983158781158857,0.006155067367854608,-3.713586015619021,1.0685559811001153,8.74453157781542,-1.4790963280879477,10.91074652129663,13.202796820795774,0.15936807900439082,-0.01639383577461559,0.01284976681479913,0.04639305797336444,0.07616036662367598,-0.5472566001740604,2011-09-26 13:14:20.074377307,5.800187437
49.026897138056285,8.43794505743417,107.89653391282027,0.002181418744560508,0.008023246136864946,2.4436876509102192,12.257329790269457,-26.185278074126035,13.68462975771515,0.23096882839036037,-0.119671093701192,-3.8654197406884347,-1.2173818030800567,3.5484310469648754,-1.9462583739456678,1.4640196928010956,9.498004315392931,0.004103071190321101,0.14599799351292764,0.16822937749053907,0.06699898645407237,0.015428061086735348,-0.7658036086654234,2011-09-26 13:14:20.174412791,5.900222921
49.0276444094118,8.447358095627592,109.3247114868932,0.04551562331228075,-0.01334058116091113,3.42002975961421,2.0222194808697225,-21.986156773588768,8.557453625811862,-0.0690300951970331,-0.2104601136450127,1.7423049448396064,0.6726026481067857,8.704356870253946,-0.40465933923712194,3.110137921747789,9.257437434080213,0.11977974216113939,0.01439088605826343,0.055724159006229144,0.049834181745049146,-0.017630457462801376,0.3378210570794088,2011-09-26 13:14:20.274422067,6.000232197
49.029628112285366,8.445865882274592,112.55241848858127,-0.009353121584437726,0.004473537650437013,3.819084645172599,9.37140963864704,26.257990375277174,71.47672830974452,0.08328044441958649,-0.2611947797892691,0.47409651650702267,1.6747886125264888,10.286136929385737,-0.6021928813396173,0.6494281907253319,9.799040497586809,0.18423029149310144,-0.059432749258379,-0.13162187670128472,-0.08269341704629243,0.00760260515996362,-0.18486091922894082,2011-09-26 13:14:20.384560679,6.110370809
49.027626484782495,8.434155297531959,114.20201449367974,0.01575561626753658,-0.03507507331306924,0.2761939648024221,8.332032497342563,-11.240699198728484,44.812602324512135,0.2064269845790329,0.4592478385785186,0.5663889400211446,0.6525596049130327,9.450728697915517,0.5399444094678884,1.4837084767000195,10.277512033654011,0.07042783969886289,0.3213393729437156,0.09426627336714612,-0.06920417059592612,0.020273910534992546,0.052336827998837855,2011-09-26 13:14:20.484587556,6.210397686
49.027639329776626,8.446653360338523,107.9190688678857,0.009235159976927493,0.005949795875122803,2.335154808738909,6.680357277475905,-37.17672498919485,-14.046645433821912,0.3087226661065229,-0.35466333215698537,-5.68621176636342,-1.5750286873308834,9.91424019957107,4.289933743086732,0.5774260457808755,9.915160819801347,0.48534606936223845,0.03849337980971912,0.18267566554064513,0.15359914679873066,-0.085450370364796,0.07288259366179485,2011-09-26 13:14:20.594413518,6.320223648
49.02760891064898,8.453729492683314,112.19167171352477,-0.0033549128289799973,0.04006132014944064,0.17870831753591654,-12.204349353834381,-58.83598526658919,-3.4272756739210024,-0.09427274882806426,-0.3497798075948255,-0.9356888959794267,2.4476548801380753,8.718415131885099,0.32791365911227527,0.41579472970322584,10.013427913564776,0.007691346752692249,-0.004904851167778399,0.11295817717729029,0.3557248147680461,0.013196936494787766,-0.03344233326306763,2011-09-26 13:14:20.694581503,6.420391633
49.027516005990144,8.4400482884132,113.05495141044533,0.048758741921958226,0.0180203175376911,1.725574735824926,-8.04671170577064,-22.75904695850697,20.63462040165797,0.24259956404218636,0.16799955117221035,-5.186847685327158,0.3725203993023114,-0.8439171531804242,-0.5401674848729687,1.8627128161699018,9.967603845479397,-0.06869104218369829,0.7751757573334926,0.3327649310021275,0.21786832682508914,0.04600498983254164,-0.10912232610770206,2011-09-26 13:14:20.794485836,6.520295966
49.02594429162484,8.445312470322738,119.721637582079,0.008101558988054442,-0.008489354108751132,2.6091907915500108,5.203838324257529,17.521001822831117,45.10558083314335,-0.008832685598789886,-0.13220818929270053,0.4622212013521109,1.7315213432630108,10.765081780007366,-14.233986295466442,-0.6016392879470558,11.07263595303722,0.026200918147938845,0.04371204843007185,1.400224532563367,0.10404143422228802,0.07568988409805412,0.25756583325062293,2011-09-26 13:14:20.904441940,6.630252070
49.027807039546744,8.437784279715993,113.78427560708393,0.02999312857349424,0.07408984169987558,-2.3385919086089686,4.456559175030929,-9.805698719184793,-5.106851449023875,0.2628944538573257,-0.4794384075691518,2.5120695383108087,0.786069147737041,0.5121867402008764,2.7110687433131586,7.32025364120705,13.535837766623612,-0.037230006900088396,0.11198663235369626,0.6943432541161552,-0.04086246584613187,-0.20892429208483318,-0.0017052144841873708,2011-09-26 13:14:21.004450074,6.730260204
49.027272568685,8.439942843798754,117.75873992516622,-0.051022663048388345,0.06556849357057405,-3.555844573382584,-3.201290415132145,-21.979875437622663,30.05969223498242,-0.005869935988010402,-0.11682159059556019,1.1976501541590676,11.984472610609407,8.514996648907518,4.650523299698103,1.6078083469201816,9.877162337448464,0.02437370569020825,-0.19484359922027053,-1.1012753428461857,-0.05723972318420824,-0.021856546105334884,-0.2842233525802809,2011-09-26 13:14:21.104473721,6.830283851
49.027049969026514,8.452011454509602,110.06187869118823,0.042450283813521054,-0.005200545711973273,-3.170462052462412,7.1626821841876405,-8.739957121011267,7.919260890818483,-2.1676647478765947,-0.31764052584395797,-3.745899206811187,0.7256029103471044,10.397180964818531,2.3463822782652284,1.6331435138141732,8.547943138406275,-0.04087033920943445,0.09822175916717331,0.04625168423337843,-0.051643742007700916,0.20360201399535513,0.1389090249307232,2011-09-26 13:14:21.214640425,6.940450555
49.02762103070606,8.446513437951914,135.74165659639584,0.03683268586086606,0.02167509025344943,1.0456317745944026,1.4439242557017882,7.808358125660867,28.534535810983662,-0.10123141414418878,0.20765953587623656,-2.445576043857898,0.42791596206253474,8.918047180390223,2.9186013432202036,-0.2786215431059945,9.757532993928434,0.005453933289537815,0.10075386929511192,-0.025715698156199347,0.0016716637414702425,-0.04889074567201301,0.37410654051957065,2011-09-26 13:14:21.314464029,7.040274159
49.02726752189191,8.441389200143734,116.54022484538199,0.03122620255996193,0.06356626781990306,2.666226114962009,9.431475607154159,-25.076797650911416,77.0492946585159,-0.16437799088671856,-0.6389192315971503,-7.4692074743810615,-0.4385562854893311,9.698348670407889,-0.794816336628594,0.22086424352950462,10.869743989825523,0.02562829409411853,-0.11578391140561256,-0.20455080008273696,-0.004942442914796638,-0.09015701642752649,0.25313032808359903,2011-09-26 13:14:21.414541573,7.140351703
49.0283144318368,8.446888218178266,142.50537802307292,0.05492569550112013,-0.228378647620362,2.324808257393692,60.105511118348865,-31.27646790811864,101.3313043949994,0.40401598938335403,-0.5715687971157491,0.667483228267525,-0.9516035559626502,8.068074076736046,3.202848659443311,0.6907438639522876,9.059935403960873,-0.05173384614223632,-0.0639260975222435,-0.03242816972385862,0.0029465131030446644,-0.12760771809350063,0.3253428143395256,2011-09-26 13:14:21.524452628,7.250262758
49.02610817565153,8.438524953515138,113.40654999837123,0.04123310345619774,-0.00604113841742406,3.3213146344659563,56.35931119566848,8.887533606476762,210.8714889213516,-0.330107884942584,0.19025794356034822,-3.2184061064849647,3.1433067367361645,4.331712694719806,0.6885871463909575,8.106122461076463,18.241190485770424,0.23804357817387475,-0.1998862164160109,-0.32196331122251237,-0.006292464531483489,-0.06866606540487635,0.13371781399289245,2011-09-26 13:14:21.624461477,7.350271607
49.02532266812738,8.441495727699042,114.59730181086869,0.04351390200656735,0.0033076723682414367,1.4013207819495521,58.479912482636195,-13.809326037171582,-69.43949224316809,-0.12778558784395447,-0.08906443307121044,-0.6674412397526099,0.4761619530602027,8.964045949207469,-1.7387673542678785,2.0744252823855147,7.658391167892008,-0.11271329282288259,0.011500059963547693,-0.409796844929677,-0.023970660336599676,0.09504667874381861,0.04666880915446903,2011-09-26 13:14:21.724634502,7.450444632
49.02353104402363,8.43677003081989,115.95725139415943,0.024548074799808785,0.03650621999795364,3.3360458497945147,-30.628262754995504,-6.612952175211883,-16.559210500938086,-0.10197741913771485,0.23497779892411885,4.927192156643158,-0.9083189084693017,9.970202269093978,2.502362079800104,0.3880429600694907,7.688839831802561,-0.06243543428255606,-0.27520112503520866,0.06556876216074936,0.061638371104935995,-0.04155903939705892,-0.6332969257946286,2011-09-26 13:14:21.834476986,7.560287116
49.027802149572885,8.442869127357454,115.95496711693241,0.06437140658333951,-0.024412306719571727,8.762580107926189,-20.188687528777276,-13.68176678317222,28.798654158688255,0.018379783852043752,0.13484983184727856,0.3349247196712365,1.8083507772795167,10.500388496906265,6.652673370676721,1.112246290221643,9.629915164847107,0.05227514759228964,-0.014068273423132154,-2.1811770377500643,0.24433966712722832,0.09937104774877037,-0.502653399939049,2011-09-26 13:14:21.934507049,7.660317179
49.02537264763088,8.44262194630813,101.95470712651966,0.3047463513344293,-0.03694029874091315,2.0247753878262067,3.589149113211139,-15.36483398786346,20.44872715713025,-0.23737832156641003,-0.12683406599971925,4.682072469965571,-0.4659957137225832,9.479051170255348,-0.678574192086745,-0.32232696685877177,8.455360737081332,-0.03960200407040558,0.05217353667057826,-0.10205010834496527,-0.19358850017782925,-0.11580171945196911,-0.013490373089337503,2011-09-26 13:14:22.044511125,7.770321255
49.026845969169784,8.447655335078311,111.5466130900006,-0.0005814711378560461,0.08602389599345087,1.4087152332823691,5.347730117667956,-11.603049547924943,199.62848574381056,0.1891953160854567,-0.5836947290822049,1.0499667332379423,5.438364921171429,8.57134037667058,2.4942268983063145,3.56219505830777,9.018813805056027,0.10867573890047101,-0.023972161835833037,0.08372629751180057,0.003866448242384553,0.11522460695391101,-0.1742105080713307,2011-09-26 13:14:22.144502975,7.870313105
49.02581849081103,8.456777636374746,115.40312973035824,0.03733933553756397,0.004422898141043737,4.087345176659811,0.11910960277942984,-28.615763246542265,15.415071328108347,-0.27896712613596314,0.2629276760666959,-10.463871062759523,1.6895612540766756,11.003458161665556,-1.5444278210814935,1.1755473382662718,9.476513407685834,0.03879386348349784,0.06265077832473558,0.14423131711996465,0.04062504553616668,-0.20175186596935682,0.13913003798953646,2011-09-26 13:14:22.244646854,7.970456984
49.027262344095305,8.439406295789178,118.06924519554055,0.005384375043760246,0.03446889066539491,2.1364061015464952,-1.1923430890950124,-141.09097766561587,14.987789409818578,-0.030245994101384843,0.30883412357322293,1.3777456900402376,0.7519818890752192,12.594598712591456,6.348525329798846,-0.27110514906718725,9.696844315394893,0.07730648007236007,-0.02123604544195999,0.9139793462995742,0.07098492501764539,0.015413466718819132,-0.1818131526459202,2011-09-26 13:14:22.354508893,8.080319023
49.026972319092856,8.437161144713897,111.74165991677859,0.03837450672707596,-0.0012446830294961103,3.8869880793054596,53.642061244724665,-19.992820800928676,20.403796162581436,0.12239664090630767,-0.0813953853295879,0.010906084447938502,0.26324617792285676,20.21309561506169,0.38337881479989344,0.31939633326614003,10.108158357428705,0.10444258770189103,-0.031727645059941495,0.09039149116142231,-0.00544951162256074,-0.34654435251012267,0.20348055697255102,2011-09-26 13:14:22.454476298,8.180286428
49.028251217737264,8.446781434048283,116.14109259875194,0.017265816742318082,0.030286359680603378,2.1902983005400074,-7.25703655997928,-47.08256657454247,13.614227049194518,0.24490342750787136,-0.07341847975188737,-0.5922732467672494,-0.25585331876340267,9.956388817563816,1.1578236767184142,-0.44144880715825296,10.378970966763017,0.14643235977482133,-0.05402877222666086,0.29623684779591447,0.07222374306941581,0.03645993614629417,-0.15191904733468242,2011-09-26 13:14:22.564511117,8.290321247
49.028352551819104,8.496021563959134,112.5717399930047,0.022839164873293585,0.016776395237687307,1.903732407236038,2.214118595240413,-24.865942607296233,5.069156414273603,-0.037242481202550096,-0.13526802813733846,-0.05124550832780647,-1.1476537737614296,11.150461913494713,0.12998448269212737,2.3807873563664934,9.305902941251123,0.02095426472851583,-0.006560444691514001,0.025420270990760437,0.0033177707146672397,-0.147459067746969,-0.23324698677278688,2011-09-26 13:14:22.664519916,8.390330046
49.02816277249218,8.4384420023854,111.90694504658396,0.04114426090552,-0.012472214138614204,2.821010885866928,0.802199904528206,-10.470555126348483,9.159458798832187,0.11593449250804506,0.13673923224708173,3.070259839931287,1.3132016022250381,7.804503975697035,-2.4163264067480754,-0.42054753756115665,9.706278461898727,0.3811837585843427,0.20406649979103372,-0.17578816598442834,-0.020279387045695492,0.10829357053067716,0.08324157360070798,2011-09-26 13:14:22.764566793,8.490376923
49.02644465128526,8.443414159250022,98.59821804059254,0.07078530642408881,-0.006327685451246607,-9.145567851651448,-0.5779527271329843,-6.543588769374188,8.444595372250351,0.17236435921949483,1.2695281242777958,-0.15676602505890758,1.4300015743404126,8.896548486696148,-0.9505187549061547,0.232816231257029,10.245610751246272,0.028745617204116374,0.051764166308162066,-0.16800185898251288,0.029016633154063082,-0.05686944958934683,0.2272889109878951,2011-09-26 13:14:22.864546171,8.590356301
49.026927653976564,8.442807425373896,118.36195150626251,0.1746290818026927,0.07883758876812422,2.0462928330763424,-2.382955008644447,5.816931074493057,15.729337690759602,0.4756864207626274,-0.39469409218189966,0.3229143889821361,0.45971142842557444,10.930569060683565,1.7826328377384493,0.5576582014228744,11.164372007635077,-0.045451465636700904,0.07490473133084438,0.39824890033195504,-0.03643007966279972,0.17177039827979387,-0.5684064831915208,2011-09-26 13:14:22.974524802,8.700334932
49.027673666114566,8.443763937592303,99.67819193268662,0.02994119562975274,-0.12481399451282559,1.5095885990649758,-0.9506598261292396,6.979127762435697,37.146787620297815,-0.10284808745103675,-0.47718661078836827,-0.05000712115517337,-1.0212339020873837,9.399522682891893,-29.806809585930854,0.6113710883401172,10.640891176344816,0.031359190470816464,0.3677306251708773,0.12396461477769224,0.04438357276474016,-0.2984727919127413,-0.058551727367957995,2011-09-26 13:14:23.074546093,8.800356223
49.027284963083055,8.441975759529246,115.70749453207877,0.023818422551323427,0.054456882847790336,8.364657129127167,7.570516625490066,-21.35153829345699,21.018922396142806,0.21384800882201518,0.5506624280418891,2.5747102671235527,0.4885652883879603,10.763634744399392,-1.9187852820492477,1.6233386391895839,16.35150466817795,-0.02464176972065501,0.16184944253529002,-0.21240098607794222,0.07297321955748538,-0.035408002631429264,0.05834014136566809,2011-09-26 13:14:23.174585645,8.900395775
49.02658512758886,8.444452866250117,121.2560904437883,0.06406207530009153,0.07779463633968874,0.2709111690606183,7.245306599314784,-25.789514663750218,14.293100077376835,0.30704446525827905,-0.07020822628856449,-2.9792388043463376,0.17490551625323264,10.652124213857572,-3.1741837631611585,-0.39870667733229637,9.24488153974178,0.0489038700409067,0.007779365082358547,-0.17349048486096966,0.021568378446789306,0.11620198107450715,0.3316283477743018,2011-09-26 13:14:23.284715399,9.010525529
49.02613289846404,8.44311981978573,111.88033529958653,0.06854842992676684,0.046378664630599586,3.1435464856550053,9.542632936513282,-15.604101756220993,4.233120539784753,0.037470893987685286,0.42758076448029725,1.4704600778060364,0.21518707859859448,10.644605530768967,-29.243968047110723,-1.0289413894073738,10.055755366720291,0.051991562441936964,-0.013881239931634235,0.0036680680436235007,-0.020854395701539852,-0.11811361668529605,1.1145014806850515,2011-09-26 13:14:23.384621419,9.110431549
49.02587647367287,8.440908423341313,110.42197903693368,0.012000804953745232,-0.0087940624866388,3.758914352022406,46.12539920335157,-25.75302607287432,32.35085563840166,1.9384541277588268,-0.02261846051137701,0.6360400123404812,-1.1066488137238344,9.79612886748181,0.3682511327822816,-1.2288141495184441,8.117801788057255,-0.02242205029254257,-0.021771210046303332,-0.3257242516546937,-0.0727706212234123,-0.04339181448524554,-0.06377952989774134,2011-09-26 13:14:23.494536374,9.220346504
49.02778071098362,8.430007309758677,118.27124964976944,0.042760477372989505,0.008176819177386522,2.868746267033369,12.420681564918265,-74.64984305488701,26.976147370762757,0.23099335191833642,-2.5410612751995827,-2.7999728121396235,-5.386991806436026,7.600022446999301,-7.127243444672826,0.21644295479189216,9.511079793775254,-0.03294752926213711,0.0962334403529131,-0.05172100116199762,-0.055353657089513716,-0.005326319897871948,0.2080651925823565,2011-09-26 13:14:23.594598408,9.320408538
49.02863698633697,8.463470689447965,121.48038597624945,0.13462419442372292,0.006081935693056054,6.452717395163091,-0.4032676715980128,16.83907964444331,104.62100547976914,0.46620350574100644,0.15299865364126114,12.786943438085714,0.6747538999656159,11.118128542855636,4.335593282597498,-0.2241955442715282,11.735755819049194,0.019757521958657424,-0.014542293175052564,0.1635076552577567,0.007806089001479203,-0.1797680415172682,-0.19999343282176368,2011-09-26 13:14:23.694712487,9.420522617
49.02717702128946,8.449824019108393,109.91645619113955,0.03879718184083438,0.07708670413603182,2.3388618617711283,1.356799355545526,-69.56799868643583,30.415244035992394,1.5662978692446097,-0.020165600413509482,-2.5833746284205272,0.062339017450969036,11.167362634062467,0.37497792382984535,1.5716325856354798,4.059509880424365,-0.009106061613183785,0.05395873363957901,-0.10014745476711667,-0.008181322479521429,-0.04098968639096811,0.3875480577618719,2011-09-26 13:14:23.804638678,9.530448808
49.02780750421205,8.44747632646451,109.32509193080344,0.08240084824730881,-0.09031757249326465,9.49062329752946,1.6291138009858055,-22.76482259673822,12.004840459626548,0.23826853840026568,-0.3934877377588923,-0.13744077252045625,-0.2245797595207959,8.442210337335947,4.038573506019253,0.3568645388108166,10.64613700872584,-0.025120157355150045,-0.4483433688246555,0.05040995822439419,-0.018132869836422476,0.01786482136564322,0.13295941037386408,2011-09-26 13:14:23.904591433,9.630401563
49.02543818534489,8.456603936300429,113.23151018539394,0.02606750942179975,0.21482033833176234,2.749862363190039,0.5534510975149707,-20.182838349473503,-97.8944544525588,-0.049795321799738085,0.010671176085860105,0.7341927412763851,1.4893475355360715,8.584433414510576,3.8874396162519496,14.436832970110142,9.381289989363601,-0.07204144883473865,-0.15490992405663298,0.16416588018352476,0.0340272378119535,0.04859923266063064,-0.11490725719138623,2011-09-26 13:14:24.004572444,9.730382574
49.02726117809113,8.41855612726875,117.04506315218404,-0.012479484945799715,-0.05304076731676235,5.252491099576753,28.66826528544518,-24.9874596578615,21.819475660793568,0.09405803244232801,-0.2765111446967835,4.139136496143991,-5.756469034680993,8.707019090046007,-15.251201572419967,-0.48805415836166277,8.840193448485667,-0.19883346221979603,-0.32479974581913357,-1.4660571105670446,0.23607018404317678,0.11086083440719748,0.1601729561268011,2011-09-26 13:14:24.114528485,9.840338615
49.02586937603361,8.44427898357632,110.86611350009726,-0.0030833248832411245,0.06450958562755515,1.8734702508571677,2.8228427875930286,-2.5604973332445216,20.221978506955523,-0.20110892525239504,0.14002633142674706,-1.0130347212116497,0.27249617550630845,10.887428221157615,-5.85997511248188,-0.41699391895224647,10.838844666088894,-0.05748678991786308,-0.06573430880331192,-0.437156431594064,-0.04281811107213903,-0.0043724930388234036,0.24074153515551083,2011-09-26 13:14:24.214680134,9.940490264
49.0295348192544,8.450961696481151,112.14402457971771,0.026693648790507077,0.10307041935602596,2.3302631101143314,8.789566539884706,-19.152128770551982,10.526685465552603,-0.3121540254599855,-0.3341226562950403,0.27594740490426817,2.88964094673013,10.4219338838864,0.8690775037459896,0.9613015687727766,9.8399579948286,0.049437332706366965,0.11325555358799003,0.16521524217653596,-0.02470261311503187,0.09746583627506752,0.11717083721273581,2011-09-26 13:14:24.314593468,10.040403598
49.035371001346604,8.44681971939038,111.69858283927766,0.023886094441296076,0.0648277335913638,3.1614738059475145,3.1916213576185974,-9.552929142338238,30.81985816583807,-0.9741243123603357,0.33552033597239134,1.6409993355275538,3.4858700950841484,8.266521545638918,4.67268467290408,0.12413991348237507,9.74264638838883,0.05913772619718227,-0.009836844011746861,-0.14772124476599766,-0.01164806127677417,-0.04206766385717811,-0.2835763228121889,2011-09-26 13:14:24.424626367,10.150436497
49.028708677402136,8.450035003532232,117.5183862335797,0.04131357630640148,-0.039845237301086606,1.8335244268220594,16.43059519730202,-32.99905185379658,11.692332275624763,0.13664495191566634,0.14256090946311287,-1.0540374434549415,2.1111294119417066,7.899196206920771,1.5121121565181583,0.9296487418511039,6.314380787645696,0.06505290786172857,0.036135193005162644,0.1629336741805734,-0.0759801471283752,0.32250459353208044,0.05595170963904643,2011-09-26 13:14:24.524596312,10.250406442
49.02588060866679,8.445381446145912,114.8027664820745,-0.1262621563766104,0.011183761399842857,3.0767611162383215,11.031942252544116,-27.06653055091345,14.999000925624175,0.10194141036797237,-0.04326106149604725,-0.7193326275924941,1.6191252175257502,13.302935245128534,0.310411172095163,-1.452820704877338,9.0553456279653,-0.11656797119295355,0.172466882073683,1.5230652806726268,0.03701334041411229,-0.03964427047940393,-0.1523660902230519,2011-09-26 13:14:24.634611077,10.360421207
49.02795127753678,8.380934219210669,111.80947871601761,0.03108607670962657,-0.0188706448722367,3.460822430939412,11.631824524538818,-29.7399488060118,13.14507841148956,1.032484528293469,0.345460493256115,-10.858437604587529,-0.23641493456252938,11.917373352783873,14.247964162471714,-0.11748382276394218,10.357906393540857,-0.022082240909613398,0.07094469544647104,0.18676126275673488,0.05034912831706166,-0.08111363646917627,0.25952709225450116,2011-09-26 13:14:24.734809582,10.460619712
49.02368595330248,8.441443886501238,111.63061330456514,0.026063745843060104,0.18833650309000738,2.908281709037566,-4.614230877361667,-50.31631576350971,-8.138634517102787,-0.03924278412446994,1.9072841484915108,3.0557523632390167,2.004179835739365,3.303482576990139,-6.303633228520867,-0.5967253071134186,10.525101791069797,-0.07122478460208934,-0.5289864418885366,0.023683361177856587,-0.23668682058656543,0.1941985482642945,-0.014057848726865396,2011-09-26 13:14:24.834608356,10.560418486
49.02799136776448,8.448474316664711,122.85051729713265,0.0029911765258924562,-0.17552155492621063,11.876541706094683,9.8460837209783,-30.55244419778766,23.53633749758398,0.14927664381254774,0.13946328024979096,-4.269156511244915,-0.08751222820553772,10.521636390798244,1.253585765578943,0.30527453229006973,9.200194316065902,-0.008960934230846073,0.0061451033266277065,0.06507574941905075,0.015725907025220243,-0.5737631875952345,-0.6176259400846541,2011-09-26 13:14:24.944610176,10.670420306
49.02649907846565,8.442031784771547,125.96866181207145,-0.03172653491673291,0.02951352895901871,4.3079187174017015,24.892314199525103,-131.4548351865872,29.19856164833773,-0.2289406569119269,-0.1595778230387542,-2.771550585304961,0.7651396713540932,10.223988910855518,2.7427773133120295,0.6188025142399628,10.571273005968854,0.012272329771337276,-0.05201233874151624,-0.09115144947817219,-0.004802361157055476,-0.23667733820674425,-0.15441540279996455,2011-09-26 13:14:25.044621142,10.770431272
49.03065063647639,8.419807618511227,116.89810003224808,0.030937757130553148,0.010719123632206048,3.070668851901383,-1.9674141707165589,-18.955821737661335,30.7416309308025,0.11484129518810943,0.021399030789995013,1.4985984305176299,-0.5836569509549745,9.201363003755755,4.674267904973721,-2.108915029820352,11.026385014588744,-0.07792369630500298,-0.6115725344645566,0.041347832760897096,-0.003556383416909078,-0.19736596363594439,0.3088975870214208,2011-09-26 13:14:25.144635150,10.870445280
49.024245498208344,8.444785581360772,115.56207712762406,0.0361199516962339,0.06557090409554484,14.713388426096326,-1.9041570459362487,-8.439594732767258,31.007792485944787,1.3341131523963485,0.0963762587777515,-16.995563930062385,0.2950598530688315,7.852529658469969,-0.5640109936180244,1.6222903438815994,12.015678752443124,-0.060101512274534905,0.20218854360223712,-0.10564070487770844,0.25223918920447946,0.47802356111901423,-0.04353506621833966,2011-09-26 13:14:25.254911060,10.980721190
49.02571380271126,8.451012121041188,112.6385737235293,0.01941640100875208,0.005012922728549363,2.4417707965719435,6.51301441127796,-3.103650234839323,31.42057199469175,0.4244405436540536,0.2816633382933576,-3.0718485141857155,-0.8453734415488071,11.099240695960674,2.3729683346253196,0.9091102869396338,10.322773766606831,-0.03615954946841181,0.010429182376609787,0.31610937721843263,0.037673550035761706,0.13351530820164131,-0.017408247862767054,2011-09-26 13:14:25.354668882,11.080479012
49.02614551939379,8.441574080480166,115.89828699242658,0.022828580511977652,-0.07784792178165993,3.1169227369911625,1.5576959167613844,27.179818424107154,2.468171909658654,-0.2810544190852312,-0.28102885514800474,3.976354485853978,-0.6157682927369245,6.196616828327774,-4.784526683841718,-1.266192590700096,13.393745938485111,-0.038836194549262064,0.06237917620374974,0.2783211138088482,-0.09012044628568147,0.10082284648292801,-0.22359376091526387,2011-09-26 13:14:25.454637153,11.180447283
49.025191672287114,8.444201513261165,115.80733759772207,0.0147505349132954,0.04914706860939367,1.8363783049841405,15.147737423902923,-28.168304467816384,30.61616197066017,0.18529937765857396,0.4958848814082647,2.294284674588922,-5.67382704048458,9.439688011939918,-0.3081738606307428,-0.41212470297206144,13.316785473084327,0.019943929969280176,0.46075400167634173,0.21629873268983302,0.13582691391483329,0.14929128645655243,0.11794177637163872,2011-09-26 13:14:25.564662963,11.290473093
49.02734883019516,8.402133000689304,117.53338954012803,-0.2033404880612351,0.018888266790970838,-3.533513565564924,7.223498396630726,8.158729587827152,9.642479671655682,0.40433293008364507,-1.323622831523676,-0.5472806733823967,1.6060131026918312,11.397693660442107,2.9627373109616744,1.049412115998769,9.373746224120874,-0.15695161580754974,-0.0060237040410849145,0.547627263509541,0.024216700136531766,-0.07252695403097545,-0.4032250596119499,2011-09-26 13:14:25.664661392,11.390471522
49.027632265507776,8.444044033483243,114.90413637045637,0.058560599232741345,0.02124585970709319,3.779532992437278,2.375056326372559,-18.64738144040458,19.810596371781386,-0.0383660583565357,-0.13985286784888934,17.48625997950457,2.8124460611607223,7.705335981648631,-2.1927765320560417,-0.6979996301569413,12.100256462173247,0.03170919764665967,0.14461289002303607,0.4598351350106409,0.009475346065120144,0.10090286283365991,-0.007187353117975912,2011-09-26 13:14:25.764691671,11.490501801
49.025871763139115,8.43948110705336,115.778781114213,-0.06376846586013096,0.27627408378730367,0.47989727005358285,5.947797995585827,-23.47397142471739,-6.503761687130979,-2.1381961165240684,-0.4192789633530051,-6.374592741693139,0.5843538952735907,10.10454811321134,4.460371551161121,-2.2132182496453576,9.020764292269522,-0.051937731016849946,0.08509694237068666,0.05946678105825519,-0.031248162388745077,-0.07116108574055123,0.8121070303806053,2011-09-26 13:14:25.874672798,11.600482928
49.02690117328468,8.443126594294604,108.48294261421043,0.020422840462064447,0.0013814571681651702,2.860862540046298,8.94351757462169,14.059101016337374,34.386399212671115,1.8184519603802975,-0.5278430272072485,2.6723578524208174,0.30527318901150646,9.193945973557522,-12.216969740245139,0.011249443237722173,9.022744888563336,0.06015346769108963,-0.10303615617687494,0.019722066324498747,-0.023738773228854503,0.028823989682601265,-0.12567284986399602,2011-09-26 13:14:25.974679901,11.700490031
49.030643726439465,8.445286182421883,113.15754489367593,0.01788553896944531,0.004491545133074194,3.4228923457430356,2.085642666354442,-22.703901860202777,-23.329481643543755,0.5376684234824276,-0.3246057800462175,-2.4298005980456825,-1.8785781552272889,9.454854635913806,4.9088537603631766,-0.3917306499723064,10.779874454092898,0.0722999524847199,0.15650720236376492,0.02209714851472752,0.09197960431092984,0.23876066717832714,0.2115645098812243,2011-09-26 13:14:26.074709422,11.800519552
49.028164405623464,8.440663041923061,115.87523918889782,0.035788326018776524,-0.023403189958157093,4.223945986909234,6.856150280959525,-12.099475355815112,24.03653701822902,0.36281626975103365,0.027809448000275683,3.3780954484266656,0.15973843467431398,10.490546656777278,-1.1327134437137218,0.7307335907578967,9.97506912682094,0.06228973473207452,-0.21428134172967891,-0.19123577663555735,-0.0416190963800769,0.13591645902997485,0.03400911952329516,2011-09-26 13:14:26.184709829,11.910519959
49.02642407947123,8.441839913080054,118.2656034278658,0.02263567626721367,-0.2538768964356411,2.790789917042655,8.088462030412728,-25.529015669042224,12.741031492957102,0.3657262041018105,-0.40077631077075115,-12.308437659322017,0.9918129309405199,11.295205858911105,3.7983561735673277,0.5262563352057713,9.909117870621678,-0.0026848888717184542,-0.04400495489378622,0.05006508719678612,-0.006626858578489455,0.74996421781324,-0.3444815158422492,2011-09-26 13:14:26.284888284,12.010698414
49.02794014579556,8.450386391759007,109.63135208291135,-0.009653218804830006,0.009780863135387997,-4.3745333928828085,5.421714129964941,-23.270797499180873,-0.6294356731783193,0.06476311973597984,0.5288083524626409,1.6691707432429856,-0.18508560538434554,9.920052205577806,2.39737722327786,-0.4697723958316806,10.652908149926315,-0.0409314322459379,-0.047589201201218775,0.1138776899853795,-0.050535500235718366,-0.11939456634930831,-0.27147451596820205,2011-09-26 13:14:26.384842970,12.110653100
49.019821034656445,8.441560548672028,116.26570909734626,0.04084850054824334,-0.002916338511006455,3.4603016394653032,4.385883902248436,-16.58889341853183,19.078702637452594,-0.146430639649259,-0.8437179077890431,1.5830953234414364,0.417595197964459,10.957278980615103,-3.4020923523215636,-1.6304018974469672,9.865456528544685,-0.05308983090898149,0.05547086754684885,0.22004953935110352,-0.014613711902619224,-0.09268836974905709,-0.014602875351622479,2011-09-26 13:14:26.494681878,12.220492008
49.027296671315135,8.448164246070974,107.74508665269319,0.03323600547089087,0.046852196831176876,1.8876038142887188,13.1158101216209,6.464227450631318,14.508590707719568,-0.1434458443393786,-0.07771552555662156,2.225260680678681,1.9381280013561053,17.335750935576243,-1.3895367142712707,0.8964956943807451,11.870685275095557,0.1054119114330751,-0.5315506432709627,0.8695355669260687,0.07775749612726095,0.1724682703013042,0.07229765439398592,2011-09-26 13:14:26.594702098,12.320512228
49.02765493089991,8.441899207550186,115.25092419645343,0.02745867250654481,-0.006505896064452135,2.3856283342168996,-1.7675950006415135,-21.50244909324658,-0.5076529104201022,0.3764334508581532,-0.32151330165812614,0.7159140987519867,0.40207090267484225,9.133592728484672,2.1711194314909874,0.18316485775185368,9.015945074883977,-0.01542120741204169,-0.42747299800779043,0.31437906357083717,-0.02615552371818759,0.10108497928774104,-0.29451054141957017,2011-09-26 13:14:26.694796602,12.420606732
49.0274317980148,8.453554628216189,117.92526490217955,-0.08666045341546602,-0.06335995372905048,0.8964936556850018,43.19737160361388,-16.63073071751508,26.155616400088874,0.3861284929266109,-0.35305153179593035,-0.2825374637214295,1.0891590001897886,5.599733973609724,6.922161131428378,-1.2627177626393975,11.735754388385299,-0.1037238603256097,-0.025928047097829483,-0.18951029510090023,0.02108998170898984,-0.14522716443819408,0.09929618701743283,2011-09-26 13:14:26.804687400,12.530497530
