lat,lon,alt,roll,pitch,yaw,vn,ve,vf,vl,vu,ax,ay,az,af,al,au,wx,wy,wz,wf,wl,wu,timestamp,rel_time
49.011617361287634,8.400070948814385,99.41874676778588,0.03821256115374557,0.03752732389262893,1.2892801970735541,0.42046620840097126,-2.0328216768759044,7.072602353413162,-0.39971966071884873,0.03528740351834407,0.6980927136633313,0.7605556529071902,12.55957726199118,-0.318330188113279,0.2607978003358536,10.939170114636624,-0.012545204615274913,0.045490293948767496,-0.06731956744271991,0.05411561338587874,-0.15979224502586403,0.10529479788192943,2011-09-29 13:54:59.995847336,0.000000000
49.008491495137605,8.400090361549253,118.27068414915732,-0.00856314505828154,-0.005663078931284506,2.7907792683504526,2.463384210741782,-1.5687430725631242,7.471322612112013,0.49019000000410434,-0.8850436141620256,-3.142052036991204,4.9242135224564105,10.143327940138601,-6.987224808437205,0.6753618666915502,9.885252012085834,0.017400647961074513,0.23301418822536443,0.0658474996724922,-0.1803523376344632,-0.0012488488702293611,-0.55118394637256,2011-09-29 13:55:00.105811344,0.109964008
49.009203525229246,8.38466233241235,110.66942692425924,-0.03887055406362934,0.03748627762655846,2.624849404846937,2.320443199672995,-4.164054877947093,22.070900428321522,-0.008198354277505237,0.13329187290062583,0.16232787581414398,0.9095633429473784,10.175404580659915,-0.6729882927468644,-0.00598923672729848,9.125970640350586,-0.003230445879581762,0.2874165465393313,0.09715137536809824,-0.006672484304547486,-0.0136339253988428,0.08343690503583263,2011-09-29 13:55:00.205830857,0.209983521
49.00913380612429,8.397343426865897,114.9637712168828,0.07836819552179003,-0.11267241846349253,3.0049453172524254,-0.16140778286019014,2.412889641844018,1.1785479800686887,-0.5043877344795371,-0.07006557736191164,-15.852442587717247,-0.35212483674674844,9.468902498612913,1.203898937968098,-0.11191236452903928,9.481338896777311,-0.03888412301088409,0.1830261285033398,0.10533429651283721,-0.06181056463889302,0.006053256829850288,-0.016775551495349015,2011-09-29 13:55:00.306034581,0.310187245
49.009332036670806,8.40100097738582,131.79285117817702,0.02142248061348989,0.04361002215910973,2.5411754983749546,1.3571123724933085,2.1934409076881995,-38.32300740249869,-2.0409969005860313,0.12491528013880542,-0.8466379432285474,0.6551046186242592,10.726627773971078,-0.42952575237207286,-2.6316504478214964,9.153841954675602,0.01104610485565104,-0.011908784671665094,-0.02583194535786252,0.015102260634385826,0.09402277541204085,-0.11779503714825215,2011-09-29 13:55:00.415813621,0.419966285
49.01082299296796,8.401955191676606,141.33917142414097,-0.017803227221147327,-0.010300431783635343,2.516328328922444,0.6255873044178341,-0.09602072663358563,-3.969329757824706,3.619468239829906,0.08782348727144428,0.36008804817011386,4.193579011540132,9.195540407256134,-1.6954206671917542,3.2712713691390185,10.861632934194906,-0.029924231477013764,0.010145242503402294,0.06103425703458849,0.060300982031,0.0242573530490353,-0.13261938028286863,2011-09-29 13:55:00.515769138,0.519921802
49.00798320384664,8.396213878390213,115.01764266527408,0.009579605585908934,0.05509616985929659,1.4928324296464999,2.703445567020412,3.488463637588399,-3.170175524755864,1.7106358961332855,-0.1610973515960783,-1.008511940122187,0.6014006903657152,9.571210924279029,-2.543072380788796,-0.19845558840926503,9.078799161895201,0.016930259017728648,-0.05150530885757272,-0.12629298827441995,0.035260984144451425,0.01998496326662486,-0.11189281166522431,2011-09-29 13:55:00.615725458,0.619878122
49.00996527525884,8.397959886124918,111.28167919597409,-0.13888166070872898,0.02048477606914737,2.7757240196390174,2.739624484873625,-6.713476789613366,-0.703952909270554,-3.834997172491513,-0.14044446226351787,0.8802395361131707,-0.04638386266660316,10.152133928114571,0.20891544782570864,0.4801789033578454,10.055531896244485,-0.0076107399239747926,-0.045657111216099354,-0.07208909706209282,-0.07409218327880963,-0.013402481180321443,0.058945178329950575,2011-09-29 13:55:00.725727428,0.729880092
49.0087166888564,8.394472642886537,114.66927166674773,0.008016398512645958,-0.009604286843047982,2.7203173437052723,2.1363840960891913,-29.455284945476595,-5.433345547847074,-0.016048957072547963,0.15686242128435934,0.2061086214071728,-0.11990577984947207,9.29369723263065,-0.32687916426962005,-0.24285017115198113,8.577340912093451,0.002470155877958558,0.007223134958927053,-0.10332033115100167,0.02097247232391896,0.01655160211977883,0.009420692174388137,2011-09-29 13:55:00.825902798,0.830055462
49.009987482724725,8.399608521162866,115.5664734651469,-0.00544699321175832,0.07349921253479293,2.6696742037119674,0.33842350789863485,2.211791016110047,-2.6804791416573224,-0.08948295375911079,-0.006051573257703512,-1.4037327594543774,0.07539882205372062,9.368241647374067,-4.42373882571077,-0.5353474239130316,6.166793676006505,-0.02627446684296547,-0.01883665424753047,0.19808348648617333,0.05572964347008334,-0.021044739972895805,0.1586429745532887,2011-09-29 13:55:00.935691380,0.939844044
49.008977324601084,8.415893370755475,113.58424525559542,0.03544287969171191,0.008269453115642988,2.6508183432856036,-4.731485955941386,2.0358689482515717,3.0291657046243023,0.23558465492103817,-0.25961649348830834,1.0325386508053611,0.6658680431637378,10.124594955393817,9.67466751504708,0.12302539841551977,10.22182025180591,-0.007797361388909999,0.030269075794574243,-0.42695632302460523,-0.056024136248429,-0.014189641162548028,-0.09504722789483543,2011-09-29 13:55:01.035679783,1.039832447
49.00793659301894,8.398624152553003,101.26118491063902,0.02478414106710835,0.010029557410764514,2.739405385857492,-0.6956644724645155,26.65286583301235,-4.014555771696325,0.28019808814753405,-0.11162592753579818,1.6010551417760426,0.8942026660962346,10.102541569565362,-11.203380519437898,0.1461284925237723,10.151821530631464,0.2180753214585719,-0.2109907492439512,0.31074738861790535,-0.0809496644875315,-0.06293429099838924,0.0403368342420342,2011-09-29 13:55:01.135684518,1.139837182
49.01003956129271,8.396968051472424,132.32098233625257,0.01746852784182011,0.02663786221982483,2.414101475461162,-1.9052795175497697,-5.78579977031041,-5.227699448541503,-0.5425335887396695,0.06597352033150736,1.6756781575992536,-1.5419906717351457,10.122409673612355,-3.107229353298234,-0.13747882447674725,10.23272519846634,-0.04796476495032394,0.1400271366420045,0.10243392348674187,0.018980163385011902,-0.12341275852660828,0.04258442082597051,2011-09-29 13:55:01.245653433,1.249806097
49.00885789456238,8.397380548041024,116.35890314874348,0.02693988458602496,0.026896084492120727,3.2454117630912505,0.7460340427464044,1.6536364588600099,-0.45391307727169505,0.427608342514422,0.4440287483607106,0.1243098605574966,0.9724024299308056,10.323804156325778,1.5497513365078333,-0.5450975028979687,9.472499463420018,0.05025581224097537,0.030635260600819298,0.03236984655207601,0.07794298178990094,-0.007980594053273312,-0.20304499432480566,2011-09-29 13:55:01.345864966,1.350017630
49.009226286211394,8.399922469454774,111.57720931126993,0.055256364990823065,-0.007228667916773519,2.4069545747000824,2.4698240215071436,2.0155904872049417,17.24406441242253,0.3162771676200671,0.02642001544649092,-1.412276020155909,0.37363973956955726,8.967160573105147,1.3175711703334583,0.6037483946942613,9.858187335622846,-0.01184977653767078,0.031059009212680923,-0.04034398095619465,0.05458567553523277,0.037636758294844565,-0.15756703540291767,2011-09-29 13:55:01.455611505,1.459764169
49.008835148585824,8.411150026523941,112.64352030767533,0.042141697326754005,-0.006047424228564004,2.5835775499237497,-0.10201137414384215,1.584590246512395,7.733295473937999,0.11842337570544081,-0.021490934768646833,-7.699023198637246,-0.14128367698539074,9.365028033363378,-1.1247228312392048,-1.0188992063315534,9.833985284711483,0.03590301189951521,-0.01627636484088471,-0.09263580902365234,-0.019008572032384916,-0.026059647950412247,-0.13463236689736371,2011-09-29 13:55:01.555624065,1.559776729
49.00553430595035,8.402414171835716,132.15215328620346,0.04034804513981785,0.05094116087189291,2.52461797769291,0.03459598145714002,4.058028265802887,42.17031383679411,-0.13954726080993218,-0.02975757661790122,0.8183612122949726,0.3873997959350217,10.307798639852606,0.13117542897131662,0.7351340355015576,11.18858691457318,-0.17475068890647164,0.05117978387460085,-0.19112361368807826,0.026005029361542482,-0.0012098159222981783,0.24889264217732207,2011-09-29 13:55:01.655611506,1.659764170
49.00978152739329,8.399425368992365,108.84421483713366,-0.05804619471373976,0.01758682658772763,2.800359033059144,1.2254139246954299,-1.1810017351750453,-3.07079540294062,0.04258619205692741,0.01999881590865116,-0.09392859251449526,-2.7602782563539643,9.82921207443849,1.8658112374715183,-0.08726554136334354,10.250099899323436,-0.020425339136182115,-0.006680863771768105,-0.07922621251648235,0.014591118289114873,-0.05607184320468534,0.28677017168423996,2011-09-29 13:55:01.765596822,1.769749486
49.008059694204405,8.404934712568547,110.50228223435566,-0.005232693817876173,0.0019278764189222738,2.692829535581835,1.1985897939761196,-0.32312644924810796,-37.87269425822957,-0.29758022875472817,0.03382042008985577,1.625973717885619,0.5937584965035649,9.567877751544106,3.0543408964712406,-0.6216099298090602,9.770915481836969,-0.034361406726209465,-0.06879311194659268,-0.17405613212572044,-0.027851329692550067,0.0074668102349451804,0.1173508404067754,2011-09-29 13:55:01.865671942,1.869824606
49.00764141680249,8.399038363955615,112.5490965299711,0.011736340801275447,0.0539020627025759,2.5186865976378194,-1.854302604495442,-0.8929960338881355,5.934201290801247,0.29094016337004924,-0.19563170734773747,-4.741969499960846,0.2909495691412819,9.403319104872452,0.6831583982403706,-0.49702995414192946,10.11062532399683,-0.00877990460200711,0.06348247172263295,0.43407454331855994,0.0196986456809446,0.04759895314671275,0.09719177652664732,2011-09-29 13:55:01.965532639,1.969685303
49.00791003435415,8.398070199286828,70.09436330378927,0.041963440797540746,0.026413585019197182,2.4359219789963142,0.48831230225685907,-5.878828325284241,-8.09498955015542,0.05664971765069185,0.011111210259458517,-13.481598569278205,0.5351459993497133,9.931584525290145,2.2066228478608068,-0.4315825548781805,8.524696134572329,0.019560143379651507,0.11670458344950925,0.37423924539205033,0.05612383975500604,0.06045213988903472,-0.04872831544719193,2011-09-29 13:55:02.075563847,2.079716511
49.00945941381044,8.395887558207805,113.18431127026071,0.0358432953441032,0.04138577010065628,2.5746062035885355,-3.8413042389830787,-4.800463993357829,-2.9455340926935203,0.526964884436931,0.0383684876725489,3.285240494768027,0.8159678938290149,9.533397614528514,1.9163468883074126,0.0747678658450201,9.892130089789205,-0.116574418433715,0.03511243179902304,-0.46205998557857,-0.0027744552465079966,0.2676376154435402,0.010624171333457715,2011-09-29 13:55:02.175522659,2.179675323
49.007883971001995,8.382817641717546,117.55848349870095,0.042145805504863625,0.01970459636140099,2.8857286920155056,-2.583249716195298,0.1387419763379214,0.8329288530737085,-0.2912331025880743,-0.1307093273095517,11.509839614906099,0.46045506197036223,10.045976068291283,0.4405477697360629,0.5476645749889492,5.256257135094528,-0.0015703146539303853,-0.16637786465217463,0.5212621777107902,-0.018374440320322635,-0.005321290024317742,0.013775406927011041,2011-09-29 13:55:02.285523626,2.289676290
49.00984125133376,8.401706636160535,114.0298844040968,0.012367971031953268,0.00838635652098587,1.9187823443755434,-1.6432031816534818,6.516865743379841,3.242447451102673,0.19520264177998997,-0.049749845935669765,-1.255858264144892,0.19614685355254438,10.150805830763453,1.3387364586837165,-0.003696868703973049,9.2504972009492,-0.08966862101069477,-0.2016746585625063,0.0005820135882804098,-0.07033102416514292,-0.013470202578754236,-0.1616763087319783,2011-09-29 13:55:02.385536958,2.389689622
49.01071554302553,8.389094214655866,73.2461758130241,0.05378343163436093,0.019446474595270116,2.8020919440099132,-1.3887326826698663,0.43647008707972024,-2.4245208832771437,-0.01531869146636403,-0.0709465769467574,-0.47724718496219715,0.1235405521080383,9.796084361733966,1.5248904845036586,0.9619325923728764,9.219109103920015,-0.002781829564932661,-0.19144143715286382,0.06323601247499686,-0.30242051643622947,0.06821393367557044,-0.00294804160099299,2011-09-29 13:55:02.485503452,2.489656116
49.00836370900536,8.396715689011742,116.01850080793231,0.08191550600021935,0.06464593134237379,2.769541237746291,-3.0326773656355144,1.6362913057420299,0.9457525809634512,-0.40779466984651047,-0.24641097843984805,1.654251399611146,0.10971320507542204,9.529005702917638,5.944605666285892,0.12924364089173623,9.41675898910289,-0.01640190106433704,-0.10934093144103689,-0.08225023655975162,-0.0002565677938216517,-0.003584308161139113,-0.060413292832419856,2011-09-29 13:55:02.595512122,2.599664786
49.00877550453922,8.399049728289157,103.83371706469282,0.034545842852882674,0.020794123665716455,2.839202789752854,1.606602357872445,-40.853110044314654,0.38988630096091437,0.3936866905064893,-0.24261055521648675,1.7928659475481343,-2.0615287169348884,9.847497987375956,1.1913285004463936,0.2357874264840959,9.89385679747192,0.02430973945191534,0.05202748048398931,0.14539283027271674,-0.0020521198055527407,-0.017483380038715867,0.21645362940749224,2011-09-29 13:55:02.695466242,2.699618906
49.00909234135892,8.396552719922736,111.64547116269527,0.0017056482836043975,0.0641394846285373,3.0232619630457753,-1.4528755441498942,6.6637183854408235,-0.9767863859477808,-0.2521502016010613,-0.09573128517129945,3.0729183030143017,0.6987921093636451,10.070323918971825,5.922507414575603,-0.1215180308466573,9.557848593155319,-0.04045469883803037,-0.028640141605688875,0.3664168370412207,0.020566482046436057,-0.04610382691549336,0.10026629810977458,2011-09-29 13:55:02.795588299,2.799740963
49.007933910500576,8.401042179758749,108.37960555199004,-0.01408145815954812,0.007935527860454865,2.7343875950691845,7.3904305758003535,-0.0197052914196012,4.133109667764936,0.14231490367616992,0.10809939980735908,3.1367960644611266,0.22472607546201395,9.587420061261385,5.3599194133370345,-0.33265126439000386,10.285562323658386,0.01650665472072429,0.02255301294852053,0.23602954683557226,0.01255981212641275,-0.017509958510191406,-0.06432573528320257,2011-09-29 13:55:02.905518729,2.909671393
49.00740026244037,8.394454100535091,113.19010195750118,-0.02535361340210702,0.17679352830291986,2.5649287096056184,14.54449047890613,-5.400066877995126,5.640891763123461,0.6759554799244952,-0.8643376430387242,0.039701476908017064,-0.357115250799814,10.044252710867173,0.06416773720175128,-0.4658974825638583,10.1705527404349,-0.03492354476085857,-0.009579570446295082,0.07182087946567907,-0.03931836193606844,-0.016337285665441372,0.8368404837606968,2011-09-29 13:55:03.005443506,3.009596170
49.00736060510493,8.39786339045169,115.06891232285535,0.06434735410413547,0.0718564952492379,2.7777182741904105,2.0122140757154,7.622059703506814,10.36111885843767,-0.1491650284310608,0.0107665009155789,-0.6683922923984489,0.9245280864561737,9.827681639275742,0.8802665689906802,-0.08662428540521289,9.193657728923572,-0.34904479140255135,-0.03197167692963976,0.11142071733888075,0.050136858472619866,0.043370078245256474,0.0084617158407376,2011-09-29 13:55:03.115443912,3.119596576
49.01344806724274,8.394598735603124,133.3646700501453,-0.00927839082760468,0.09117670904035793,2.73156049652465,-0.7560311122333491,-31.449184523039627,-2.2935059224450054,-0.055763462290703524,0.07630588906612053,3.195874273095183,-2.900566859129651,10.52277536813518,2.581966043849125,0.5838660996311924,9.340640896532683,-0.11619530572205054,0.029149197702649014,0.23681074915333516,0.02168220838137295,0.035016149446901526,-0.052829490034297905,2011-09-29 13:55:03.215402882,3.219555546
49.0081568418324,8.401516845194744,110.52828575275674,0.04543259218524997,0.011319526575412478,2.6036714859441767,2.672760509961692,-4.220075253315069,7.1221625478413815,-1.2928816574966073,-1.374423368709578,1.6210203892577302,-0.07958112674409984,10.301675601303938,5.106624445342449,-0.19079690914453493,9.001780141056127,-0.08494559726203532,0.0330803359986043,0.13274896509288212,0.014298161001744822,0.02271669727103997,0.1386154238295934,2011-09-29 13:55:03.315569258,3.319721922
49.01074183617869,8.400448916344061,122.94076378227264,0.05768028102136144,0.04637343267395036,2.574325662526114,4.015357430637449,3.1369298023419527,0.5302846400297587,-0.19158367523113748,-0.29076538879119784,0.8395382443421576,0.8861075345093398,9.710744145287613,3.6712119916702903,0.08124092187790272,9.36820535141421,0.1368871689463449,0.10366267427361017,0.028096582532352567,-0.004236553806152947,-0.22927719452835021,-0.23919316697570414,2011-09-29 13:55:03.425414723,3.429567387
49.00867533170655,8.392312001196542,108.67906910676642,-0.10154691370799179,0.043287765291608236,2.892282773456747,3.486829150414763,-6.179657323419778,1.0145948017770625,-0.1734400966098409,-0.06360735001670371,-1.4843484889914376,-0.49666821322496113,9.469845965478083,-4.383510141905778,2.0491901258395635,10.11170581981641,0.03724085573570664,-0.043739954487469625,0.18664002628823811,0.022168851237467004,0.02749492497078889,0.08223344457274823,2011-09-29 13:55:03.525325238,3.529477902
49.00801300187523,8.407661849710504,111.85214116265817,0.06816576996434168,0.058994215684296636,2.375247671471572,2.420320577408209,3.769991872006046,4.600562865462589,-0.049827556457401015,0.03381501096402195,0.3073239632542192,-0.21554694946398117,10.637773890342888,0.4262928919335286,-0.7100066619378805,11.390317445938782,0.04217236961264399,0.0449046529751708,-0.02280547190717539,0.14464494288256582,-0.33491035199019026,-0.1820468690315392,2011-09-29 13:55:03.635350561,3.639503225
49.007929638503015,8.395354573135497,116.61106263643467,0.040205785077552396,0.03692374657719316,3.1068690017036706,-8.632562442063023,-3.777942498190368,1.7517329458408695,0.3692157783476392,0.05346977729902806,3.5739273729501515,-0.11712695447496657,10.41174978931092,2.6493845565594563,0.30286167664853025,9.458917839327192,0.013189438648438141,-0.02815830244029776,0.031026517798615642,0.026087213870820348,-0.006613269278068741,-0.1352999728009323,2011-09-29 13:55:03.735305746,3.739458410
49.00890116709012,8.391477037084641,106.21696800904313,0.07521814659428434,0.018003405972749763,2.4647349978566515,-0.85296542232929,0.04729953404994536,6.386420083234142,-0.08038921880714847,0.03335847178086432,0.2669413045440585,0.24004481298324132,8.48644875578619,23.372544394468974,0.5735868984817798,9.425735231779528,0.06181478674566576,0.3084857129863491,-0.00736978518797049,-0.03311346215924162,0.02676878374139428,0.1847020168891297,2011-09-29 13:55:03.835447119,3.839599783
49.012960682923556,8.395492705043058,112.64273684667552,0.039088064851887226,0.0491479235512787,2.9693476594610035,18.542334638600792,-5.145350456014784,0.1486498398063194,0.3243228707328362,0.8808627345441463,-1.3179415460559163,-1.8623676712234305,9.637877200161885,12.059360648389767,0.8438952448701691,10.299304284041115,0.17121035946976698,-0.05513140654365685,0.031387014877420655,-0.0366564908535459,-0.06654344286089296,0.2557523194210961,2011-09-29 13:55:03.945287260,3.949439924
49.009743285649826,8.400744674295124,109.68176527628728,-0.01060835372912225,-0.007666452695958767,2.833930035295442,1.4706910239284112,-1.7116437170405105,-13.967744454607553,0.41067951517546913,0.5358675236627535,0.5997335005690088,0.49397408988969893,11.974809539911897,0.4749407617796152,-0.17734000153104912,10.962355402997085,-0.07862247099033813,-0.08188807855299843,-0.00930577212685045,-0.1792272685911556,-0.10886509507587741,0.18123335325001755,2011-09-29 13:55:04.045282871,4.049435535
49.009259154411986,8.395073309528073,116.80599371663823,0.005230951333649994,0.022966829250209715,2.8418567377734045,1.451473669282061,-4.063825942931,7.031377092201813,-0.3400828940344851,-0.05745931206219641,4.767913293582395,0.14119088263389964,9.641447003828558,-0.2915597729727537,-0.06826778686080609,9.2485771432877,0.009025018960733764,0.018491338733456417,-0.8703942519746638,-0.1710600852671357,0.015135752818556586,-0.009254038650806401,2011-09-29 13:55:04.155264902,4.159417566
49.00834908742287,8.399529594114117,53.85516484292518,0.036460204376461636,-0.040951335135936545,2.663782049924141,2.1984305520609877,-1.3348497808350146,2.634192379783396,0.594039826098802,0.06771819529340896,1.1655846137141634,0.6616966030634599,9.371029995372563,1.387290471580675,1.1181346650426671,10.034192341753062,0.0323022163692366,0.052575352980373816,0.5918859667341642,0.002831229121302445,-0.10525181328394848,-0.7182583008024555,2011-09-29 13:55:04.255273614,4.259426278
49.008432747527316,8.391794554860873,116.61104237715362,-0.2557159277352118,-0.11199648171241866,2.324547308620341,5.8429464934357735,0.043753725323678605,1.4391585360241241,-0.27690587875041134,0.3206282248823494,-0.7854394639702704,-0.08567949964883748,9.143054782543267,-2.275989156955193,0.3289939839976344,9.740661350320416,0.0914836728932979,0.2652318712605429,0.07754703405481196,-0.13316499397045756,0.05379729871063355,-0.03201195406265391,2011-09-29 13:55:04.355369684,4.359522348
49.01009564413097,8.412238838534915,113.08400845871387,0.06966782325307858,0.03715999492997951,2.9012960136664514,3.9982615944112494,-5.5313787418727145,5.9747010486471765,-0.203096038912786,-0.1388495489744946,0.806809526832106,1.3551341114795603,9.961488066265897,7.246575792589447,0.8561023227018226,9.671148697608002,0.01067268650938201,0.3469185501864706,0.0078516749771508,0.048710361887450176,0.004003368889064077,0.06684140018878662,2011-09-29 13:55:04.465228821,4.469381485
49.008720321415446,8.400381088455262,115.45558993924715,0.03220276547815297,-0.21831274337384432,2.663224500480216,-2.29111650387269,-11.146078079787955,9.709701050536044,-0.7860923257836346,-0.6198381707634518,0.3270907480492328,-0.7690302787966794,9.185656324436218,-1.1878955878814095,0.2553116603073334,8.469363584228383,0.015413290876739712,-0.006771833595185398,0.36723097409948413,-0.12164257619969739,-0.07126317166984272,-0.0881124122066354,2011-09-29 13:55:04.565286283,4.569438947
49.008713573014276,8.398028097882724,115.83493299098339,0.008963016787125643,0.06824714960929226,2.7197472307393875,0.10441980021041553,16.87894136416229,1.0099384014553676,0.26377687831565877,-0.6079994855969141,-2.417453303659326,-0.35538602702460764,9.6232600553108,1.9756679365743237,0.5928768975422363,9.159783637835014,-0.02689490003448322,0.016410059944508622,0.006023697042098618,0.3634381331952897,-0.0013843832148005084,-0.07566714744963154,2011-09-29 13:55:04.665211314,4.669363978
49.00852023468467,8.397023139158815,108.82814163823143,0.01876427831293246,-0.0012369861868602762,3.0076896649123532,1.7324635124026053,-4.3875344300535515,5.2766832202416385,0.8831183425344525,0.03821217470840777,1.821563327237757,-5.159613725434816,9.953945597003704,-1.4156673277657257,-0.6256067201953487,10.892439044596541,-0.012635452933651056,-0.006669925217192113,-0.13075969564107368,-0.03825081346504122,0.014375943010566739,-0.027961495662998197,2011-09-29 13:55:04.775241175,4.779393839
49.00879387104165,8.39638170005638,104.03137424962209,0.010983706004931565,0.0027504551954819177,2.882401020740962,-2.8808493716811734,-0.8571620110834823,-3.2666710164117028,0.2991523148537582,-0.1890350772686586,3.098705233478984,0.924677235674213,9.411209900529359,0.017097757365684696,-0.7400728668969956,9.546854613037773,-0.01935895387397627,0.04003879953224068,0.07977901744095674,-0.04382579721812922,-0.003473209505158466,-0.07009448424250402,2011-09-29 13:55:04.875228552,4.879381216
49.00798021876098,8.396644010080536,137.34294597052585,0.016567261707287156,0.04510217939624982,2.968605916935204,21.747659961084214,-7.30713187902575,6.5687239752764395,-0.10081213964245792,0.0075338180057042264,-1.3657680997855306,0.40897329638853697,7.112306878639947,-0.2971461827098595,0.38313174536627453,8.598735224969538,-0.025637930346677454,-0.0082985699336469,0.42319252014524544,-0.044783181025910654,0.0025620994480961942,-0.015144953845754778,2011-09-29 13:55:04.985230209,4.989382873
49.00849190312806,8.397709092668938,113.4895821743294,-0.0019613180092363514,0.02822987010886533,2.939988680367484,-0.9200739025837998,-7.533713481851381,0.9702756786400104,-0.4289240737713947,-0.22699773479156196,-1.424051004218333,0.12876634124313727,10.28466748922572,-1.1524224858820125,0.007298249618545569,10.03227892230444,0.01981073109642733,0.06793215006777314,-0.05691894433952732,-0.009809014457976682,-0.060228680174606794,-0.017493476015640975,2011-09-29 13:55:05.085149691,5.089302355
49.008706301934794,8.395331894304082,109.2714995796238,0.003256327201339393,0.03715355277130333,2.828359326950062,-0.2729327038080236,-1.6144757037406212,4.820007060179842,-0.03130869251574886,-0.08102586534620347,2.923429765922367,0.18955879535950898,10.460378198482312,0.014008804039000233,-0.42467918922606024,10.358954252839721,-0.12099317347006362,-0.015167000628215466,0.015721604513417017,-0.01939249525152789,-0.03884601098421425,-0.029387303161678348,2011-09-29 13:55:05.185149475,5.189302139
49.013061213835634,8.397500223970603,119.3095486715415,-0.26177632271406515,0.007507524204116977,2.9767815040909946,1.0953368032483952,10.29901404232099,-1.786484552453024,0.5276066062812901,0.007271804791314049,-1.1125973102448592,0.08227771751804401,9.564672573899694,-1.2142285817967697,0.4887324993602379,8.957303633971286,-0.04723734164460275,-0.03448846560652708,-0.03456889371040937,-0.3077547550581798,0.07584728072542465,-0.06918782561198684,2011-09-29 13:55:05.295327121,5.299479785
49.00792511687033,8.396821549434188,115.32853963649625,0.027544747661171775,0.02352351167252271,0.5612866526385667,-1.3765317827937897,-7.436246393414344,1.2447452995758592,-0.1942488508047706,-0.026989048714861436,-0.0034559128372876613,1.0697920413779278,10.180709391498981,-0.6103531129323208,-1.159649437393564,9.2585210225338,0.07094612909732556,-0.06788284085954834,0.15976318842419887,-0.0004131498105172809,-0.002924785493789736,0.02713066646550425,2011-09-29 13:55:05.395156937,5.399309601
49.009080987949226,8.399864533816181,113.7432131330348,0.021669604985204358,-0.16894431401362947,2.9986962544504094,2.8512928149832213,-3.4831571885798347,2.9411790944001273,0.7688038417312189,-0.15788063373636108,0.5948857362938258,-2.183114256142936,11.028749266280908,-0.8798186007312347,-0.3653058361249541,9.536485838531412,0.05611897015557372,-0.030053719444344,-0.413729648333941,-0.11424786366247103,0.04698802327216985,0.5714854203916858,2011-09-29 13:55:05.505103240,5.509255904
49.00790284468072,8.398650916479285,109.2400122581804,-0.01753224727093853,0.016654572199037647,2.6418177617591936,-0.7795069089788038,-6.503037370207499,-2.4140602161469444,-0.41028055860221635,-0.05414648587542416,-1.0771887472862547,1.117011142499155,10.081493600028193,-0.9992419043779825,-0.13011851666685295,9.23089595570481,0.06065318261600616,0.07468481246465965,-0.01482531704177021,0.03633641659350744,-0.042520497124987,-0.0017425843946499778,2011-09-29 13:55:05.605109881,5.609262545
49.007521729574826,8.399253917156601,109.10556861304552,0.01462648917874768,0.062174330717605086,2.6746131404388205,0.4728386478507284,5.391708739462292,-35.51761598364176,0.3115773999042984,0.09172031060938542,7.384350722285936,0.2178999577756363,9.679563770845238,-0.6170982531848446,0.8965094637615292,10.421216197667537,-0.06760264352463026,0.06707159693050205,-0.28453111608332277,0.08826339544224396,0.023324482181398664,-0.6035093480903556,2011-09-29 13:55:05.705133809,5.709286473
49.0091034925836,8.393741409352577,114.59044298772723,0.021806772383808945,0.07130738225485045,2.6911443925159046,0.5921071351066172,-2.691730672550091,7.144881707206192,0.11399791411417098,-0.07612234652447664,2.2528797652517247,-1.0772045832622994,9.317453155514452,0.5868024895599739,-0.0400036926617387,10.010309354855137,-0.028561159075752452,0.049985296593510684,-0.19720597832127995,0.3640585827115982,-0.03666281710635412,-0.0450229759139978,2011-09-29 13:55:05.815280928,5.819433592
49.00847684132872,8.399544221331523,118.24574982222352,-0.11416601252654193,0.015876746161835428,2.772412241690743,2.5487500075992697,-1.7580584210818349,4.378508202209806,-0.5300058616062384,-0.006780133767735265,15.70522828411367,0.5306545404158142,9.071897726500039,-2.7126142851394452,-0.5569146104589386,10.44380217453991,0.10683691318062494,-0.11723217685433332,0.14656734748878802,0.07953378742709788,-0.1712680470641196,0.0239282652951444,2011-09-29 13:55:05.915101083,5.919253747
49.00942252669829,8.399774456901646,117.04606554548144,0.3323815939684512,0.02603057855301282,2.764108231460797,2.73995311055674,1.2793015198163782,4.6737953880511505,0.4227574663686716,-0.031305318979188715,1.2552493866518042,-0.7971357849875748,8.892711053226499,-1.7580940130941065,-1.2493571802556789,9.146609745793066,0.034586126773430384,-0.06187455583618869,0.4869879950788627,0.01835751942202703,-0.07851672535069582,0.02586690863651965,2011-09-29 13:55:06.025034583,6.029187247
49.00934317058265,8.39681199488947,110.46568933688452,0.03874723749052463,0.07421258897139749,2.8678412714050965,-1.3962698683682953,-0.870816018711051,4.563390002724244,-0.34559381215567975,0.09802097296130301,3.1322713157082984,-0.42402808193791497,9.300884358151384,1.1310990130877558,-0.052397497320519515,9.536702515732218,0.039863979290395424,-0.027288246144866767,-0.15083804976628898,-0.02191396304161231,-0.0051850335463700225,-0.19463182824224248,2011-09-29 13:55:06.125039879,6.129192543
49.00907406768009,8.407212691906944,90.53265807253979,0.03913720537807793,0.03297798348057756,2.801161942129066,2.9535334526154706,-7.918595662682828,6.184811946910477,0.2693355314645549,0.0467297180836003,2.185866362531624,0.5028389330608429,9.680691883521813,4.922263756503114,-1.1184190484037717,10.469351964276674,-0.007783020764732244,-0.006109667022075169,0.11998224707722235,0.012162594705317317,-0.008463307424481308,-0.0389200860421501,2011-09-29 13:55:06.225000605,6.229153269
49.00777536673031,8.39021877117253,111.60640416751748,0.03581511501787534,0.032535292979366644,3.114222265029792,3.1839018098101404,0.008746267926133644,4.783888357145609,0.3124003811672157,-0.07475439746794321,0.2333597753338287,-0.8126469535707425,9.322252534372574,-3.1169417998989184,-0.8175673657099174,10.02327649643064,0.10688836581790256,-0.04039771733444754,-0.2825540130549031,0.06670543403641878,-0.012618037092519047,-0.018427269449432064,2011-09-29 13:55:06.335111452,6.339264116
49.0053648322512,8.398928692879236,123.1285992209457,0.0023513601507602136,0.03749979589948327,2.8083778378547044,1.0870405115556485,-28.518291035245873,8.434773506607504,-0.15611554846381354,0.018291732659696892,0.4942224215356652,0.21772709904761564,9.613502555133339,-3.187567364428377,-0.06931894414602505,11.201752047000138,0.0653371103271353,0.03639382419040799,0.023342969775651173,0.036111560026285294,0.06957390239545841,-0.21593179396438944,2011-09-29 13:55:06.434987151,6.439139815
49.0112623817595,8.399029489535515,109.28852482357166,0.03366053149042404,-0.18581710393655662,2.8353608848485674,1.0249350647900932,3.6186896922411758,6.255326340907793,-0.22001209186194562,-0.08445806267292283,2.0949424552399454,0.3591846556874455,10.81019910514001,2.7980150157028945,0.3361629990163154,11.231170845556264,0.04532101298389517,0.014970889267179922,-0.025157359574344843,0.005299438427984067,-0.015466225524162925,0.03608377045209149,2011-09-29 13:55:06.545021848,6.549174512
49.00782348499628,8.38891461411258,111.89626583096994,0.061298468952445534,0.25353250055368887,2.5552534463131282,3.980480754534481,-12.994978642384108,9.85343093464702,0.0908837204042774,-0.06367700933042411,-1.8226831388985434,0.9513300432376589,9.87706471890181,0.7831617934016954,0.18170610593453584,9.597980052286848,0.029631485327891168,-0.004551742265727152,-0.09968661004367046,-0.07052111714348692,0.04572775926009384,0.5636864531776354,2011-09-29 13:55:06.644940773,6.649093437
49.00825575722613,8.401242739068913,117.5311364442798,0.06257727031556957,0.05664035767226018,2.4331189593319698,2.7679374835627053,-37.41990095177261,2.778705286905752,0.3537937844126329,0.07518106560729379,0.5926746460213175,-0.12748382511870981,10.654756272418277,-2.296680287278617,0.6651507210365653,10.647250114080402,-0.0056636473386623195,0.03624924780499289,-0.1171534311397731,0.014682188874723983,0.047526918445314106,-0.2647745991992664,2011-09-29 13:55:06.744955443,6.749108107
49.00895260705313,8.394619288353237,113.85224906856232,0.0011843812735411255,-0.07116684555113148,2.677406830577836,0.06390942496361118,-3.3209677687361685,-0.455966681767058,-0.39645883319407615,0.08836789065040832,-3.5270526515915686,-0.4487265388689126,9.246613223046332,-3.14127123843054,-3.496431278412591,9.0545111033302,-0.06299105671600826,-0.011396375888878926,0.06041068830509088,-0.05421966042963427,-0.038683017192025854,0.06702720842296643,2011-09-29 13:55:06.854977778,6.859130442
49.00892503193387,8.399713815976845,105.37966877002121,0.06393994452348858,-0.040552295821020545,2.7930827648538217,1.356005256266914,0.6823090446341618,-43.993362808613945,0.05387342158884334,0.1992295662229527,0.9488619776655862,0.40775379848692733,9.39670421805084,-17.483667478452265,-0.019622760578097365,9.513113639916236,-0.07001882380882686,-0.08342471183384836,0.3806805593010987,-0.04193411745913479,-0.01639321602548589,-0.011094098729883154,2011-09-29 13:55:06.954940574,6.959093238
49.00783247077753,8.414047427037382,122.0536245978774,-0.2536651980051915,0.02949897446804264,3.1926424906113304,6.099770120170946,-10.62127123869714,6.235773125170225,-0.6695008390290518,0.004222528431548481,-3.1620295815633166,0.5766834071339505,9.426573564408805,0.5180319867725005,-0.6221029512419352,9.834250932469045,0.10725709347161932,0.0607915392089416,0.007105612403314983,-0.08755395983880504,0.021616910460325243,-0.13090477553424734,2011-09-29 13:55:07.054909385,7.059062049
49.01010616525647,8.398138246441388,117.10270756683904,-0.0037022879251414273,0.0204142004532452,2.7645249882410043,13.777079917649615,14.369419159510894,10.57343890684983,0.30811104061225403,0.026890832428490476,0.13466106478750128,0.24044346920534188,8.643121276602143,0.886983735127725,-1.3056647047802918,9.211780564866926,-0.026470827115054066,-0.0010100466800018852,-0.2181810655555452,0.07007499271405736,-0.060940562950898655,0.1463117874913924,2011-09-29 13:55:07.164942368,7.169095032
49.0069692569303,8.381856938011852,107.9751301785205,0.3938219361398817,0.14639110788127924,2.561933435151985,1.0878039437840532,-7.728780170928299,9.121828925715837,-0.31397661293231277,0.3508549590723502,-0.6198358844600502,0.4695684590067878,8.960889043167057,-1.2559037748523196,0.49204800601815174,9.10357415451313,0.02605634113691305,-0.3781984653877837,-0.05176905755833566,0.043200306081117926,0.16342150063117836,-0.054778094772233596,2011-09-29 13:55:07.264975390,7.269128054
49.00867141837715,8.397496278285795,109.72082149604073,0.03538416958990394,0.042338295461796016,2.833606308391662,8.604638538508901,3.3814972745499734,1.0832682092541557,1.4318691905490943,-0.08530512325961964,-4.68763389132767,0.44372984236215807,9.084621238375814,2.5892072070932177,-0.758481698943689,8.826289097763889,0.040453763527235335,0.007783743101902194,-0.05165063837658864,-0.012519574969283031,0.022287471321640162,-0.041425576512399837,2011-09-29 13:55:07.374897830,7.379050494
49.007749494408245,8.399922293221792,106.5767022731333,0.04919236835089971,0.04117501311322376,2.514579053477454,-21.668039184511336,-0.1714201183901134,-0.4598744060068989,-0.09300140336704574,0.25220998544797496,-2.4914626858988513,1.3145538130670817,10.057577572995458,-0.939471416760419,0.9031534504786323,11.210233937545361,0.157042969649423,-0.0675706681494978,-0.03914467493483597,-0.03224686480637738,0.029677209891695117,-0.5224591477314203,2011-09-29 13:55:07.474856012,7.479008676
49.01308536217119,8.397399932401942,108.33754023231636,0.08012233487815254,-0.017672401636267668,2.817714975322194,3.32018269716913,-3.3493821222758626,3.960561233269399,1.8581653869462575,0.0035053366826826027,-2.9223209126068834,0.625915943057128,14.772556842348889,-3.542502362805479,1.7382933955828639,10.006021322129508,0.07409385082750652,-0.04559325777248799,-0.11284792089720438,0.013039934214828068,-0.08722647469278556,-0.0038417134179647983,2011-09-29 13:55:07.574842490,7.578995154
49.01009459869818,8.397640920886113,119.1796692073942,0.028371320904060394,-0.0033643588408935245,2.836267734632658,3.160003447689118,3.2723916155732713,-14.774028141596208,2.3533632396695303,0.04986332209195607,-1.288894387749918,0.4894575226552179,9.546628101412844,-1.2495643245817005,5.6831802958381035,10.023584533163381,0.02333604791042884,0.02813026763887037,0.730118175204939,-0.0069387562889890505,0.07128027345136564,-0.07633614565361072,2011-09-29 13:55:07.684857104,7.689009768
49.008027651157036,8.39729817736155,115.94093401230043,0.038230688392118135,0.02122509136898457,2.746734651416471,2.2284270696420183,-2.235504169387176,0.9714943110258791,-0.4078228507627637,0.0835873936985944,-1.8920106644851686,-3.0442026384935743,9.838217732586523,-1.9951829526402458,2.980290855340932,10.209934501661744,-0.0013902062834748323,0.04774934095886145,-0.14387957977621862,-0.051429951778580195,0.012053523524532133,0.9523249551360563,2011-09-29 13:55:07.784812817,7.788965481
49.00896975074127,8.401038468623042,115.25672199961222,0.044920659576875056,0.02309387668585164,2.4862184232973226,2.0071351039792513,-1.2582700950301902,2.1600823464971555,-0.40660963322854454,-0.05926433236131115,-2.9173232034652914,0.3412883325231147,9.673896295924001,-1.3735897292668766,0.3023128034635589,10.533744018983663,0.07588669774879263,-0.024137960332675183,-0.0528533330797953,-0.04800611034210786,0.034204362077581624,-0.026335612442643187,2011-09-29 13:55:07.884860529,7.889013193
49.007731300242426,8.398254086795808,131.11319060432095,-0.14574852477003453,0.016445214106915216,2.6815586482313036,2.1623001305259466,-4.443339983366391,1.4578396110613367,-0.3345549889069754,0.7206587842148808,-3.4792736833405233,1.4449909296175565,8.883998793104036,14.045253234682557,-0.3632689676083137,9.252328560509328,-0.43437125110277025,0.1414465996552986,-0.10838058333130694,-0.05239122899741054,-0.02041630739799532,-0.3964054979136806,2011-09-29 13:55:07.994846599,7.998999263
49.00868538436774,8.397241004876419,115.96358223241977,0.021114183670620595,-0.17948616503551987,2.6545964986416712,3.926393166613644,-6.301725275828599,-3.1185950940070146,0.3247270441842224,0.08375683291451408,5.234847064713966,2.3360602848452183,8.66394918401021,-1.1027115413871185,2.6221330530659794,9.874560605285474,-0.1018802810920396,0.07208974658634218,-0.14443428534101585,-0.059696563039859527,0.022233894836036147,-0.11103743502847493,2011-09-29 13:55:08.094927034,8.099079698
49.00862483153593,8.400024646841889,120.12634621643477,0.024619850820304857,-0.03127882474052653,2.567826470546283,3.0333699480557694,30.29413190139936,0.0614991941359081,-0.8417017762472762,0.156102334587257,-2.09965568267335,-0.21488246813512463,10.095901250362799,-1.6648063680593077,0.17106726299193825,9.774387655431548,-0.0966761424657853,-0.008929438266037223,0.149510064803469,-0.005605368516799826,0.03243577642710352,-0.059933363785719625,2011-09-29 13:55:08.204766615,8.208919279
49.00923507170522,8.403579414418848,112.39276086775213,0.05662677984556211,0.07556721548495651,2.933346221152807,-8.764423792211508,-4.048680173497024,27.67770538195267,-0.8435742717352539,-0.2848196146460288,-2.1644363041614363,0.009499387057759823,9.604991325600176,0.5249880967802096,-0.2704811927912357,10.511133612424555,0.00011153816293316306,-0.04339242856550772,0.34414331489366745,-0.0719885454752711,0.001748146664289657,-0.07518666820492885,2011-09-29 13:55:08.304927272,8.309079936
49.0093348560587,8.397229761503658,111.0157211480613,0.018726912776171944,0.0132587075130106,2.6645032321077995,0.8124002231567622,-11.0545829849045,-2.1114296577246643,0.10319098481606556,0.14599334746526252,0.030280727041344782,0.07307043493166865,6.458858585067663,2.4182078699872167,0.5904607442674823,11.887178074394264,0.06589661959723467,0.19369662536545248,0.020053873559243752,0.03034858031398447,-0.08908425100904108,-0.04497487020317967,2011-09-29 13:55:08.404750358,8.408903022
49.01385402103344,8.39576835972109,109.9521788379174,-0.029111682874717118,-0.009856367608034112,2.7979886397590166,0.273178629369255,-11.123140058719946,6.244770617591136,-0.587131035009518,-0.505658240015341,-1.1735645152729404,1.3837334495692866,12.220431637331309,-1.2846375832043153,-5.154258033135536,9.925974253290939,0.05017627296077576,-0.018466087347596402,0.2317327836268654,0.04596261421865921,-0.016883077115374293,0.03966918745390474,2011-09-29 13:55:08.514702828,8.518855492
49.00903449119254,8.396353310856,108.54418070103398,-0.006875271217351063,-0.1116279933951129,2.6061778673527547,-1.5522705016473815,-9.52197305091281,-0.24000978752256186,0.05255431429470514,0.03111324655997462,-0.13924108277440753,-1.5585456652809988,9.630963750637235,2.3237597625594137,-0.8949095468452087,9.561745177751709,7.293795142111759e-05,0.03843233650057987,-0.043286294079298814,0.032129756919730496,0.016446696069133293,0.04403044680244492,2011-09-29 13:55:08.614724767,8.618877431
49.00684340500382,8.4011845829389,107.4527117040063,0.06298678021719306,0.012054765653744247,2.7549747191948857,4.308284065853292,-1.7486273089264786,-6.931161613592392,0.14286484849916528,0.1235891116212058,-0.6687519541771624,0.17864342657792032,9.09998347542021,-4.132528150151166,-0.07792493920703278,10.180467377669348,0.03660520194855877,0.07859020424599948,-0.05275350671583484,-0.007569530547039578,-0.2236526579346829,0.10322837772965639,2011-09-29 13:55:08.724735236,8.728887900
49.00679638106619,8.401618703176116,132.51927979342577,0.04165689689128351,0.009166679722485253,2.8010310670330907,-0.16276165870397968,2.516071876329938,5.063094061924584,-0.20250725977502076,0.14326248542299932,-0.6172367151654846,0.26804250809821956,9.995202394700122,-0.19922617017127472,0.4406738643539148,10.665047669265121,0.036036592528739905,0.014570666862244694,-0.07867598625024769,0.0063585099086726216,-0.0715436388168898,-0.1667777811460911,2011-09-29 13:55:08.824891378,8.829044042
49.00928253016981,8.394846942562168,109.26074742799607,0.07585431128257064,-0.03791767419247591,2.3906403897963,1.32832508806456,-1.7786732777150154,-4.35750028278199,-0.18850918942057426,-0.12098743687790667,2.1472385348569367,-0.0650394943258546,9.463065645315565,-0.5683860488808121,-0.11118554408499726,10.274102198386668,0.0026033628425908024,0.05656630011152176,0.1340824547352048,0.0026915137174373816,-0.05946133678090994,0.022832377320637802,2011-09-29 13:55:08.924671933,8.928824597
49.009103577149325,8.395385271421404,73.96723569102363,-0.04283616001137958,0.022271495112009095,2.67943302802085,0.22556303353204762,-1.8045702370465646,-6.459096482621429,0.2356714859554337,-0.03205522927215103,-1.2626240351309967,-0.44652874709336837,9.724709145707472,0.43636154829710205,1.0182866415520775,9.59739687394506,0.007100079707318748,-0.04651706033098296,0.0881659073934175,0.07158244113465694,-0.0039303507701099315,0.16902516589748687,2011-09-29 13:55:09.034668369,9.038821033
49.01200759588243,8.397192848604238,117.10560357216302,0.0237704471954222,0.000630051439062337,2.7751545116509435,-2.1427110714037894,4.91814313919763,1.4667250313604865,0.3560579178048609,0.07418043904951081,0.5264456325175,0.26924462720325737,9.255718485978715,-0.9551646616606096,0.300872847038151,2.6369931986566764,0.06692544216675841,0.000627004648603483,-0.041847660300641146,-0.01022704059820866,-0.0691316450596849,0.020082997313118606,2011-09-29 13:55:09.134625133,9.138777797
49.00879822325161,8.39847497338938,112.3441252385302,0.012975473113234676,0.002541462340447414,2.607802898827261,-0.5259960164495526,0.612852312881239,-0.19436772415045322,0.08931303556868178,-0.01745499782505901,0.9377788128100311,0.5561451831749287,10.467141435637648,-0.6058582966226234,-0.1824536782329785,9.515292661091083,0.02556199241908773,0.010614628967583925,0.08350670476149621,0.016830518739604363,0.030843501841139858,0.0031019796916370024,2011-09-29 13:55:09.234639576,9.238792240
49.008559407345125,8.37510567937896,111.83838666440305,0.046686803474397603,-0.041710479079755045,2.523180258588595,1.1488712904255933,3.166924721384248,2.9767201286793323,-0.13852793578541492,-0.7583788491830398,-1.1041322050490536,0.2252260368596946,9.606747637094195,-0.7177310970215736,0.36384491041766276,9.496256127425536,0.08586516593518545,-0.030319132340376143,-0.02462327120107624,0.00698905881598854,-0.021931749917008886,0.20041875816522456,2011-09-29 13:55:09.344879907,9.349032571
49.009280896334424,8.395681605040103,115.58816806453538,0.04099588921114793,0.01073684335740065,2.8077570243345944,-0.37386595795205324,-0.27280687665462366,-0.6945541909024138,-0.2773173192191391,-0.15145967080697434,0.32439454476225815,0.658032534226406,8.236000920312838,-0.4048417506911799,0.016274322940729613,10.269951186594513,0.019161926060363023,0.04712783194697765,0.030003746456921915,0.01963508988046686,0.009234451992017813,-0.034500989366702296,2011-09-29 13:55:09.444601691,9.448754355
49.008286946025315,8.389479422037695,110.44622023828197,0.09174603655863786,-0.21166958198102503,2.6403863214081507,-0.5969816913223212,4.850894473010178,-3.8599983370834923,3.5009213741656504,-0.05401148125766925,-0.4134267712938874,0.6841574845889145,9.757406833233047,-9.418552302962024,-0.1364180804096773,10.3077320738771,-0.005739871117690849,0.033144428428180925,0.6629828146944688,0.0453691952990769,-0.027415359799475736,0.008921857662617383,2011-09-29 13:55:09.554600768,9.558753432
49.019403667499674,8.395673347580185,120.97617793436439,0.03453029504150258,-0.04478572281381574,2.783014849777118,1.997552894619743,-7.322007200171096,-15.703930054883447,0.48064224848471204,0.10638547343046836,0.33435418043047144,0.976890833722962,9.161082610416376,0.035464576481792576,0.6413300591653895,10.04571990610613,0.031119465025944367,0.022766166459658736,0.14718235992334805,-0.5140437032547467,0.03549732577161951,0.06636613161653111,2011-09-29 13:55:09.654590874,9.658743538
49.00703644848446,8.401838669150882,118.94508228825973,-0.016633004406570326,-0.009164042065934339,2.646569015635428,1.6613555969266096,-3.9642109284937863,8.439323154638778,1.8898636086848317,0.0571967284205387,-10.918611451504978,0.1049050878580533,10.300398223663978,0.6056844549758532,-0.11370819077994013,10.001692349791512,0.06227208888038075,-0.04348825139112503,-0.010683086136124093,-0.016476026606610114,0.059793024024294573,0.11812959346323264,2011-09-29 13:55:09.754571515,9.758724179
49.00810064387073,8.395408522421302,121.55306482945444,0.09735668712199216,-0.047044589716814536,3.0257268427685746,0.9806674240992659,27.88233783845624,0.18914665928529173,2.5712844471602754,-0.15156453281433496,-3.0448009428867326,0.5358826428694451,10.131304840831062,0.2949154302954048,0.3264986652723263,10.475663846481817,-0.024499622288050322,-0.00908308812404217,0.14012550214907515,0.05700957822874024,-0.045146203990427465,0.2054572264732399,2011-09-29 13:55:09.864615155,9.868767819
49.00812165343012,8.3975508074715,113.43681004723501,-0.007959959210396536,0.012347581875685945,2.835355474914423,1.587244851384035,48.39881350149301,1.0646218793616604,-0.5830155912416624,0.03501566978109291,1.1971269283132921,1.39059473028374,9.906713357312059,-0.8638174255385881,-2.8267316172569577,9.042530555397292,-0.05330539746293247,0.0011680873048009028,0.08868576793936385,-0.17860039529968572,-0.04843864766794214,0.1382286889648463,2011-09-29 13:55:09.964587092,9.968739756
49.00896928466762,8.377486951083648,118.7823038244198,-0.03854303736700394,-0.041718014817638115,2.41907876597981,-1.6242490098353166,7.41671012126364,2.7875870816327692,0.22262718223126834,-0.11501333783261715,3.0662985206703426,0.21027218026528574,10.060142108943507,-1.820210323028004,-0.39443126365436976,10.083081590078882,0.08791749848940429,-0.02842018906150697,-0.112734795305955,0.0838093393671274,0.13264210058268328,0.08373621080065938,2011-09-29 13:55:10.074525649,10.078678313
49.008962261520054,8.398220319871054,104.85680414705942,0.07908711398809037,0.03759169655833324,2.713122828835164,0.8617235389282456,0.00036414049759270206,4.361002759066777,-0.1833023468556179,-0.03872858847920754,17.904373570086392,0.8941402331544948,9.784503606116429,6.844893794560593,-0.3421068504487591,9.320345459515371,-0.05397263114778658,0.0797001268751007,0.12957305594903315,-0.045993823795826276,0.07393281382797064,0.029730324743507827,2011-09-29 13:55:10.174521312,10.178673976
49.007834559882795,8.399856011386454,129.16754274368296,0.022360999606757904,0.04069555666144973,2.4682058727391905,6.629877172917291,3.1845974849508805,3.316475596429257,-0.033802873651544066,0.012381654137738963,16.090032864235354,-0.47361280643991666,9.988293991921676,0.8047256683863485,0.8194694055830034,7.071717535836529,0.005715585396681821,0.012690950580043093,0.004461484510079633,0.07357294967076455,0.14894047481393807,0.2264065764556994,2011-09-29 13:55:10.274487949,10.278640613
49.00817184018522,8.395449781990033,71.48558314198343,0.02727966002879107,0.014324920880332747,3.137545649839789,1.3570251863104503,-0.42650260562031295,-2.3196526053958086,-0.32265022541692223,-0.07267637069143067,24.90387291450999,0.09502245566753681,9.685429173564513,3.1897053144115475,0.2205411987743722,9.905659352386731,-0.024261367988709235,0.0933583044419557,0.15731616446817293,-0.048099803847700115,-0.06658554233214876,-0.1010300785567904,2011-09-29 13:55:10.384574692,10.388727356
49.00782138172878,8.400972223814323,114.97376697685993,0.1457978703569163,0.051238004191796714,2.667713540290073,0.6510276549353851,3.973792779978112,-5.078876397587766,-0.653422085800093,0.17973082875929317,4.563271188349174,1.1026308292259759,9.92976411126577,8.892600439088435,6.324565785405269,9.768634158429164,0.000777960320420875,-0.054468502969936584,-0.03936713061113688,0.03897954888887113,0.033347894331098166,-0.013356159349109553,2011-09-29 13:55:10.484489676,10.488642340
49.008384787485426,8.375708963569151,110.41178682363875,0.0479615529893879,0.026406728094273215,2.5146375501160643,-2.1747599811381395,-7.051234071598778,2.347829037668382,-0.0512810386173665,-0.2712792627856816,0.894502220044888,0.07366275158079205,9.279368467376452,0.5532251977517368,0.418632149387399,9.771968909125627,-0.17956420906526954,0.063942306058797,-0.09885832817147538,0.004024289342376445,0.001371097552515941,0.1394787524926679,2011-09-29 13:55:10.584511832,10.588664496
49.00791696908067,8.4004687946718,112.52894812760657,0.04289119537393655,-0.007121497803933059,2.6107104224549453,1.9267689198948892,12.278582107125954,-7.31736047394303,-0.331043424572631,0.9406701272535676,2.8968923399913162,2.3120244828133516,10.64546164720075,2.132568198713975,0.3024250647413531,9.590705006036872,0.026575099892776198,0.026375873703087367,0.065987558075723,-0.05944577491091329,-0.07058273970911888,0.0503904393376702,2011-09-29 13:55:10.694568556,10.698721220
49.008029962594335,8.404866113734508,118.4526066403402,0.011602184709461383,-0.03553204511725096,2.9057676035648536,1.4708126465096953,-2.429027057243029,-1.9007784129233292,-0.2759861496062732,-0.10002628605325133,-0.21001521653818322,1.916690179832637,8.6213570856411,-3.64823865537601,0.5235175004644157,9.509057018250292,0.016466421488121885,-0.012727214564112903,0.012038918748088871,0.0011174490703849882,0.09392580752854861,-0.13641612965968508,2011-09-29 13:55:10.794563928,10.798716592
49.00865272158036,8.403891860733253,114.55441753733353,0.046078255986026544,-0.005558852019047545,3.0127716967039255,0.5923931965114235,-4.041751228294581,0.2239693136512022,0.14957420833366702,0.07948558301536562,0.12780351650239985,0.1809421829888887,10.034229092444676,5.035685177400533,0.601161058561863,9.660558956568488,0.21500427768999875,-0.01139501690513294,0.2439844879980196,0.003279867812274984,0.05259864814366119,0.22021577562739494,2011-09-29 13:55:10.904464251,10.908616915
49.00836493562128,8.399098305139788,107.11865790189066,0.0637767574997172,-0.0247183359373716,2.9703111087337213,-1.7455937752379564,3.0331218029807157,-3.9370459321202222,-2.0579527608298096,-0.01428875010418116,2.532777880600654,1.0437475889669425,10.116503141132485,-1.3161262429434635,0.8341088128935917,13.373245258398128,0.009024746849267858,0.02810524093129585,-0.08403040620465,-0.04819649979791394,-0.07520581891188821,0.4967022402062363,2011-09-29 13:55:11.004411720,11.008564384
49.00822909775089,8.39619287829031,112.63945154229302,0.02010627682965713,0.005521270609043808,3.040215127826749,1.214235321485282,-4.8711170952867695,-12.782914306125205,0.19773785616506623,0.05811040584192091,2.5700491530997662,0.004774010017745023,10.440708102887877,2.5541061182473594,0.3530706329675919,10.068511374638545,-0.0967595294319722,0.009866639507434213,0.10992373863694298,0.00580129338030894,0.0927668205358929,-0.7968568829336234,2011-09-29 13:55:11.104427485,11.108580149
49.01405948726628,8.398812642702568,118.04545540974019,0.012673209774510117,0.020381228623111498,2.9292642889208365,-9.797839284153026,-7.426487794304161,7.063155936695962,-0.2931649583423592,-0.008345107763885211,-3.921815132536242,0.7621169217660397,15.341497575734131,6.611493028118392,-6.027064199703541,10.174843544430821,-0.020267452539593493,-0.17463566986309056,-0.06445600137067893,0.057363436087262444,-0.2426753055921673,-0.02182974772492193,2011-09-29 13:55:11.214375442,11.218528106
49.00862393055829,8.420046028894502,112.75568184980983,0.04408795643343356,-0.022398146864701776,2.8303705693428416,3.1693548458013794,-10.632479853923432,-1.1692529051614677,2.1200396050695622,-0.16771032231796712,-0.39638798594463065,0.31034852194177454,10.20148343070127,1.9690179815300142,0.745523771522319,9.947749266781232,-0.01056637538521972,-0.050176904787424745,0.03722972689217801,-0.038363976108955596,-0.014597293932687548,-0.031879605653681635,2011-09-29 13:55:11.314543798,11.318696462
49.00951975913907,8.401025825164993,105.97166075114811,0.008037068682119241,-0.01927258128684768,2.856050041970056,2.8311421273190334,-6.805492318241063,-0.00031517681543125065,-0.8976367797361717,-0.08702422311838756,0.509431689288513,0.33238664804395,10.305449257797875,-1.92447009877885,0.093585792787862,9.42125150656595,0.051913260552603896,0.015663306634050717,0.06062098333943197,-0.05858496881481361,0.013752493016978484,-0.5301076051045289,2011-09-29 13:55:11.424348345,11.428501009
49.00841273496371,8.39636238194073,117.92294795959627,-0.018260236060046474,-0.0077531186098225655,2.6695388696172517,1.2132036256729715,-9.124385317640288,-2.082804649452801,0.36298106029023885,-0.19713038386163834,2.111617349802801,0.61017956158256,9.728967214200038,1.0082289332079686,0.8971626296514319,9.739560288214559,0.03285024886089202,0.04988478742576866,0.05466554389998963,-0.039922619179261876,-0.0004894805697687092,0.06439759485139485,2011-09-29 13:55:11.524307029,11.528459693
49.01155338560469,8.394463611743449,108.71517979078641,0.07918332247216218,-0.00947843045064219,2.6295736083713477,-0.33030331774800503,-2.945101546661468,3.9604214857265436,-0.21226927589969646,-0.05392521167733111,-2.123111333311143,0.8726894505594499,11.742103272976223,2.4052920390615213,-3.1094675523608535,9.726397304570845,0.25185750694915143,0.028176493763155334,0.028038966085942273,0.06093297925849528,0.0005164272557896038,0.20984345530094203,2011-09-29 13:55:11.624312204,11.628464868
49.00764552858508,8.39512708670624,133.86904901649595,0.059854285858170174,0.0090875867871572,2.760399057888612,2.715560831281733,-4.822121285153449,6.719573515730048,0.04530828411311898,-0.042811842828276866,2.128571070493143,-0.13953421592942722,7.470253801271234,-0.8671407275731355,0.8857193792477864,9.813171038944537,-0.05493885443969772,0.11079524987193333,-0.04632213422157989,0.06346072521040902,0.02866563485602293,0.08414056038756172,2011-09-29 13:55:11.734309502,11.738462166
49.00900294579349,8.38855834276237,113.0736753263709,0.0017295238439999083,0.0192001079414445,2.7964165336509583,3.8305927598146043,-7.0076044387922884,0.5695904083806433,-0.11436913206078231,-0.05814811379984529,-1.0225875566373663,-0.5021740675101336,13.414385852971796,2.436384556231657,-0.03598657218011006,10.491047840850847,0.03953117349225395,-0.14548695579745294,-0.034246974239594045,-0.0775208698483276,-0.06924578860159522,-0.13917883346359217,2011-09-29 13:55:11.834354622,11.838507286
49.0092649703207,8.401992385758327,94.68778898771217,0.03557944777385044,0.00039959643677210405,2.787986939165531,1.5533578384097553,-8.893585224318631,1.9761820130424144,-0.2269654267036279,-1.139295623834165,2.337288257245755,0.880778311683404,10.269885929089975,1.5924767676655036,-0.16980676094300545,9.698883845743694,0.19611825190421484,0.022891461810174166,-0.057874633907750474,-0.011261829135118324,-0.20748096774792701,0.032656569548528164,2011-09-29 13:55:11.934286457,11.938439121
49.00908058043457,8.411875328716055,119.13008216421422,0.17431895503569048,-0.03163355754421118,2.608694676742992,-0.7086248336762893,3.2932656862302636,30.938397694653478,0.029654054851567357,-0.04104684401899811,0.978883652438976,0.172996245103302,9.947592568196177,0.7178792724130578,0.1698816069860147,10.222682551780748,-0.0839388233184653,0.06645898538128212,0.09747807985622836,-0.018939350017400443,0.11043864004640228,-0.13005195023534055,2011-09-29 13:55:12.044252175,12.048404839
49.00878532335204,8.399662292795876,115.78620191699378,0.015401439346431792,-0.009764295930697792,2.841857929650563,-0.010816785678854357,-7.912415331245829,3.3712807293086144,-0.2699939288022404,0.027324450966016847,1.5156502860980006,0.09208494550141533,8.025572366140679,0.8128630084706107,-0.7823094072830283,9.23599567256709,0.02893091342907291,-0.16954620465856327,-0.3240953821075308,-0.12076467506249614,0.10189487471475209,-0.4575291323549042,2011-09-29 13:55:12.144263817,12.148416481
49.0100742941368,8.397392797532717,128.61340225587372,0.04701723965920386,-0.03084260844591844,2.6560464039980602,-0.2893356628382677,-4.818649406932746,-6.020419415115125,-0.7474577754967618,0.004851613522449777,1.231967891281393,4.292241034931703,8.747696038929416,-4.524187129039584,-0.9819103564501405,9.381562168047228,-0.02490346189163523,-0.04151532301822765,0.0001328090537386431,-0.3445533770114429,-0.1942831493498398,-0.10115717447096093,2011-09-29 13:55:12.254214496,12.258367160
49.007724793938245,8.397685533510872,112.01906956448109,0.04642614103421924,0.043142314500447164,2.614434284381403,2.3028601421073724,-7.4430483072135445,3.8860983986945845,0.5050530150438122,0.23003405433333934,-2.9013233086829504,0.4728034196976499,10.214987788195055,-1.1667290445259666,3.1822149631771666,8.888375753372413,-0.2611306212314555,0.015595351069778489,-0.10779009257006947,-0.045916712818162425,0.02060555194699494,0.24007517056945674,2011-09-29 13:55:12.354264946,12.358417610
49.009446044163305,8.398163812376103,113.48658325109776,0.0692080514042516,0.0051436796765191705,3.7521643043466035,3.8422752567510257,2.0410222185895526,1.7082601904414556,-0.42245693581633625,-0.06103400810882504,-0.29206820165022096,0.01624560621102436,6.97181753761594,0.5957206241393186,5.03125972108993,8.518823345626387,-0.20596893610522737,0.03506808899193195,-0.00184751874460427,-0.0034598180982638154,0.03557846047594865,0.032353383172603445,2011-09-29 13:55:12.454223537,12.458376201
