lat,lon,alt,roll,pitch,yaw,vn,ve,vf,vl,vu,ax,ay,az,af,al,au,wx,wy,wz,wf,wl,wu,timestamp,rel_time
49.00955777970165,8.395731070263231,112.88746223330544,0.07023964321926864,0.01867590293377562,2.7328613643417436,-9.226540802046978,-1.6363791275583002,4.5705421104866035,0.5216394799770986,-0.1114313923583147,-0.14593768147136657,0.4504295131164519,15.929538619933508,0.9321475157684374,-1.7243809278219033,10.75890746636674,-0.024129932273821646,-0.027063294434267443,0.4062011377799783,0.28275665980339554,-0.27884745958709056,-0.12748321965816953,2011-09-29 13:54:59.995847336,0.000000000
49.006880000805346,8.399446253128117,107.85811493491063,0.07605604795493869,0.02884448096679569,2.686377177430482,0.948365042539417,0.9561163993439913,4.855134607041565,-0.024162100431994932,-0.021469469027913423,-2.4463113309257065,-0.2777074167846231,9.208063906669627,-0.858827575512008,-1.9136203110784809,9.05574814435659,-0.018920526485337992,-0.02467004895665008,0.019900019756396298,-0.05973788740463401,-0.03701404269111974,0.05469180612023167,2011-09-29 13:55:00.105811344,0.109964008
49.007557324669975,8.411038419242013,122.02253546979576,0.06059544203989274,0.06564573268607138,2.539636441847463,0.9985909263051891,-15.41416986025151,-13.752958372055012,0.24275754869464408,-0.14993581256191613,1.284318752989632,0.19026597186231248,10.762895978054589,-0.28457280991640677,-0.10378565582874827,9.311370841193286,0.0014975710584231878,0.040805819011399166,0.06335590977862714,0.016235849149979022,-0.012604396353498405,-0.1061085886223979,2011-09-29 13:55:00.205830857,0.209983521
49.00925501083213,8.394916736025362,113.3029712911755,-0.09422546567949616,0.03525529159813682,2.3521436475318764,1.8604086690583892,0.17322607580026905,-3.6959397612204548,0.3113660862422766,-0.030787259645169235,-0.8581023958316548,0.23169106146212842,9.66101789125245,0.3719684528432558,0.8418705865652899,8.913974620941213,-0.005060882320498111,0.2639741954897881,-0.10779249987656064,-0.027589096804583144,-0.011411139733723399,-0.0025570598721073833,2011-09-29 13:55:00.306034581,0.310187245
49.00857933743043,8.395600870375475,109.61342563612703,0.029901520832333738,-0.019651756409027214,2.610166505041077,8.386193261832188,-2.3720815415337118,52.40016575291277,-0.13113412768478078,0.18079529322305166,-1.4381935447535785,-0.33606863015994437,8.721726274071468,2.433071698614027,-0.5304279880525196,9.908674307488639,-0.3954524839509131,0.02206758945944775,-0.1859702671902507,0.015675187213280338,-0.016000924066423526,0.030221711183660325,2011-09-29 13:55:00.415813621,0.419966285
49.00764717620534,8.400327883272793,109.19499787336254,0.03899684705976976,-0.003813327153219484,2.8651397984064806,-4.016192921394667,3.2799550403559636,0.649017478307228,-0.4501581321699736,0.1811678765220958,-1.9006263423195315,-1.2730746894201885,8.814434696820534,0.03211532564937153,-0.6857347158169188,8.788189128812238,0.3337343554949445,-0.07398323611659671,0.04218168460731481,0.060938433201562586,-0.021873789585662932,0.07376715035794949,2011-09-29 13:55:00.515769138,0.519921802
49.00824076535422,8.400016082905926,112.63385023120017,0.021759756557905036,0.01491224154012805,2.492304868237997,2.348951089576981,-4.621080048808701,0.5389084549755687,-0.06476485442942086,-0.01701126221189884,-0.4433358786404212,0.654330881719403,10.263892199529144,-0.8623119114165294,-0.0639048416117367,8.903711515190361,-0.030265507332791007,0.014970197655400003,-0.12548443066780365,0.06463085167603225,0.010948292699413335,0.02379948640589249,2011-09-29 13:55:00.615725458,0.619878122
49.00896880850676,8.42870128111962,112.18945774804214,0.08275297517439917,0.04788764206344532,2.671082652859936,-1.3235712643327575,0.6190413107942042,4.09904136488456,-0.10121127090121598,-0.11532088855207387,-3.150296709784781,-0.2793405186284666,8.608096270843301,-2.4264587857542916,5.714697231208684,9.698067803032528,-0.05097554168883571,-0.027818270121499282,-0.2536401421116028,0.03224545858176396,-0.006896601445199834,0.2788868742491797,2011-09-29 13:55:00.725727428,0.729880092
49.00866759828341,8.398762956696117,114.41120722577632,0.003353887489834763,0.011242316828201745,2.618503290885714,-0.16763893156674503,-1.7651731082712105,7.786754737082941,-0.24213076252405202,-0.1001713807884192,4.903732366078714,0.7285217224957832,8.864677918890148,-1.2529580081505054,0.6954871508253315,9.449207080149712,-0.010325326149652144,0.04804944117993046,0.02191429868444073,-0.05343242173721601,-0.0075490383971721815,-0.08367876570826317,2011-09-29 13:55:00.825902798,0.830055462
49.00870187686048,8.394781745569029,117.11656234067803,-0.0013908750170096018,0.004799807812417296,2.284127388713777,0.799777103126976,4.442667022842938,-3.5365779201701724,0.07404331372522657,-0.020545671953953334,2.5911943121753964,0.48555893062978683,10.038600353143718,-5.88732955737348,0.0983498424645181,9.614972169518667,0.01971369387731861,0.009233919420219814,0.3759999384680061,-0.002229424039448572,-0.10863804925927556,0.023474799835821507,2011-09-29 13:55:00.935691380,0.939844044
49.0094715735524,8.39688650544796,113.75967606272658,0.1620837211925247,0.04173431736576744,2.6665367504110478,-0.2873339865142456,0.2643489905878883,5.515383513434392,-0.3142525255338889,-0.12915253665549137,2.153361618967213,-0.44120457174298056,8.848401923701319,-2.025304701605732,0.107837413512922,10.160819036962238,0.023546683879219012,0.0021118682966543827,0.17947067043619608,0.04526437296429732,-0.06642351119149205,0.17665282486033385,2011-09-29 13:55:01.035679783,1.039832447
49.00912661991108,8.370921709480228,111.87961944314603,0.07615422229742935,0.05124027612028214,2.684544764861505,6.130147679341031,2.3991695484010775,16.39517978305073,2.8767560425177945,0.13728498506869682,0.8009167114811883,4.107170452349323,7.704513210758796,0.6389964626629004,0.3083144481068535,10.156918748152375,-0.032597105736242415,-0.020267801464027013,-0.3659785470237336,-0.08114529371207573,0.09101175206860368,-0.6121191699807804,2011-09-29 13:55:01.135684518,1.139837182
49.00713019953717,8.41727989792167,88.8413615382432,-0.021901308756427883,0.019432509954446776,2.385334754963315,0.34581859464028253,-3.3783920426054372,1.5704466579297245,3.151200020254475,0.040979617602225855,2.6818648100802958,-0.36407307635802727,10.522595885893166,1.5406431164182024,-0.2627903824857013,10.056075877006851,-0.003844098522072418,-0.033245157007537864,0.08698982415381998,0.013732539697941915,-0.020508352532010585,-0.10530593828803422,2011-09-29 13:55:01.245653433,1.249806097
49.008513409420765,8.39098479857301,114.96897089936623,-0.0048369563577047095,-0.0027470510418211164,2.572204016938081,2.5289101646875576,-5.679397181375924,3.7285594900936694,-2.8406496390917204,-0.174931212962028,18.047646270825126,-0.16013546607816892,8.957956594422566,12.090374846362048,-0.6373495835290443,8.791356501140777,0.017909777261325883,0.00994977622911205,-0.13345005810853147,0.038234549389765234,0.028369576876610292,0.4355072526527162,2011-09-29 13:55:01.345864966,1.350017630
49.00934328549862,8.400592037043811,111.35552831219417,0.050033534626029566,0.020467048963290095,2.5910023652398464,0.7933998022234423,2.718554609885529,3.6726011389113724,-0.29127445401871876,0.47025400429077335,-2.0224144201016045,-0.017837931667307114,9.544268344194004,-0.06314105219117502,0.2827536697185834,9.472827346139507,0.026232882954395666,-0.08342419306075441,0.027510421369618974,0.06664240172365306,0.05861802354602772,0.0785622462323215,2011-09-29 13:55:01.455611505,1.459764169
49.009737854099015,8.406917712368198,114.27686178686096,0.023732707096533304,0.1564846761931226,3.2134247904575117,-0.9846713349900129,0.240842182167533,-3.546841358285885,-0.08533805615942983,0.11117155371153278,0.14732954649710767,0.26787933646159384,9.417227090795818,1.7671290596744322,0.30009973870564705,9.253199513874454,-0.003814011930787852,0.038229480516522446,0.18114032970759414,-0.0014162658603721102,-0.004158543906876162,0.4694868841852453,2011-09-29 13:55:01.555624065,1.559776729
49.00893366140512,8.397677483153922,113.92996106677418,-0.019649795587511665,0.10083706473750581,2.74776341550207,-2.031004686280128,-5.172148827207003,3.8250214135733684,-0.2976009995991644,0.04413096120441123,-8.408312464076968,-1.2288562756210277,10.54643029375515,4.07063201463669,-0.2628385242864008,11.300812830358177,-0.057443839767191925,0.034931398483832386,-0.501512791924984,0.03263987517263496,-0.005464680086528951,-0.010999220536754905,2011-09-29 13:55:01.655611506,1.659764170
49.010147709289335,8.39484726706455,115.83349523900779,0.042540023473936386,0.04525692809820986,2.8412638029700372,-1.546322835063317,-36.49623108003387,-2.676070685584797,0.20465293520284797,-0.0973342227715122,3.379003150686425,0.16576331448050846,9.020225282489367,0.07993553787917684,0.07085656431004836,10.113664487389697,-0.07909888869732472,0.1031524596258613,0.07231567443971729,0.021234494444130093,-0.016888496992446315,0.10060290033651065,2011-09-29 13:55:01.765596822,1.769749486
49.00941659219845,8.398355487406779,107.73495380257887,0.03045591185560534,0.015530743174520554,2.6270606312545506,2.093841862284067,-1.9901384367178276,-0.42233897145263666,0.25788207276429403,0.012086119307891371,-3.92503057572441,-0.07811468315835904,9.977450326950878,-1.1915586350488414,-0.8439281465911773,10.098545591942703,-0.020383662215677185,-0.03536050368867098,0.15884958981331163,-0.05366925781758502,-0.0398799306103734,-0.044975339159395424,2011-09-29 13:55:01.865671942,1.869824606
49.00879255167106,8.395579005390326,102.70486677284865,0.0006305757763537811,0.026267167323536622,2.1500189290330125,0.7087512512396561,-4.0536700084141355,4.248784051355952,0.6733008481111109,0.9216658338121764,-8.623061141832093,0.9747163838376527,9.854598672113681,1.4876233225197293,0.18032824661319016,10.144210607759272,-0.04797259709541213,-0.025519810999688294,0.2772341103695506,-0.011592614388985602,0.025236350695767743,0.2499619605019973,2011-09-29 13:55:01.965532639,1.969685303
49.0116388829487,8.395242164008222,115.84080898124246,-0.11463613965672667,0.046018415745925335,3.91581404343372,-3.5227449596877287,-1.2174959194557693,-0.06652070384419084,-0.38351286663029516,-0.08168019304621175,-2.1817643863252942,0.8871811212464359,9.792581893609446,-0.17022587138783551,0.02223994724686038,9.21100083101954,0.031698532492149455,0.0337112110505658,0.2692388390109596,-0.022852902979370013,0.028501720304327568,0.6833697227407204,2011-09-29 13:55:02.075563847,2.079716511
49.00898704964138,8.398954590024267,104.55471628849916,0.03421259617218433,0.0454609677734368,2.7441665965036663,-0.3932304129798365,3.1403699049731575,-2.862575530798122,0.14009161131213727,0.7185208379375138,2.1229325136159294,-0.18875749927938912,10.26699294116584,-3.1661238502325064,-0.04221899137038128,9.72399301772497,-0.515128577661988,0.01023336979452522,0.09702704820832839,0.006877206209613762,-0.2533385890728199,0.10998180660401585,2011-09-29 13:55:02.175522659,2.179675323
49.00805907022528,8.400233400080678,118.36981756718907,-0.0216717346580022,0.06219566366720955,2.593763239604416,-0.24609535517407521,3.4743855671852395,3.638441604038767,0.3330405522743015,-0.20574399036309926,-7.531156743647487,-2.9709300442003674,9.900607576755247,-1.5314933148624497,0.8908462185850176,10.593473885974605,0.028125930524029487,-0.04371348701320088,0.10695912013549483,-0.017906738249931865,-0.016681595989798403,-0.08538656234976116,2011-09-29 13:55:02.285523626,2.289676290
49.006204450774256,8.403837167863173,120.93765801559458,0.05132101545691607,0.02441885225625923,2.7863716187466574,3.824421317236287,2.6181732343345754,-0.6436289426324684,-0.6916005523627241,0.004604120648830451,-2.33449251346952,4.841583987335019,9.839644948002618,-2.2557443270608797,0.0775731168022738,9.792246918420886,0.022506341023013417,0.03238374998281403,0.3442209637802005,0.07985414733963872,0.001225430090260029,0.06562046969591054,2011-09-29 13:55:02.385536958,2.389689622
49.01003547130679,8.387856549178382,115.78012921428275,-0.04101005777333791,0.03160605003465556,3.24791103871452,1.0526219230388327,-35.798763875620864,6.131025710855091,-0.12360561186634472,-0.6025172946009482,-3.022110829403938,0.5436006286069253,9.3971824713997,0.46157642041728875,-0.24396147071036242,10.72982501598259,-0.07197340786560769,-0.05284894008205458,0.13379397182054065,-0.2155220327292358,-0.04968273736911399,0.06554377236925331,2011-09-29 13:55:02.485503452,2.489656116
49.00834336467355,8.406012553145322,105.95300805777642,0.03990107779305482,-0.05820525244214386,2.2097055803873245,2.292327146882625,-8.140609287377506,17.92966289549182,0.06103073508398774,0.14365777466864718,8.145390570931562,0.09076601166699517,10.116929537756935,0.7251897652372242,0.3921950904840451,10.018222237170612,-0.013691592859813084,0.032055244427575735,1.7627813297471568,-0.032931620579807364,0.022361745574244675,-0.10467294823742201,2011-09-29 13:55:02.595512122,2.599664786
49.0102296724473,8.399987762505491,115.12768954713958,-0.021315139778086897,0.009967817377232312,2.8819766593119924,2.9857190489284604,8.355785099678355,1.2837788078572752,-0.3042816768303165,-0.03291478722025985,3.9959870712100654,0.9895515097169679,9.764966650455996,5.356495737361263,0.7550095661602932,9.974509146643454,-0.0158472182469499,-0.025358808171157696,0.07286622319239494,-0.04527156082277485,0.08813215292475304,0.1817824583518015,2011-09-29 13:55:02.695466242,2.699618906
49.008563598101624,8.397440253318896,115.6016527277123,0.007068924792710008,0.037242105800124284,2.7554112336493173,15.323665748053438,47.30008279914567,-4.974019014058641,0.574806380051819,-0.139176130710913,-0.9069383444197571,-1.1497573026310013,10.3763886661989,1.030489231431997,0.26102125442785595,10.519506626650088,-0.0370384836435496,0.003764893721895575,-0.01119466533921648,-0.0034257000740955724,0.05532644264703183,-0.1729559416095678,2011-09-29 13:55:02.795588299,2.799740963
49.00855920460537,8.398862066283224,106.36255600676604,0.055207001007651205,0.02257782983451659,2.618624469245119,-0.28095866772955447,-5.073738803650372,7.933091636698214,-0.3379814777611557,-0.24832352766839813,0.1697190033937338,1.0546308544695677,9.935123161056117,0.34980098502625667,-0.7571385476402432,8.775390042500685,0.11246976378442841,0.008800280579808067,0.04403777946530314,-0.020123535600803884,-0.03735756928573587,-0.0056769952215108554,2011-09-29 13:55:02.905518729,2.909671393
49.00830371981877,8.396936032302776,114.68634319261224,0.006881953779369888,0.038455750878630256,2.8974092171883137,1.6150487184639726,1.8121141624580137,1.1435015125468047,-0.21676718354539495,-0.6280778928534456,-4.459752990050411,-0.09547119486429695,9.592569935318418,4.1596058863472,0.011011382802154447,9.95767366114622,-0.03601392186385724,-0.020679688722511302,0.02359531058357012,0.1773627727753372,-0.12715155001639963,-0.11014545236606622,2011-09-29 13:55:03.005443506,3.009596170
49.01062095645476,8.396411662744374,114.43607281080402,0.069023796450587,0.02768186769119491,2.5799522855865997,-1.1828397816784486,-13.844332531347781,2.8565864348415535,-0.27832238926853575,-0.038328942649563526,-1.1487032366520176,0.4539223980065452,8.990667853635054,3.7355272036718694,0.16454203481451143,6.643152780157442,-0.09307498741560917,-0.032191807296371125,0.056740702231529425,0.04935556163646014,0.05681067045953078,-0.12969058105227133,2011-09-29 13:55:03.115443912,3.119596576
49.0086539147305,8.40044941614659,109.64013847329485,0.02902997238826719,0.011089960654368188,2.5716621253530114,1.3635472916161795,-8.266807234421398,50.285914051335666,-0.14922183102352374,0.011507308705933188,1.093952247341032,0.30743931680207703,9.285226392623187,-0.08273405986886395,2.4488792943117215,9.423803845388823,-0.009448248691509812,0.005635507545860031,-0.10310265771259826,0.20075194158429002,-0.01531114498236871,-0.11554499335189679,2011-09-29 13:55:03.215402882,3.219555546
49.00952417403358,8.415246807991387,108.84613342524521,0.010878847463072733,0.03254097103860656,2.91496392956704,1.2730146719648583,-5.956574326082979,2.6295302891965626,-0.1434244436560305,0.02984908938566328,3.9467638954701343,0.6647229956630663,8.775070636287202,2.035907884030946,-0.23987838221969315,8.49188108534946,0.013334749122338334,-0.030953044222329428,-0.39766181185100774,-0.07624905322928084,0.02141923954029839,0.012150283695823598,2011-09-29 13:55:03.315569258,3.319721922
49.00893261230753,8.395615137144572,149.7930423253827,0.047632112382695144,0.014309146098648202,2.5836974161356476,-2.42191242549216,4.3398358349305575,-10.437761632045671,0.3710104154072324,0.03304440085033135,15.486214799311037,1.388100357481985,10.097893288898346,2.6095788422355852,-0.6435543381694477,9.033374705684478,-0.24215661913392528,0.04823184089314583,0.015953912210375162,0.032063036250921016,0.004862068097023914,0.2082457519480917,2011-09-29 13:55:03.425414723,3.429567387
49.00886870267982,8.400054447404674,119.17072259157415,0.003778358138298663,0.027439990809771504,2.8810634594515814,0.28617578758431683,-0.9423831014353812,9.3669189598153,0.5267394596471554,-0.17065859558002894,-0.15817530061255547,0.6328898867336871,13.282938321694045,3.65356211095913,0.10354904500579545,13.100568860396141,-0.07298018686818059,-0.008132034670395697,-0.0005052842981547317,-0.06169892366670101,-0.01874897738049979,-0.03899464934743867,2011-09-29 13:55:03.525325238,3.529477902
49.008470138987285,8.398255649595725,110.69974828965947,0.08574078793416279,0.021693012481576734,1.2772216638209846,3.897608019840351,-8.742888408530558,-1.4658711811310194,0.41494395036946724,-0.2696787593605003,-2.537160837591346,-0.35385360781917985,9.280801674298422,-1.9085653377166882,-2.091548428722668,9.63082526074376,-0.011323885911041203,-0.0042511547717943325,0.07073605466391063,-0.024199082059824007,0.007146461768018647,0.059373386282347805,2011-09-29 13:55:03.635350561,3.639503225
49.00889877905454,8.399127653587804,109.961792795049,0.00602753635073525,0.03893271549753439,2.6572597174414065,-0.9561311025614128,-2.1590977973393772,-0.36808221610190905,0.004354096260789669,-0.14247912825666276,1.9094297192846872,1.2569830712707135,6.933480465623447,-1.3091626147167381,-0.4278946483634969,9.878013657828044,0.10486007234380919,-0.06899008809748951,0.01558447369717178,0.3703351232993392,-0.06763413029390329,0.01835210701845457,2011-09-29 13:55:03.735305746,3.739458410
49.008620853226375,8.397629093320235,119.30436037310547,0.03481528708176526,0.01985832472772415,2.347038469665699,1.4361376881433923,-3.062723753203235,7.1094665285324545,0.4476702517861603,-0.3437634087192604,-1.160918332829803,0.9687957735235754,10.437429201401663,-2.1116776567200892,1.2176272334542908,14.011980971208619,0.01501573049225308,-0.049911949394996734,0.0064515982839561115,0.14568532093571326,-0.061288679033955004,-0.44816131360949185,2011-09-29 13:55:03.835447119,3.839599783
49.00865579970307,8.397372547111967,109.97797224308998,0.014592241496540424,0.04094617488599339,2.763505409544968,3.291145252794431,-14.628783656123023,7.434445086672738,1.5025452145582523,-0.07393178826693818,-0.14491584190115725,1.613927177825812,10.571251632489364,5.679335287835645,-1.0196273599970058,9.321980084612248,-0.06097151233371369,0.002229958801583283,-0.025543612319318294,-0.019052404764962325,0.10796918975644682,-0.03487286766998495,2011-09-29 13:55:03.945287260,3.949439924
49.009622939743636,8.397910238143004,94.26205680988485,-0.038527353217028035,-0.010597159947946081,2.5761323440939408,0.044134054798735334,1.409825100847443,-0.41740216704904753,0.7235915527598339,-0.1412751378081214,-10.937843804845457,-2.308485295672522,10.612168639086862,5.680839818253084,-0.2968087104853877,11.342748482653281,-0.14892178456615654,-0.04780331445235103,0.06897707615811409,0.32045016497707346,-0.09817592859630883,0.05193099727238011,2011-09-29 13:55:04.045282871,4.049435535
49.00866513942837,8.397680650120737,113.1984933564135,-0.01381864455670366,-0.016488440471608353,2.494274097455602,-2.3975820009606537,-9.747307572866376,5.703720570506624,1.2685044517619706,-0.16762350501476778,-1.3053720525274322,-0.28921060050023323,9.756996973739529,0.24925379740106757,-0.546387159848331,9.410905425819314,-0.3173932005625673,0.06696177208194658,-0.5904245485841456,0.0344262879891421,0.08986633606815944,0.5532049877553783,2011-09-29 13:55:04.155264902,4.159417566
49.007956629085946,8.40991513341039,113.21259680041891,0.017687163794504787,0.05977445642023946,3.1994755161868063,0.6338008352876427,1.2781414465397516,2.6177328882132707,-0.10618333039073749,0.012094535500373878,-14.815262888806352,-6.53314512223693,10.228356632916734,3.1006832540806,0.33079199181740415,9.788926618519753,-0.01738894499695777,-0.03155782995669744,-0.01109180455895395,0.11165440369234733,0.003511830518697745,0.017201759286408984,2011-09-29 13:55:04.255273614,4.259426278
49.008722010150876,8.402683711421172,109.57717855955082,0.020265375872686016,0.03476913869885691,3.0884010937014033,3.0800742808136947,19.1826231915296,3.33182378049034,0.16692351692823945,-0.23427229045248202,0.6816314079927874,-2.6482914608260772,10.01889571619151,-1.7413992653535408,0.1476244985879699,9.32018279038818,-0.046101244993889796,-0.013620992920620746,-0.20841446358199348,0.05353102051304729,-0.0049431340727967375,0.033366945597784366,2011-09-29 13:55:04.355369684,4.359522348
49.00896920844238,8.396160625155783,120.5603324413977,-0.08273444323473564,0.010039260561407422,2.9086092858179633,0.4857627559089618,-4.992440419572263,4.398785268142335,0.5418283533247299,-0.0587352780046375,0.903497776974814,0.9448999626481676,10.009194290179167,2.977306751877804,-0.3358137711543129,9.188936392887584,0.06567372677409963,-0.29473843561873686,-0.07118004655478163,-0.23986974218763546,0.027501473042346403,0.540617704105936,2011-09-29 13:55:04.465228821,4.469381485
49.00909836341408,8.39966366813509,107.96722976339422,0.06510707528585252,-0.029385936254633836,2.92773372984761,1.9960422465745857,-15.88267158213635,5.771096257608083,0.3127451634747732,-0.05358251022983149,1.0772636510259568,1.3375988006403974,10.035052875083126,-2.290753404720486,0.7613735879073873,9.356119079013936,0.06189752573742277,-0.09145677536052184,-0.12513077779604126,0.05192260063110453,0.009683058457402421,0.18704082078367879,2011-09-29 13:55:04.565286283,4.569438947
49.007851634393674,8.39775703243842,106.07556935342647,0.026402142135991777,0.04861640606238403,2.8561557655726495,0.523009512413441,-5.098445308117062,1.9337387509174453,-0.227553898470771,-0.043874053016144346,1.3801805277030548,0.9377974153428668,9.826368728296625,1.7130445182760683,0.20443277484028427,9.870161602420087,-0.26099285113016674,-0.07832378635319077,-0.3689909009128529,-0.03143699471081604,-0.01630808974259273,0.08512652156139992,2011-09-29 13:55:04.665211314,4.669363978
49.008902232483045,8.394613187324492,115.56422035052744,0.04119334594691437,0.057030667039004584,2.964636587339936,1.5883837348208245,-9.691118996961118,37.39128643898971,-0.41043970747645636,-0.16235899600521908,2.99844938964768,-0.031593754673678365,10.533151788562021,0.5096294656788718,-1.9812190733068584,9.398969789226655,0.013106985140066812,-0.038109546966131745,-0.068742977825662,-0.11207577907530375,-0.041950347645353776,0.35596442821783153,2011-09-29 13:55:04.775241175,4.779393839
49.008240067465564,8.401115292936899,116.07285241271292,0.002000980569508884,0.011691415433265311,1.883264334649689,0.06529117168830645,-1.8868508548923364,-5.674315890457441,0.05117197993544306,0.04761718464862428,-3.9311153443116296,0.27258087149959737,9.598525045622056,0.09879402037813356,0.03430618277298361,9.948175871465637,-0.1283934126798755,0.12194514208258858,-0.16610550295213322,-0.03952148459466029,-0.0653808128521914,0.11723767337758649,2011-09-29 13:55:04.875228552,4.879381216
49.00930391610742,8.398540834854971,115.9236236965414,0.03987245032620704,-0.0005868225908397771,2.6680324435636567,14.381628449928117,-2.3142129642284166,4.319336679088014,0.4288701637585947,-0.06213623935284732,-3.603586500456539,-1.4519026177492915,9.256924763860237,-1.1167624234588205,0.48238818854794757,10.073519089494324,0.03801376878142847,0.006848600096584896,-0.060139117215310275,0.41105488433897047,-0.1530057789303077,0.04206249493487771,2011-09-29 13:55:04.985230209,4.989382873
49.00877168842404,8.396057857089001,46.29389717425582,0.006552245925205598,0.08216225038832539,2.645699642859009,0.14193287485477812,-6.167872698421308,-2.2406835186608243,-0.10199976669358853,-0.21768116668434528,-0.6658607782882395,-0.1669575936973084,9.718228260318801,-0.9247065680844969,-0.09824254822395158,9.308268320513593,-0.00816837769166806,0.14078527815938213,-0.7054732621726179,0.01700336887230978,-0.016773851576693852,0.0578735191302963,2011-09-29 13:55:05.085149691,5.089302355
49.01713422977973,8.373525207762599,123.84463514069898,0.08885864673745256,0.2652803520456051,2.794787446905122,-0.7018219427374113,-5.119992317850998,17.059341727731713,-0.4173317900269945,0.6053773772488822,-0.9366906468124553,-5.461304402502058,13.0783681248813,1.445813169081982,-0.6104465651546489,10.327546238094238,0.17504008402148896,-0.19279287605609907,-0.1270983284235484,-0.032820840499046613,0.0067939542357138925,-0.025622529908149033,2011-09-29 13:55:05.185149475,5.189302139
49.00919605073663,8.420644489899631,114.0157698607918,0.02726360336033127,-0.009133115339384056,2.838917697142783,-2.9502715225980314,-17.909224552437635,3.3528020870816624,-0.3266228313355413,-0.05204681227668753,-0.8857957708204465,-3.080421238308247,10.015992729383244,-1.6116236586623596,-0.36281083305574835,9.999260625123119,0.029986926301943193,-0.008053674884199363,-0.1455293990380252,-0.003909513512818822,-0.06735773438458742,-0.02207759553183577,2011-09-29 13:55:05.295327121,5.299479785
49.00918402239014,8.397703183404149,111.56586557148597,-0.012506812441629874,0.027508744768836024,2.620727016353047,3.314500037617033,-4.94002653640215,0.3524561740367571,0.3202624738286045,0.2189537018830386,-2.711163695198485,-0.7627141501431194,14.15831033329698,-12.875823406805626,-0.4078117984134817,10.67635721583289,0.04207916662070051,-0.6816108026856745,0.0912508146184608,0.008037933323902825,0.04104557778156576,-0.1626423845080363,2011-09-29 13:55:05.395156937,5.399309601
49.01057463743014,8.397098071936725,116.60867674960394,0.01742982344107903,0.053268551462871766,2.9461199153936244,-0.8038831578829282,-35.11888611728639,1.415188097981983,-0.08402651507013728,-0.11672894901887557,7.073072482958395,0.41811149967820566,12.55568442266842,0.5635741269098816,-1.030254653537336,9.481855651515678,0.12271275489949934,0.08997310045712321,0.016977957880775413,0.048669187569514494,0.010227500503469017,-0.010873889604747312,2011-09-29 13:55:05.505103240,5.509255904
49.00940037667627,8.39694341455088,110.91275151102322,0.15580009552426524,-0.04241583207223303,2.685815210559592,-0.7483721837246402,-2.397501703012863,3.1770331267057355,0.1567982396579975,0.011240018886958483,0.3189016304805616,1.645831251826253,9.634547362793024,1.3294210429460187,-0.15553617184727228,9.469954692910477,0.05454883816335743,0.0367193657036752,0.10271216915212009,0.07827383638867175,-0.1340974571463675,0.04754675360762241,2011-09-29 13:55:05.605109881,5.609262545
49.00869334747235,8.39547421256554,112.27637257327825,0.2132521037050222,0.017675701983242385,3.438220913146513,12.130106673389841,-3.3230487720292907,9.305492523508708,-0.308582162046997,0.0733518830833249,-2.342833043200547,0.816733792721128,9.554651955181978,-0.8788275423350638,0.451885507709067,7.816781820203114,0.018881790107423642,0.03817623075544174,-0.11940443376372334,-0.04726894141068283,0.013236902664290102,-0.10501232758178417,2011-09-29 13:55:05.705133809,5.709286473
49.00878862700628,8.397044573780457,114.90964394006485,0.221881843466317,0.04907782026919619,2.7998715279910846,0.8026587761683077,-7.068204464060141,3.3493744709056,-1.5841024122548444,1.650653675357597,11.81698018736476,0.7093886256132544,9.20864289868015,-16.944234635522278,-0.1996533541398611,9.637136390544182,-0.01577585390509309,0.03595740820374042,0.19234266368555214,-0.09199254001316338,0.006110499093962895,0.07842030292336225,2011-09-29 13:55:05.815280928,5.819433592
49.00855888146952,8.407647675874083,109.16417078085897,0.04915797283648102,-0.013570173943108922,2.6885411944948325,1.73250946277275,-2.822470398985221,6.3698317581209025,0.052752751604640366,0.44138203585069324,0.7923070429361381,-1.3166159501230883,10.057535028521654,1.144667811180836,0.33359209231607745,10.004358430363805,-0.023585684923535275,0.0077397485987153476,0.12009027728378428,0.030733884204337224,-0.41364191352396423,-0.8597135464315135,2011-09-29 13:55:05.915101083,5.919253747
49.006088796391374,8.400949209041505,125.57127306586524,-0.014712749374834716,-0.042890935135998794,3.6177069607448162,4.764944258598903,-2.247603608002704,5.933607418929439,-0.4963288069477365,0.034565807191059145,0.6190178091995222,-0.04244515459868347,13.55273913544592,4.430611672196031,0.4880131513704932,9.64942307769875,-0.041147309704782926,3.0336614865580382e-05,-0.12458201115542283,-0.23029066673695525,0.012285414136022571,0.5316120191822797,2011-09-29 13:55:06.025034583,6.029187247
49.00833917874531,8.39918711713318,111.95712167460343,0.11474687244579423,0.006854190278670708,2.771576308109493,-0.3720329994177036,0.31087858777721644,1.7450156045471854,0.2316626415969949,0.06137806035036664,-2.9848913695743216,-0.2594186774546459,9.330779843662127,-6.2521963968938215,-0.4696821877639151,9.163106536926513,-0.4564892671368422,0.10090697242283561,-0.07067160963982716,-0.054586066267774715,0.037160858921185994,-0.14051171830600734,2011-09-29 13:55:06.125039879,6.129192543
49.01007729503741,8.395595999230203,106.78508628288785,0.007449114306120396,0.1838738958583248,2.7483637877959786,5.660952199779786,1.1853276746656958,-3.4063033205064626,-0.5490851560667847,-0.06117165096426866,-0.24836581650967499,0.49913509426229774,9.825644820074176,0.2250349113523098,-0.5456901102142775,9.824890072956817,0.004939655976431813,0.040140675307239415,-0.5080645102205275,-0.04068731166634511,-0.12581707448523133,-0.0896765927729715,2011-09-29 13:55:06.225000605,6.229153269
49.00876148296172,8.393359969943678,168.33522827091448,-0.022570216014949386,-0.0049255955527817835,2.631538355831474,0.7523733438102009,-10.959029572538336,-58.42864149058071,-0.6957291140278634,0.001746986577740882,-0.9978037714076077,0.7828623485377987,10.341997359456911,-6.922073078911559,-0.23428617417842992,10.046731325382451,0.026495189477776144,-0.00804763911611708,-0.07503461081026991,0.043996443669446925,0.026928968581348807,-0.12641323997868187,2011-09-29 13:55:06.335111452,6.339264116
49.00951049649392,8.39507790796824,114.83490788779854,0.061177644178224674,0.008574974171281741,2.730371062278189,-2.947251689164269,-2.3923910298687954,0.5767810519964534,-0.25535028508851926,-0.0001731886041400621,-0.42996095803855494,1.0678499482999224,9.997145740221475,-1.6723144344232919,0.2634080370395439,9.478306528035757,0.06635950862717405,0.07801838980199559,-0.5078386753480919,-0.31398831931438576,0.0018311361062702258,-0.014170356971643754,2011-09-29 13:55:06.434987151,6.439139815
49.007079842910194,8.396263595499793,97.09094604250978,0.03612739179905645,0.011224656481762242,2.6725810170177136,2.2902404614719405,-4.458229931938002,-20.37341252490373,-0.36472584005782727,-0.04980210250550053,0.26711469602497556,1.2842210222421193,9.87995135778012,2.7460179744113233,-5.299785552402293,10.35449314859339,0.019474526232640708,0.07702258430398198,-0.030292297889495834,0.004878547315191283,0.013314800763099932,0.005596389801658146,2011-09-29 13:55:06.545021848,6.549174512
49.008866749020726,8.392745262514246,113.30233273318123,0.04267711767940817,-0.0060070266623068296,2.6501297179382055,0.445544859617121,-5.402225116269727,-1.5975470948950585,-0.3945153497220281,0.3576241655881233,10.688787674731266,0.19587131295287702,10.841099886094854,1.0145757943451839,0.6245165642133805,10.08239362172534,0.07512907364615364,-0.0019174687953028996,0.08995558361283765,0.25733754755335647,0.02166850079257877,-0.05186184351781361,2011-09-29 13:55:06.644940773,6.649093437
49.00848165595002,8.39907939908608,132.3744785550694,0.017766237335747937,-0.02275108961194192,3.0092970683540274,-18.954173091227496,4.67251719252538,4.425430841362511,1.1058959202145062,0.09736968005393398,-2.16696432648518,5.664675699126373,9.444519954295599,-3.5820566356159835,-0.6834069231997685,10.001964182994262,-0.039626103806112714,-0.029397130434683443,0.011865792790015171,-0.030885183163843682,-0.06067284171327338,0.009913332937737662,2011-09-29 13:55:06.744955443,6.749108107
49.00875782410858,8.394756911085642,110.15134109129102,0.040449358434647587,0.0022568772227326075,2.8560174018605315,-3.3739715002182553,-4.150145423809192,31.857590261749504,0.34477170976185467,0.24960077513217868,-2.222725902486885,-0.4506494761115905,10.105858195587626,0.9137414165469004,0.4372406151122672,10.292969172992613,-0.07545611208642714,0.01577448339892539,0.27762990017707917,0.00010401633304524954,0.029079570128621033,-0.1173728798783417,2011-09-29 13:55:06.854977778,6.859130442
49.014336856989054,8.394511695796677,116.71409171709807,0.04225779621935519,0.16083198183009506,2.574905493167603,0.11902262500202876,-6.424286873055203,-0.2836774026220392,0.07550436842600892,-0.0300886630472574,-0.7312379311495605,-0.024046388168365684,9.745787286122212,4.847375223624974,-0.1425003225341219,10.457695530238722,-0.05944420168241972,0.00517160434136878,0.08435486059543304,0.03869989977834734,0.5747579066451323,-0.1575755982996921,2011-09-29 13:55:06.954940574,6.959093238
49.00813163361278,8.40028476116112,91.22828738262092,0.221338721272678,0.010833117076681983,2.7413108202866208,0.05800296834176022,-3.5584466429341473,3.4111859841560546,0.09206798032044963,0.020148556685873877,-4.075409825103035,0.3247975898508979,10.810193263209118,-1.1842008775054707,0.36602268095441354,9.7509513841935,-0.06258202696477227,-0.04674511408486676,-0.040045721316876004,0.05234702196731315,-0.019976889480273527,0.04029776367398264,2011-09-29 13:55:07.054909385,7.059062049
49.00976461129968,8.392537815200255,117.06930617612932,0.015046658321639456,-0.0006879669865122034,2.5112350704821775,0.7422879199615249,1.2250107543203943,5.624816941510616,-0.02911867061086743,0.6160177072793666,-1.8031711557601013,0.16301758983703699,9.573689158940192,-0.772098420550145,-0.9182844003859961,9.166978009941847,0.05248415265084211,-0.052969654565543145,-0.21167152644501455,0.006188596062617268,0.06511076919335937,-0.15149073849226774,2011-09-29 13:55:07.164942368,7.169095032
49.007732057662295,8.397482880254284,109.4746948836382,-0.018158468351206138,0.0439528007213357,2.365455214162922,5.2380448263273784,-2.073003722170835,4.7624135956009495,-0.7824948712583268,-0.05470264297696503,-16.374724195165797,-0.4508261844245071,10.088002372307233,-2.3679607564066156,3.994575467344728,8.280913039894628,0.08012762419403899,-0.07109263411089484,-0.009726443952744676,0.2263460743262894,-0.0033330280359813395,0.10143016572665368,2011-09-29 13:55:07.264975390,7.269128054
49.0084087764757,8.3966048881915,106.53944753470122,0.012459051594267915,0.060651846771625176,2.7956294453012993,6.535495840416761,2.5756413414745767,0.7294852416655178,0.029558614623395835,0.08832586405351389,-3.989690516960424,1.3107834080373837,9.855174245901981,3.5948872525137454,0.3726416084378862,9.300715410783162,0.01746928098387556,0.5878934342817741,0.7214105605750784,0.020426711691987592,0.0034065890922478966,-7.064220895235812e-05,2011-09-29 13:55:07.374897830,7.379050494
49.01195081901694,8.399915567871055,116.46054418797634,0.03293083477204796,0.013117193799717436,2.5333788044658396,-0.4389484273188171,-4.646889695634886,8.09713912565772,0.9960185582498243,-0.08637370371659563,-0.8083291275436457,0.7590016922657955,10.286147850740974,-7.436192351044827,1.9991269700932377,7.509919178778135,-0.021943455848145443,-0.026462995181471227,-0.041960336493843196,-0.059976352663211434,-0.03979816152539662,-0.24962623193099007,2011-09-29 13:55:07.474856012,7.479008676
49.009178553935016,8.39870891209843,110.96875292171231,0.05485787137537668,-0.0016920034805767668,2.274388646271203,-0.4990874506826365,1.5463284092994207,2.924036991229218,-0.3336383172906572,-0.05562408220982783,-3.9149275146083786,-0.055371812049571034,9.672852708176913,-2.7684587747265934,0.263838622186641,10.650732292411003,0.23887471253693532,-0.03645625752355581,-0.1502204589242326,-0.022126871486707715,0.03778664188089216,-0.09458121541145026,2011-09-29 13:55:07.574842490,7.578995154
49.00932043600004,8.398615061864053,117.89940237779943,0.002589706604644061,-0.030794797409757123,2.5754773470222005,-1.985704262597773,0.02666054192512357,7.828654251493614,-0.5457712084367009,-0.05334038655490184,-4.226038658921658,0.9110230880155843,9.714166618344182,-1.1360154343486162,4.055810659220034,9.94998952882578,-0.03972418699202575,0.038517462278543656,-0.154184662899995,-0.056060116734830176,-0.021236160926959197,-0.15117710525451492,2011-09-29 13:55:07.684857104,7.689009768
49.009294907714875,8.39670656217722,109.47322709644743,0.09637434838686913,0.009622413338254913,2.7178329323597854,-7.224747983587739,1.2724306686703508,4.086267187779621,0.0018328345252815459,0.051532900598228557,1.310203063310691,0.15322566024205178,10.131272986362271,-0.3282598284135725,-0.583233784478528,9.607275348830122,-0.02595203830682364,-0.02915045836501352,-0.04000873615591843,-0.006835398169944065,0.05401889674855045,-0.7285802755962079,2011-09-29 13:55:07.784812817,7.788965481
49.00897641159892,8.401502175543607,112.69830006007692,0.060684948968376756,-0.1583536613640804,2.72073791951715,-0.7439031377712659,2.9344967202415253,8.531857171578483,-0.2550656637085059,0.08819724495929476,-1.9450710680079484,0.43410331719979356,10.924027850713607,-2.3911906461876185,-0.16877587849121553,9.390849149242385,-0.02093180738425561,0.004291259140665108,-0.15526823249538713,-0.014213119435185963,-0.010590799545809507,0.007264169178544749,2011-09-29 13:55:07.884860529,7.889013193
49.00940535341722,8.394684312907827,125.70503384235826,0.1382636791208765,-0.0010826863269871138,2.560958572489889,-3.5516939741492726,-0.6389955790622026,5.136961776452292,-0.0748076998815624,-0.06354974848468876,-1.792726297623355,0.654330706384864,10.183629319853129,-0.9388748371982363,-3.8811005922674116,11.15421497089169,-0.04552468598016827,0.025719504327787683,-0.3087337820258965,-0.0570147238467686,-0.3789604096455408,0.5178041168853049,2011-09-29 13:55:07.994846599,7.998999263
49.00849141947796,8.398910982978057,121.72799855586192,0.013501376470422356,-0.10550894592723753,2.627267548593612,1.1498152895202907,-2.5154620277004307,-16.55847576283126,0.5172293387837565,0.02397696603986587,-4.483009594214316,1.1792297953272712,10.38715014717874,-5.4648340450720925,0.3972984666619461,9.22008069449852,-0.018711703002242282,0.015253599267792569,0.04469160435031547,0.06438808789043962,0.016049972503390637,-0.0089710339893158,2011-09-29 13:55:08.094927034,8.099079698
49.00934137665182,8.396234037854942,120.69264445690953,0.031515301155581786,0.014459527600212005,2.581340243933919,-2.2187802262214955,-4.594296977495913,-0.4726199263554347,-0.5773907014249091,-0.1571825957406294,-2.188125870358555,1.8465541985397034,9.590219264595895,1.9013218341443803,0.5568232541376998,11.099725171926274,-0.03608079366497672,-0.029920852597411056,-0.10424601456122949,0.05559323501823869,0.0957900576622568,0.09706475752524027,2011-09-29 13:55:08.204766615,8.208919279
49.00887233706646,8.397143348427118,105.53539469160688,-0.03255461924487879,-0.17405958460513293,2.687672341963891,0.5857307965593099,4.091098162818902,-26.21949843568632,-0.38931934706362525,-0.14576237133842265,-0.22709480410725832,0.4120956110295454,10.022544585041018,0.11843048073820989,-0.2594335241307264,10.05995681892821,-0.025181079813754875,-0.038133674659795856,0.027787724829812083,-0.01650378822699437,-0.05244377447451264,0.013882047996464636,2011-09-29 13:55:08.304927272,8.309079936
49.009249101307454,8.397824657710094,107.6633055570645,-0.08495878585679909,-0.005106661724653984,2.3810499913191263,-1.6620029349754348,0.5727660723682378,0.8092248549376705,-0.15671311692659337,0.13175812556391156,-4.406038207600984,-0.3194166365004151,9.90794155201022,-0.45676907164106534,0.6809598948710992,9.575046927491593,-0.4034272157022816,-0.07056344818784152,-0.09782297953503366,0.06980296425608645,0.12879280733819787,0.13217444045809415,2011-09-29 13:55:08.404750358,8.408903022
49.01566544478267,8.400070038480433,124.81439047064143,0.024942390151096155,0.022993810041437638,2.25881380114625,-3.836929024137325,4.294608421209883,-36.496982095988585,0.1939665383950034,0.0583732714666233,-2.1529514916763364,0.46926708465477074,10.120430554927724,-1.026490281633462,-1.2656637241280664,9.878280758044276,-0.018464933008588313,0.16483792133180528,-0.37971674983944703,-0.01606336126545621,-0.2853373733698288,-0.32100941085595985,2011-09-29 13:55:08.514702828,8.518855492
49.00393968244436,8.396514313654356,114.5649797577491,0.03526104114666176,0.03847390925194365,1.220885891721285,0.1503471541116872,-4.067970876588194,-7.012959555233912,0.007156099356138833,0.5566521235988147,-2.2711540550363134,0.8003629841937888,8.424786550450419,0.8919379785017885,-0.10758104006621431,9.879647660702483,-0.026371179152920685,-0.013759584919514106,0.4519747674686784,-0.012004940068790057,-0.05285133070220482,0.09622750223913773,2011-09-29 13:55:08.614724767,8.618877431
49.01556469832568,8.38021545508631,109.50377551364944,0.1703333687621202,0.02535608886373146,2.768554351275783,-3.498630953197139,6.457783714247009,1.3136042486591335,-0.004712276804420726,0.0033154719182449492,1.3367988648599296,1.3077998145133778,9.691908155233689,8.516438389774367,0.12742801316055996,9.441623409032118,-0.027497075126989994,-0.07233224739203363,0.29589847824769944,-0.01937094391579877,-0.0618808970999693,0.07808854953865026,2011-09-29 13:55:08.724735236,8.728887900
49.009670802752694,8.396100274188967,112.77541947262188,-0.018079508531497868,0.030220606894271154,2.6837133848391317,5.398558771422471,-12.844556823906025,3.9044447394510255,0.023691310585952613,0.19947887622289534,0.014635515009169708,-0.5708500064690571,9.143147572375367,0.20126554309580827,0.45015939622974077,6.294785853449193,-0.04668768483347642,0.0221866882751541,-0.14301037693770466,0.12094062764510723,-0.02105696542560755,0.10436969974535591,2011-09-29 13:55:08.824891378,8.829044042
49.00916655583905,8.396040714367901,116.14208688344775,0.01329474242087409,0.03746223485257827,2.5506278803571054,0.13204265273544327,4.8411129635157355,4.22350835067183,-0.373424139281117,-0.007621006984146796,-2.2120865965740593,-0.027181476082808576,10.421515539312729,-1.3896200341655052,-1.0885902489041823,10.265891577116857,0.014464934877562813,0.09808018949439432,0.08793729289925177,-0.00955341780765207,-0.013426754352380414,0.08388687833779859,2011-09-29 13:55:08.924671933,8.928824597
49.00886905339512,8.413189845200604,102.46517879051669,0.017909525429883506,-0.020380002145470654,1.7807578240297288,-2.16225568874944,6.111048719084109,0.088792656319021,-0.3730176055253991,-0.031003485788547305,-0.3438938203219788,0.13250284357132155,9.700709992397254,2.128825815794094,0.14956176227345486,9.911385451613627,-0.04810952329300627,-0.10932361258948348,0.07780364357291697,-0.027529270051016123,0.03746304022450427,0.06887816802953603,2011-09-29 13:55:09.034668369,9.038821033
49.00836301979762,8.396203763155821,97.89739443299989,0.017845795265626782,0.14489700961564356,2.7251344381843294,-1.8488567769256832,-5.805811924601048,5.413016800925336,-0.35397808898748245,0.032183532232214304,-0.9778887404498542,4.261705785526393,9.422253804008689,3.8202408927553546,0.01404911137891577,10.233097078987326,-0.07347800664677907,0.010834011662410098,-0.22463035548736227,0.009702558519818386,0.27621397282389193,-0.008486742466598411,2011-09-29 13:55:09.134625133,9.138777797
49.00935733687421,8.398821893248577,103.01444127143786,0.011172707108467086,0.019534097333763104,2.7963693839241714,2.6953631320445073,2.2621897599925287,1.7483986292284235,0.5217399522441868,0.20957177817547862,4.674685904869209,-0.9297810705951832,10.73968596886679,2.088646489013794,0.2321886007296189,9.6244458686789,0.025996682554173884,-0.022068535766798906,0.21152157602052113,-0.010112340965971547,0.0012336876144596683,-0.24136865964222792,2011-09-29 13:55:09.234639576,9.238792240
49.00882947634092,8.397881291728055,117.88334266183494,0.0009632316663676782,0.03448016700430935,2.5337579241753803,2.5709571126337756,-1.6297831975228985,7.494922992827568,-0.9032266677577062,0.224320719637993,-0.6125964763777162,1.366125545421663,10.153509565764114,0.630317319875296,0.3731338537140664,9.567709324767057,-0.0010650914481972937,-0.026527015554577642,-0.06619549554378387,-0.008876243687320848,-0.09857324113647828,0.07117981269206898,2011-09-29 13:55:09.344879907,9.349032571
49.009611261045485,8.386883223331534,111.89365714781799,0.02704453064732923,-0.00966437184788009,2.4910797535073548,1.9471126822147593,-14.547152285257424,1.0095922740646215,0.020984766920804185,-0.14038037992277672,-0.2617702183030446,-0.7488829742198988,9.877808420869336,1.6420168701281357,0.2069608862504954,10.355431950247521,-0.12431985243895256,-0.026847649489982382,0.1282031516798843,-0.07358876135189005,-0.022300126661074005,1.013138699568223,2011-09-29 13:55:09.444601691,9.448754355
49.00954132857042,8.383488151825494,132.03464519682052,0.02701152077871508,-0.019281287102138178,2.473748555310134,0.6072963456714477,-9.124963232671927,5.89556478406273,0.3096689778815993,-0.05338242487451034,-0.32301474325355983,1.2452353476663012,9.830484340016737,-5.601740250511268,-0.15609059854624655,10.346491496783944,-0.06005285288076161,-0.21670343355027794,-0.02446071837500901,-0.006024778192456963,0.0254111208815032,0.047963173756988775,2011-09-29 13:55:09.554600768,9.558753432
49.008665997970596,8.39807691376596,125.37116539144299,0.017726816898697435,0.04038503115840209,2.4352549965616648,0.14320634071910565,0.12174246439740699,4.72317656568026,-1.2996991955044084,0.14838364728089581,0.5779957701330617,1.2166949379847865,10.990306302557602,3.534164329626402,-0.12073023849966985,10.116196993280555,-0.011457416499080737,0.03523567097016143,0.14586608875188722,0.4419991650925057,-0.04645642081388521,1.0563723281843604,2011-09-29 13:55:09.654590874,9.658743538
49.00959687675894,8.396494066295809,110.34426970756147,-0.28626949319083134,-0.015524356730650501,2.8193482413358457,-2.4094501885856205,-3.704726620349069,9.54301409047464,0.1690587060354375,0.05593615477560629,1.2938554701048053,0.46987172676799693,9.707759892837759,-1.6486038069707591,0.44290381637788434,9.169449040253808,-0.19494042414234117,0.04087768442224287,-0.03139903674995084,0.05892088605888393,-0.04646733698006046,0.04777789829804835,2011-09-29 13:55:09.754571515,9.758724179
49.01033798104297,8.402982101547229,105.17267591568537,0.06254250408064699,-0.055176304348847724,1.8641103685487914,2.0295090185249762,13.375512893537318,23.558909735776428,0.1759809762862507,0.0702525243207823,5.094436155943384,0.5229637101888881,8.94752606728144,-11.263958895883205,0.6548543834126359,9.93494895613251,0.03061534226107283,0.030570755891941193,0.2693148684192822,-0.012106137582002869,-0.02045535652472947,0.009291757276207097,2011-09-29 13:55:09.864615155,9.868767819
49.00932584560268,8.397169297603655,115.86306051281221,0.004981506544267177,0.013928737582941936,2.595180629124291,-1.0920550870944097,-4.001619775976532,4.701148664535183,-0.35348687647208016,-0.0848325098581033,1.2112111634019835,0.32327610958462905,13.98225375686083,-4.9827172955195875,-0.06859403583594226,10.68705353619597,0.04618164464403163,0.008256104448291451,0.8159513629502018,-0.26138267979120594,0.029436131001816537,0.0451479240735809,2011-09-29 13:55:09.964587092,9.968739756
49.00633456032289,8.400663063872807,116.07949687451504,-0.0005036166453754529,0.026558308806778546,1.6815087092457177,3.2129834113074196,-2.9525801469965396,-7.195756875632862,0.348489454603267,-1.383504526014061,-0.3080717497503318,0.2153395702013796,10.459218140939054,2.7699243541070517,2.346646159397384,8.968420877250539,0.043495772624262546,-0.0015423583763504675,0.13090931774597725,-0.07273922990805133,-0.012035555395107696,0.13956753723225312,2011-09-29 13:55:10.074525649,10.078678313
49.00756064130254,8.400780503263329,115.28351510537081,0.02246256108844723,-0.025933141740121218,2.53720268379952,0.5934002946592454,-5.001581962219601,21.914573208103562,0.13242411428218556,-0.12513928496610743,1.5161066646530241,0.7502364382532637,9.424674891977718,3.3934208492950173,0.018035329768305713,9.064415666260969,0.032987804116369875,0.013072307556975141,0.24535102175945026,-0.021220968730572977,-0.02672437218663459,-0.030280648791493198,2011-09-29 13:55:10.174521312,10.178673976
49.00913746270816,8.403589318420302,109.57326798860223,0.06125378682180453,0.026121641684980313,2.785793056627079,0.06953212711260004,-17.148414122575993,3.940507679654196,-0.6057608905045997,-0.07542990371754608,-2.479024530248563,0.3678418948579345,9.619768806422506,2.2736869808561444,-4.07447044773099,8.722214668003375,0.045045861670102556,0.03279747178774869,0.19776781887099798,0.005942598343144899,0.04482420546450588,-0.01348508142001073,2011-09-29 13:55:10.274487949,10.278640613
49.008364277698526,8.398677806381102,111.6932329154571,0.0748594173461465,0.0063989126356216765,2.658548869600948,-0.47550085121777574,-0.4236884553566669,-0.2504353542915301,0.7519054694434811,0.06070640574481523,5.846216395310457,-1.2168605937630605,9.836987740960778,-0.04595794254190144,-1.1289892282372127,10.364822912650686,0.026336277738154865,-0.24271029586092913,0.3009699408716874,0.011005308580928401,-0.19917343070679502,0.08991876752993605,2011-09-29 13:55:10.384574692,10.388727356
49.008274212396024,8.394911018745987,119.19166310708161,0.02956848332482621,-0.006439505430593481,2.6811253731727422,1.078561652607889,-2.544607176691941,4.505870609341031,0.5800717304597718,0.05721714294546461,-1.497977187156031,1.5278510859638283,9.83299609075579,1.0196219233725476,-0.879256280636404,9.053672459960573,0.03026728813281371,0.08228188232393369,0.07111094992464892,0.03117649120412884,0.0065902168855434505,0.182397671490501,2011-09-29 13:55:10.484489676,10.488642340
49.00919668332874,8.396663380231933,116.46356369049073,0.002703923708646444,-0.09289616459836052,3.5554022189651993,0.4191152334325787,-1.3344567146410533,1.141066774962345,1.05817661018674,0.25339876565789005,2.580414679959759,-0.24824553593414833,17.087365990202883,-0.6112082910959551,-1.5836690362497738,10.773284958920774,-0.001354991320111739,-0.06574794573530662,-0.014483440661768099,0.028181792993192657,0.009809228290153146,0.28716931619235286,2011-09-29 13:55:10.584511832,10.588664496
49.010269253510096,8.39510590989934,81.53565158022994,0.08486124166960005,-0.011829659849734865,2.691271210016594,3.279857236970402,2.5815108872226413,2.352637087908281,-0.2875283844639345,0.045899068497184885,-2.536375118904413,-0.12730188240090434,10.011904371712774,-0.020895981350691484,0.5903234231663076,9.71568776855009,0.09505824669632094,-0.0389473604776552,-0.04246258522475435,-0.018454777487374705,-0.05584789362513609,0.031241551598463785,2011-09-29 13:55:10.694568556,10.698721220
49.008044590094066,8.400183337545513,113.82346292460346,0.011518499898723472,-0.04254160882152119,3.2712463382463715,-2.7867940101766018,6.07723608928837,14.523975375766572,-1.3777942092214421,0.04871641080684927,6.687646800582264,0.10225429666558722,9.277620529658638,1.72139009135658,0.5320661952290069,9.9308887118823,-0.03382198870975721,-0.012274072469606337,0.3330249491104966,-0.0644116808576043,-0.028186232470274093,0.20022477174741415,2011-09-29 13:55:10.794563928,10.798716592
49.00688846034419,8.39811534532029,109.41162236947429,0.03196430179608088,-0.019171406748403164,3.2991889446363607,0.9211162448759421,-6.1385908787928045,3.4891111563075596,-0.36011282304497216,-0.3664868323689493,0.14429032072684778,0.3837593131647338,9.831547739256353,-0.9318403644311324,0.5165462298471081,10.14591202141805,-0.007002154569356893,-0.07540124920957024,0.12078386833140561,0.03141806429158951,0.020022321386856428,0.23920302027980392,2011-09-29 13:55:10.904464251,10.908616915
49.00893900118671,8.396641662848008,119.41537311704504,0.06604282686088872,-0.041663420225263696,3.2354420527884566,1.4238840921664837,-26.5278536176333,6.802612104583547,0.0944073590202627,0.2069098459748447,7.132357590414964,0.6411178101401157,9.45663982074553,6.861399333129462,-2.2813888608397628,10.332779872067775,0.03813154781069836,-0.05093817270645034,0.002029344128426612,0.037151041727584086,-0.028823772806247788,-0.029897284568129012,2011-09-29 13:55:11.004411720,11.008564384
49.00860037182091,8.380376035596294,118.26486694112734,0.010701425274655146,0.0031772600194680135,2.702012176661059,0.3408730570005313,-8.101531302265943,5.668926723398933,-0.05349914921128667,-0.896432402157085,2.59208579941247,1.1758753223599143,10.087664075899186,3.9419462318601646,0.13425850962095545,10.057607024048037,-0.029203393285341234,0.04812031489642159,-0.41346708621362055,-0.033059549419484704,0.24953324140512634,-0.017318044268049417,2011-09-29 13:55:11.104427485,11.108580149
49.00654580604996,8.3971906758599,119.02664489143588,0.010534173368304652,0.03213611920898602,2.640802778809305,3.824066703929483,-1.5968551944226217,30.795438851608477,0.3942575201522199,-0.6267294778395412,-0.9976520028284128,-0.5254805346734949,10.274785097166708,2.08751128802864,0.08480888582752719,10.219363003767842,-0.0590737828233919,-0.008221130757605598,-0.2188688114100204,-0.01463107487945429,-0.09314148399746597,-0.09059228863267134,2011-09-29 13:55:11.214375442,11.218528106
49.00829085477962,8.418252743257801,111.76770720867539,0.0436106629551982,-0.006361424808011244,2.6626479745042535,0.8845661286171966,-11.12569056588601,-0.310405453307943,-0.6291297404223145,-0.17632272891869907,2.1430105099538626,-0.01934722044612054,9.80601325811605,1.0170095991468195,-0.4877696192424729,9.362729252791407,-0.0005534190588312683,0.11340258363290631,-0.8014253114108076,-0.03179328452318327,-0.0023757201097848336,-0.6683824882665067,2011-09-29 13:55:11.314543798,11.318696462
49.01855641434996,8.399529702886742,106.60460834792087,0.01235272480926897,-0.004871605553095201,2.5413150234197555,5.935205577909097,1.344437165452792,4.981358628713895,0.6839983695246528,0.11029310065954873,-0.31436181632383153,-4.755959665489997,9.5824084501395,0.10665583353334718,-0.5984466139105015,8.8487215755097,0.07929831512521815,-0.0429881977598976,-0.07097448237554808,0.4901126884020051,-0.11834025570670313,-0.14844486296154571,2011-09-29 13:55:11.424348345,11.428501009
49.00921087154619,8.395049739617814,107.91983431663189,0.05477029896122775,-0.07661861571073118,2.7053678775692753,-0.8035173704407492,-4.599179088144225,11.914694237477738,0.5334916091920767,0.0474801844800598,3.348872238422387,0.3168635643424925,10.507724220727258,1.9787745691911587,0.6116040804083512,9.143443775011015,-0.11435878050481423,0.0026055726807103496,0.524207864052715,0.022805198858569194,0.0030034995839905284,0.09299221332057928,2011-09-29 13:55:11.524307029,11.528459693
49.01014659374498,8.39940334968461,116.02029088994612,0.0405266825629795,-0.06716397588327658,2.691190463373943,1.1450095895651435,-3.2458763471790335,-15.976697074962988,-0.2287993554354873,0.1205089848688281,-0.4398043974414976,1.0285654684592114,10.278030526411223,3.8166670702276537,-0.5784722821318932,10.583040036426993,0.06443747602906064,0.00405560173156967,-0.015156358046673299,0.13372453812073748,-0.04552148890860843,0.13886696197661594,2011-09-29 13:55:11.624312204,11.628464868
49.008024063567916,8.398984255006056,110.87477659352875,0.0636208463684277,0.08816776946115099,1.961436353541239,2.5286145622262906,-7.649390635316525,5.137098263104395,-0.18925929516401546,0.010835715727644479,-0.49946043786350525,-0.5320097212598323,8.262817138289307,-1.6990668462465655,-1.185765865466555,10.025133279278974,0.04922537615657185,-0.04400509143278396,0.10213958828058953,-0.03222097866659879,0.05956658711624913,0.2530246158361108,2011-09-29 13:55:11.734309502,11.738462166
49.00769332516322,8.40941060784404,106.77568713572273,0.11430394000323818,0.013377457630463703,2.942555150307549,2.6056104661042534,2.7409028826880975,2.048637191886953,-0.2572585261013017,0.18741595316900184,14.305962824219334,-1.1618788508382882,10.489943960028636,-0.16457916029799047,-0.08281846819293268,10.404713941662969,0.022738681630958848,0.0436079068216571,-0.08842395999495882,0.047051306449498315,0.012461412409683303,0.038988693685184234,2011-09-29 13:55:11.834354622,11.838507286
49.009077027092005,8.397415193736824,112.26599432764606,0.008950563585394311,-0.0069004276765374,3.0890508123103206,5.624239195836628,0.8269227595000905,11.546817494389902,-0.3563740863452667,0.20161422897637415,1.9898756028237714,0.3060743148719828,11.145470504637979,-2.0016334722716342,0.38576897332241056,9.986283038581577,0.22936879044291378,0.008276327659754595,-0.04025332484733231,-0.07519599768081729,-0.04665900542101566,-0.0724884635888576,2011-09-29 13:55:11.934286457,11.938439121
49.008367846591554,8.39799790230466,139.62859219750266,0.02389015475554863,0.016250354278789455,2.720429321951781,7.795038582015383,-10.575297901466037,12.99268276547085,-0.4408059314293409,-0.02694669099771231,0.8243501263204415,-0.6304340025631635,9.93023586573167,5.770330163283441,0.1449916986960299,9.669898775392618,-0.056862344286004486,0.005772478108454715,0.06649029719710563,-0.2633734199368022,0.07595262874267412,0.08940832922189244,2011-09-29 13:55:12.044252175,12.048404839
49.00921213707769,8.394555437294933,111.41571108482763,0.06422041672238304,0.017945264110432596,2.731974284727653,0.054915269340376494,-5.87291579812468,19.384162156124788,0.3781052192628211,0.04184580009384885,-2.1210552585112783,-0.47200379588299757,6.375948469418277,-0.04928067369525416,-0.5249652589468854,12.910614754180902,0.14051290314940235,0.4491313298558762,0.016834416638827093,0.1253795436036804,-0.1156473961336654,-0.39589508567743675,2011-09-29 13:55:12.144263817,12.148416481
49.00719112608332,8.39768507249789,113.13978997016909,0.04094167876881618,5.896445876060752e-05,2.993777942121125,-0.14764203110292384,-4.392768954971599,12.143272989141035,2.654771193967762,0.027739978223657084,3.0021109554877827,0.36436685118555007,9.244654486744386,-2.3968733142965255,0.0006858625673664548,9.331549998455632,0.256713468875436,0.004664471112385063,-0.0404241431489786,-0.04707702877384952,-0.013686169963960843,0.3540387675574385,2011-09-29 13:55:12.254214496,12.258367160
49.00903927104461,8.370818255052466,108.18995596107054,0.09432743236598279,0.010027033377627413,2.6407594433564743,12.785006127381344,3.3874352306803193,4.68817899105419,-0.06857969682751182,-0.07361578903718628,0.25969630927643417,0.1930133624808675,8.055742205478136,1.2806255318623683,-0.38227422113503134,10.028137095607834,-0.022609972454864555,-0.006891149012160033,-0.09168831557696303,-0.05278216452784476,0.003602197527633847,0.08687485948276698,2011-09-29 13:55:12.354264946,12.358417610
49.00793711164866,8.377100892210105,116.58433110404356,0.023947018675395948,0.027280095288279117,2.619805933390954,-0.5094965712481756,-13.393013796033115,-17.9829508335166,0.2902180036727201,0.05437383818121078,-2.6118694593317087,-0.28590760730602094,9.588330850883949,-1.2605817622900883,-0.7084837473712777,9.026665616899175,-0.06867899936345974,0.013088710625827091,-0.018438873345585104,-0.001080151091191187,-0.04584719345621342,-0.04058832674745548,2011-09-29 13:55:12.454223537,12.458376201
