lat,lon,alt,roll,pitch,yaw,vn,ve,vf,vl,vu,ax,ay,az,af,al,au,wx,wy,wz,wf,wl,wu,timestamp,rel_time
49.01055425193427,8.44012093034792,114.64514782361964,0.02241203277341834,0.0043963720983666976,2.4011009716028764,20.71049575441832,-30.62201396907003,19.69948916853172,-0.06514992998181628,0.22132295710082586,-1.800231182063199,-0.2046372706160837,9.048633952403105,1.0396390328296612,-0.24838969172724307,10.213008552273687,0.03448323012875273,-0.034053911632649855,0.0038178716216553665,0.043912566402517825,-0.005011426855506096,-0.34744563901929293,2011-09-26 13:10:04.783813635,0.000000000
49.00962816131631,8.44023413368172,114.80874940793605,0.020773217030457265,-0.001048649490840008,2.8625059167301172,1.1924539914807184,50.00404587096696,11.986663510759865,-0.13124388306182502,0.00364238009064644,0.8771179747022575,-3.9210807326990866,10.726853817846449,4.585001920722757,-0.27799333712141905,8.026070271980347,0.014190173250530754,-0.12720612332165435,-0.44802387116505393,-0.0045437937851470255,-0.0313409210190681,-0.01304749030075101,2011-09-26 13:10:04.883633226,0.099819591
49.00837365277899,8.43873451555975,114.97415603578195,-0.004588215304359402,0.01008284712092037,2.200929404412304,-9.057451779226419,1.285668028922478,69.12398858390591,0.08104214392479178,-0.01796081123929063,1.1831160642494367,-2.1347729369360238,10.202117391677433,-1.554036007029711,0.015691022042203517,9.62617606541049,0.048792216945367534,0.1388472235786689,-0.09438205735476707,-0.002019836007629984,0.011318737053851162,-0.06307045206306228,2011-09-26 13:10:04.983623089,0.199809454
49.012390147730436,8.441523036266409,115.19462143738735,0.0467105822309781,-0.004157811307852214,2.3017231176296717,27.135594435486865,-7.516421261853866,35.61902027723019,0.006033217471914289,-0.06710460574606389,0.8471370981411347,0.011271719037220518,10.768087686955983,1.8776619529184466,1.4573045484550686,9.985538772563233,-0.0910979936585182,0.013492696104047701,-0.09730807377656625,0.01625630049967152,-0.00954827704408911,-0.06129535578691213,2011-09-26 13:10:05.093657185,0.309843550
49.010343254268484,8.438541692977099,114.96320945475256,0.018327194654596157,-0.024038309286956917,2.5091728295290308,3.2726697454222533,-3.174562147366707,8.430842197092415,0.10027897729333798,-0.029932073625899787,0.3136640155321491,1.2492086775981923,9.917898196974836,2.1227297974931902,0.1544565376977015,9.974461292032224,0.04118281382469734,0.2237804697293601,-0.10228762240293018,0.01252672754728287,0.009685150570904116,0.031172818083369858,2011-09-26 13:10:05.193823011,0.410009376
49.01067049607824,8.441552324000824,114.78586270617821,0.08268217620641113,0.022255090120213136,1.9891129397727851,-8.035026045905271,-16.776865250592145,34.09044590392041,-0.04777666205890483,0.0929083966543411,-2.661126518374041,1.577144128748793,10.77982626904406,0.5929556059243334,-0.6117892769893176,9.623988326389622,0.025441485822969023,-0.003984724373877537,-0.05413271542680839,0.008825881371933225,0.0465807212665697,-0.014628283339550106,2011-09-26 13:10:05.293672144,0.509858509
49.01064903900538,8.437029260658198,115.99080477896393,0.012044407375072817,0.004796983906641884,2.5580065533399954,-34.085640161461086,-0.0027633317810042968,29.515518510053255,0.14401339874493893,0.14297608717549998,-0.5741251351110527,1.4172571337571451,12.606109458814267,1.3953461187573963,-0.16786426179499292,8.592565432551943,-0.1411977272592761,0.014905258266812275,-0.2586396880886134,-0.0037456178057512293,0.016724356969053125,0.2113906433175527,2011-09-26 13:10:05.403662726,0.619849091
49.010988044853896,8.440004963826668,114.83520834543197,0.015228905277508612,0.003624132466455726,0.9478727827903008,2.036059672110026,5.510007587240443,-12.561317166964383,0.12007050369750903,-0.057120328014175256,-2.935913411789768,1.204678619058948,9.521587723881536,-1.3446146718855116,6.9424689649326,9.974137752262198,-0.03411336511161175,0.0567082670848251,-0.0984650906533854,-0.00021521481060565034,-0.0318716972499957,-0.012625337156045476,2011-09-26 13:10:05.503628097,0.719814462
49.011278847101025,8.4398817716175,114.67205930313284,-0.014465274410007087,0.020292068324107432,2.2888179397479944,10.07769754937847,1.1501223442666273,-8.752047109254658,-0.006789277846623296,-0.08800696147535451,-0.059460992543078364,-0.18435480143247363,9.795949062672404,-0.4114556908189482,0.4785433188133222,10.640795908593184,0.007406251227033787,0.019146012356315502,-0.005021934362716418,-0.04030531296488871,0.008865538484593302,-0.02656719744920595,2011-09-26 13:10:05.603676910,0.819863275
49.012474972101664,8.446808713168878,115.00515218988251,0.037651265775687004,0.0013617982451340927,2.8618204040776143,12.054232101880912,-10.711537618615635,6.594592236767532,1.5447984358580498,-0.05798149648016334,0.6280222524877752,0.47823580647682207,10.025745907492809,-2.6273674895207044,-1.2346723489907097,9.51512585775179,0.00725586202321837,-0.03648799137341962,0.03297343826027188,0.006058442268355821,-0.014050734321143685,0.050191370731899755,2011-09-26 13:10:05.713731980,0.929918345
49.01074968763005,8.439749645200628,114.70947164223678,0.02100153020815482,-0.006856090538429054,1.6614471196904068,18.343538993047083,-11.169274078348352,33.565901935764856,0.09440549320811195,0.03539313327586548,-3.4519711449585135,5.3264317757618205,9.739812968412854,1.523882750183213,-1.6707135731473866,10.448340787460301,-0.006225692702986511,0.0008884001582359254,-0.06904936669678438,0.01589442933098338,-0.010251970231802573,-0.04255902444381972,2011-09-26 13:10:05.813663327,1.029849692
49.009348322051785,8.439245224954735,114.89915674197447,0.023517305642898723,0.0023752637169978767,1.985748429857819,1.2133683198453618,-2.7640295323965303,12.428354136373828,0.03604549586806861,0.038650957634998206,2.377467821220022,-1.026909783840668,11.262390804008133,-0.15361801562741392,-0.39121346655448747,10.655634274449561,0.03721386063098064,-0.0810562158944005,0.0049651922573724465,0.06023945361676516,-0.08356662716995061,-0.11640160009093298,2011-09-26 13:10:05.923740362,1.139926727
49.01081190322722,8.436746485510655,114.65568334059861,0.04350971262346121,0.02020113140449384,3.172311568918183,7.660852526760712,11.011098795897537,14.081655443125682,-0.20829737362667228,-0.07261626640759973,2.177497232913151,-4.86857138574334,10.752765257521093,-0.8149967867694362,-0.4752820606169189,10.181716053613304,0.05287445077125795,0.01400572739833822,-0.1497970698086287,0.013830346378744123,-0.014870236471505857,0.02422463932398663,2011-09-26 13:10:06.023691375,1.239877740
49.01148168785237,8.439222736833955,114.83356704732073,0.01751630057335598,-0.0032822614334160082,4.4225161863688545,14.538826354041186,-27.014273492355407,39.700582920058835,-0.2317757113158742,0.31265100594754414,2.9824647650345435,0.48919116880276786,9.728953163616374,8.371109036999984,1.6855147067719303,10.21147293665973,0.007050112654055363,-0.04296929905166133,0.029086886976432053,0.011058580907809817,-0.006897573805378521,-0.035206304625151175,2011-09-26 13:10:06.123706508,1.339892873
49.01062908750446,8.440154860369889,114.78442150289537,0.03770172664004018,-9.335499462365376e-05,2.146777567026906,23.544055579293037,-10.747756497640898,22.04146048115858,-0.03173777314475214,0.0497861152119663,-0.6256537754631862,-0.36899846622098414,9.111258143387207,0.5785683607008447,-1.0029324686705556,8.44600265784624,0.039385277407703194,-0.0361260060930947,-0.066615302473361,-0.13597191308975062,-0.029866145384822317,0.0022405122080827664,2011-09-26 13:10:06.233749190,1.449935555
49.01086569482191,8.438905498100269,113.97790962586778,0.025725101407156174,0.007997512977140239,2.6892105411516467,7.063997858680072,77.97754534051572,-5.329523884007704,-0.01322851639429301,0.0846502893617717,13.452325038470281,0.25199701978254285,9.943701826849585,0.4121501712499452,-1.7595021568306501,12.352998264869447,0.03745214099359255,0.027919195870838777,0.037209569342547835,0.008330345855921503,0.014319967524304492,-0.03482447854190113,2011-09-26 13:10:06.333702569,1.549888934
49.01101460736647,8.440593899486027,116.1651272550692,0.03578878748702688,0.007827298897074092,2.0053411176355427,-10.492229281194001,12.980755445196797,12.730078981172268,-0.11531541236065809,0.08789572685580799,-5.336520926107914,0.2680393571946398,9.178504955673128,-1.9272631166129968,-0.7411273470994799,9.447543972718494,-0.0067509831582682756,0.2062199838613733,-0.05638195143929208,-0.009570547478042209,-0.04040123220886095,-0.004142878473646111,2011-09-26 13:10:06.433685217,1.649871582
49.011370578677756,8.440613204760584,114.69659643204734,0.034947093737656,-0.0026941147081829655,2.3999950652792688,1.2136164205649047,3.729854517336067,36.58636810289116,0.6360661749381484,-0.07909205322553928,-0.9385596873387534,0.7257590899393055,9.43999697765913,3.6518655302678242,0.12057926095043064,10.173935320059204,-0.006765658841198216,-0.004457200536333564,-0.03158387143849697,-0.0413266201032015,0.02125940679013648,-0.07961901674985017,2011-09-26 13:10:06.533725196,1.749911561
49.01082064603232,8.440192711961005,115.06896983319798,0.03158467978370717,-0.031220995458556566,2.464116166397018,-2.025460503867402,-6.238230774722614,20.598148101998927,0.034917462631352134,0.028514747400390845,-10.682774371233773,0.5876141532914199,9.157620846292001,0.03700864630561407,-1.2406248004307474,11.232923819222108,-0.023148007788766967,0.007933636145756453,-0.04341706792854941,-0.019674046090336697,0.016549948096444,0.003265407835929858,2011-09-26 13:10:06.643747213,1.859933578
49.01094969588077,8.439858538989743,115.88728250941371,0.021919587142241494,0.0005272266526032895,2.672264783615307,27.766382339022048,-2.408396380643829,6.335390980026648,0.05682349040438341,-0.5288416672161471,0.7034223326613299,-1.0926730678137349,9.897582513287063,1.1166368630899772,-0.17942622509170886,10.368688590790748,0.023484794933801754,-0.1250546686420437,0.026422710067362548,0.026536127064453935,0.02745418649822374,-0.07059712691161965,2011-09-26 13:10:06.743820339,1.960006704
49.011881129909256,8.436641749741765,115.20347562151457,0.023603516763640642,0.01408640235233722,2.6063392617985888,9.68752776345768,-3.2331395299781,2.198557034524443,0.2914947868495557,-0.1475691876307113,-0.10587136612566284,0.043450995539229376,8.921252649182783,-1.7012458678156843,-0.3825234924206742,10.70672399696658,-0.10584527237693335,-0.017407040525817145,-0.07720014854465393,-0.06739461032510292,0.027713988313857053,-0.2034159646148285,2011-09-26 13:10:06.853732801,2.069919166
49.00933124005149,8.43914692472465,117.28022044645088,0.04477348619287967,0.007658669524093377,2.2780480862179004,10.10530518837703,-56.53944405720322,31.160289238972897,-0.09877044437256352,0.04602712826987923,0.17596208267948282,-5.778048551994322,7.755685615974759,1.1182621253461689,-0.23213518523239146,9.506746960883094,0.026105706131221484,0.035722918559383046,-0.015441285582456284,-0.027655272176425306,-0.02394501466678116,-0.0798452883654392,2011-09-26 13:10:06.953734971,2.169921336
49.014020849622895,8.440290746767065,115.0834806803181,0.04431424082225689,0.012491728759527719,2.188581177444309,10.523852681185804,25.348060276466644,32.780767659232374,-0.03528748433676633,-0.059748830657435095,-5.591535532050384,-0.227866848740768,10.281127019959031,0.1945242878280874,-0.18106492815120948,12.290594847718538,-0.0026903500201512984,-0.012681444857192262,0.0011950989587945597,0.005754587759803898,-0.0025443977025867565,-0.009615889660935583,2011-09-26 13:10:07.053725403,2.269911768
49.010005145709236,8.43873770078154,114.43910666408509,0.04716758425639077,0.015555714339608118,2.367246750811546,17.634242465548773,-18.96018027575397,9.85176590672816,0.46963997680080866,-0.12238501636306008,8.35307748711232,-4.083326455553077,8.969889435704978,-0.9448693198058975,-0.590523083061822,10.087198961262715,-0.018645855492553615,0.01856442215888414,0.052621126460025716,-0.18307725342805947,-0.33701584175402705,0.1378704856796015,2011-09-26 13:10:07.163744500,2.379930865
49.01139313901622,8.438996662270677,114.78023292234509,0.03216834357318612,-0.0021730995888849377,2.3802485455704026,-5.630093926011728,-47.7983485879451,11.82634501976705,-0.9155514784766452,0.1483131473970162,0.43933599455721073,-2.835948153602102,10.207799633290936,6.3883485678622,0.0994408993925121,9.96069138933346,0.03280714232504309,-0.19344980803352782,0.047921764250918666,-0.03424066867715332,-0.001302792419731312,0.034981343266794813,2011-09-26 13:10:07.263832962,2.480019327
49.010378831796906,8.440326201633214,114.96303415352871,0.03111579295830887,-0.053576194471471446,2.656926626043242,-2.596157791378049,-26.247317168555565,-3.5674331894882805,-0.04346064815516893,0.06887614655244231,0.005252395060710846,0.12180659811580574,9.951627401442837,-2.5924368139408736,-0.27214507056821047,9.406200982357777,0.06616483229367988,0.1901507383616579,0.007953911035203726,-0.022268367717588687,-0.011405816381208807,-0.08706220637147832,2011-09-26 13:10:07.363838349,2.580024714
49.01073514148304,8.439572679338152,115.21047523564793,0.02817537702173245,-0.009072466029178126,2.425520805581509,20.853384470149365,-8.58251072348861,28.387407203433206,0.003286357194776962,-0.06870079974969115,1.2969111249385692,-0.4344493140265897,9.526112737822658,3.9032091639171105,-0.19067524061557536,9.936164575393802,-0.011350499029166326,-0.03258652163156491,0.1012407918877565,-0.040018562672032174,-0.0320033276427015,-0.06438784915992429,2011-09-26 13:10:07.473802736,2.689989101
49.01064797911333,8.440307858878857,114.8420932775044,-0.006563553149374533,-0.046408179075916614,2.4343972836748557,-0.13404673203706174,-8.424563628570954,53.53125486517254,0.13282023085668057,0.1440801777888172,-3.12839681390681,0.11666223947499732,10.86913159513856,3.9305793618946154,-0.7784524498294741,10.367326548007467,0.0024150867426152283,0.04818366686499477,-0.03588271282253218,0.018681292087778113,0.2719270876686262,-0.062204396235744606,2011-09-26 13:10:07.573784704,2.789971069
49.01176231555367,8.437950131495167,115.07175288983758,0.025097694007589412,0.002128819693292478,2.061592642562799,-6.625145121856747,-23.138793911469463,25.342378722782662,0.08416089844693542,0.17725979164310207,0.1449738340019558,0.6882010078336207,5.925715308597087,-6.6378609542375875,-1.011987823584359,11.272252817555586,-0.0037112302089882285,0.0021014156853065985,-0.005912348663561337,0.006962539013822206,0.23483892428394734,0.2694349921675016,2011-09-26 13:10:07.674011558,2.890197923
49.01089417508938,8.44051877436946,115.62654808272741,0.044533689838182844,0.022299991276562306,2.453237185326357,34.377412002843414,-18.44268652562436,22.126736304126474,-0.24607637019526477,0.0662252146840469,0.9536260948422666,1.5095287560265744,12.544625962160643,-1.1097594985241266,-1.1943182671305832,9.233571693082544,-0.11849212100712155,-0.004422297094857877,-0.0009550487496911477,0.04084738995015021,0.056652135157443266,0.07195037957752164,2011-09-26 13:10:07.783894355,3.000080720
49.010115305463025,8.440451947667976,115.0212314914796,0.08118829149464638,0.009039741240677465,-1.0472874699268422,6.190864892717962,-5.945861744825774,4.808306845647772,0.2044994157071739,-0.04121672859045263,1.1561096844969092,1.2049724668655484,10.369285642822263,-3.3534354780818756,0.509941037931833,9.526027700035627,-0.08654807590975697,0.025878743741626305,-0.03137537608570902,0.010036521418627048,0.10594985857352554,-0.1112666415987515,2011-09-26 13:10:07.883841386,3.100027751
49.01198857123059,8.440067626257196,115.18154719984746,0.10875395038475347,0.0015443190722412882,2.622291733106238,-4.760587384731663,-6.915863158311774,-1.1255445987196158,-0.20287636120783448,-0.10525971040563059,0.33268182047275074,1.6592940312827782,8.354935553967012,-1.4297478940906454,-0.12467350715800297,9.920893049559233,-0.004277397332138303,0.07787518732090877,-0.002707408512630065,-0.16407668739038167,-0.022276855583374746,-0.03126323078202122,2011-09-26 13:10:07.983833058,3.200019423
49.01132712066295,8.43961008282596,114.86314951064875,0.022644636506996343,0.009084321528553905,2.1054425026669312,43.94653531008187,4.460629189877745,-0.2518760843445662,0.29895344826259795,0.04468443218835311,-14.935367378342768,-0.7148852112269665,10.078979102217591,0.29478372803490527,-0.025263317248053363,10.217473078420428,-0.008493183438802078,-0.05996148571192578,0.23375133408140625,-0.02781801708888852,0.04117201779695698,-0.027023768600396146,2011-09-26 13:10:08.093857888,3.310044253
49.011062494061854,8.43923283222034,114.97224269292295,0.03423658723305014,0.016307341613445547,2.5742470712316865,14.185135311457515,-4.593456527154705,7.809540612615196,-0.09177116660197594,0.05849269824744904,1.0380137215637553,-1.0641093614626485,10.641836477190754,-1.4760268671845176,-0.08051754950717725,8.76491582563955,-0.004830351366135988,0.013001987504610459,0.050000287024386914,-0.07503006997404295,0.007247905817963467,0.10965895174821133,2011-09-26 13:10:08.193979558,3.410165923
49.00999137885776,8.439801836113482,115.05602455448641,0.02161275576001215,0.010592073388685076,1.6401175833082025,-28.56999213542352,8.103765184755105,23.59319126962438,-0.10387771031850478,-0.018206783935106732,-3.7534176272157778,0.9393932103186249,9.424209275783733,-0.03959806545007513,-0.39155782426442476,8.116720481901424,-0.0007516868847499379,-0.05675576287556693,0.06641814513254726,0.013351438637676105,-0.18108549436922658,-0.0122388764625232,2011-09-26 13:10:08.293843903,3.510030268
49.00967133728526,8.439763127762543,113.6345215902568,0.040029840142493854,0.014244452005591521,2.2003202064890166,19.222616210628402,47.834722946938804,10.017098924298294,0.18763716792487967,0.44905146705737775,-0.8461532470752572,-0.025708697505602465,9.829520929764216,0.3130077371236847,-0.5510463431393928,9.952888644926793,-0.19786013794728738,-0.03966032111266594,-0.032951854256352,-0.039749144713395974,0.005733870131324383,-0.1005623922468748,2011-09-26 13:10:08.403826434,3.620012799
49.01250106527392,8.439507955710654,114.79476250797649,0.03130828678148226,0.01543328272464642,2.069203221417131,18.3617035226237,-12.28861680869294,-1.564587893050378,-0.28090285488187744,0.10732564684792442,-0.5201601160543763,2.222100624612674,11.223296329641157,-1.4343736206882705,0.4882390669806824,9.02584834610221,0.012072300535070062,0.014365154714388444,-0.024509524294626148,-0.036570310411646566,-0.008187259956260913,-0.14232679792813083,2011-09-26 13:10:08.503846371,3.720032736
49.01012577061354,8.439289079509361,114.73582983923174,0.039701406723925366,0.0086066296556804,5.016409549698565,21.492162677792532,2.073896416836366,3.1830382426261625,0.18879432176175542,0.034673201742025546,-1.4997670968493888,-0.49286437507359,8.701085112538813,1.8565311587630657,6.090739439808016,9.437624370825542,0.021689329842999046,0.007826488130412835,-0.42542616112817433,0.01820272763261275,-0.09493206911586065,0.08284897627861632,2011-09-26 13:10:08.603848101,3.820034466
49.01161902212474,8.439282270619973,114.98803868385873,-0.027774638529440492,0.007098499425639497,2.4513353955557005,-5.32010253603743,-7.202845361684916,-99.70458987601427,0.1395311702074551,-0.16499004171485462,-2.0382192384860778,0.6762756417664526,9.989954319912298,2.6836298965730445,-0.5398840727223639,9.919031925494393,-0.00724549766765792,0.02053134820042453,-0.10587162438101373,0.0573768878190429,-0.01604277997571177,-0.12582352769742292,2011-09-26 13:10:08.713938001,3.930124366
49.01084252419666,8.444690544131246,114.60570261534095,0.017694707139664936,0.004668193295335579,2.304636647107111,32.17247534541629,126.37781940533492,4.673009579957147,-0.04754709941919735,0.007886155144014206,0.3110934628365467,-1.318105542494393,11.300198552897044,0.9604103573540868,-0.6061533229934899,10.605741494226335,-0.02603107295567797,-0.021093177154051186,-0.06930644101831931,0.010940513968888073,0.018609553225379574,-0.07363734922889116,2011-09-26 13:10:08.813856373,4.030042738
49.0104475576191,8.445131430157206,114.94839285346596,0.028569770402062485,0.014807301805475827,2.371609229323972,7.201692303884613,-16.025266286587954,9.324096811140013,1.1289067446829064,0.016894395863953977,-1.259848905606684,-1.022192317948438,9.99751559283025,3.870347163789714,-0.48752895478217984,9.941459059905817,-0.0018095376001105255,-0.027785587366791615,0.01862927832631927,0.018515211081884878,-0.002990683366914942,0.019336944555461626,2011-09-26 13:10:08.923885902,4.140072267
49.011676793690086,8.438196942649176,114.17640442541337,0.032973111266343724,0.01039822767550111,2.3548252199524606,18.162452318663412,-5.223888684963333,15.248825736924971,0.05879611292832987,0.10867628846845795,1.6063334361849524,-0.7382107309684821,9.28641905833979,1.8798968749539007,0.19854993559737927,9.925500376100056,0.029255303035470744,-0.00998649197789168,-0.04012270684694241,-0.028345868478264147,0.03319871415017099,-0.051620992510392164,2011-09-26 13:10:09.023861354,4.240047719
49.011817703211015,8.438845796709405,114.78051980392019,0.01089608732599434,0.013887113721239443,2.7595643677356687,28.053315580051027,-22.054290057093937,0.18528071379166988,-0.036591818930668374,0.0935796529605056,-0.10173140894763627,-0.013398029331022542,7.91731015422714,0.5756749819402274,-0.7217281348470987,9.930420809650624,0.03944233923912203,-0.006265260532498647,0.0034560857579352053,-0.0028936769933951088,-0.026870069163056877,0.0015443696779090313,2011-09-26 13:10:09.123872701,4.340059066
49.01145354494543,8.434744516358446,114.86333510187545,0.029509517251991864,0.07932468833032845,5.327690215314776,26.952856772227044,-0.2842070089887798,-1.4450162955053667,0.04400089378065262,-0.0030231248289409422,-3.1213094168445283,0.13553463286022469,10.360983664397972,1.2001299444465914,-0.6176198035659357,9.871084078477482,-0.011313848524675063,-0.030058223841492704,0.39235450918244574,-0.19784161237462294,0.02877982813557645,-0.04892994364413813,2011-09-26 13:10:09.234035255,4.450221620
49.012829570119344,8.442431885739957,114.84347028814463,0.0008181070809062524,-0.02145516862413367,2.3100690994838455,10.596911961440886,-6.7389569848352275,13.479935898830085,0.24650562829777467,0.013876390846363669,-1.0830964695409775,-1.2310852277952333,9.192788571596806,-0.10440678496162831,2.360688052800249,12.154631856968898,0.018754539480348914,-0.011004595008024462,-0.005919765803838399,0.0066435427873505586,0.020029381748240087,-0.08963184906535426,2011-09-26 13:10:09.333882450,4.550068815
49.01087604980326,8.439949896865153,114.79918856855551,0.02906228828580278,0.003645011177625432,2.5543690339535754,5.800416236796842,-0.628344314322149,2.358096241746603,0.21295648646282297,0.0010236621478466029,-4.578877667091839,-2.148103252176153,10.265618211311322,-2.9703568331716914,-0.8795222741006858,9.529485031002302,-0.006058053424329274,-0.010545956701471838,-0.3434549513274005,0.004044521179912188,0.008078137527758874,-0.04010085834954562,2011-09-26 13:10:09.433863288,4.650049653
49.01152075192316,8.43883064879225,114.61355283767737,0.022024378359071506,0.0004954163296909094,2.1859246479010386,11.740548193019233,-19.40147277345907,24.667903558057645,0.1306039365031511,0.11846032430168621,1.8540895622898177,-0.9931279309118901,10.004737919624578,-0.716914369108762,-0.11885674712489946,10.084481975664117,0.0014366309039399335,-0.013019753529274453,-0.0632123650536261,-0.019414217655280556,0.11009232686672914,-0.05279925529744882,2011-09-26 13:10:09.543910840,4.760097205
49.01155908484538,8.439714608071904,114.94961339652116,0.03615992348668594,8.514124193655841e-05,2.0898679879316915,18.58907472597734,-18.89419218956852,-8.034886634071334,0.007397928735265954,0.014308968256813069,2.0298926202249055,-0.23061162230048576,8.164959910328125,-11.815484169495184,-0.4203345912660914,7.707823131012219,-0.011520178393817795,-0.009716526980589526,0.06266370846628834,-0.22571786523275167,-0.04601421286318108,0.010078147519086152,2011-09-26 13:10:09.643940264,4.860126629
49.01250460995225,8.438724489794632,114.87538462194347,0.02376750436022058,0.004287212568013842,2.406752996552386,11.045708886802547,-2.621051274897452,123.13888497381134,0.12417435776027122,0.07147401335780576,-1.4959655621381063,3.2150766430183975,10.233745475756363,0.2515088515057574,0.4958263592483183,11.34208858513784,0.015129673874673137,0.05229766281054147,-0.09483126405663635,-0.03199059935958009,0.03106811100490918,-0.035875605885008086,2011-09-26 13:10:09.743948663,4.960135028
49.01073202585134,8.440298015439684,114.62595836170424,0.02637480153041093,0.00042789557315335916,2.349475084990151,21.0427755147592,-23.371875720555387,-84.7501247366332,0.3962669017305385,0.14887510711957747,3.9744376018670584,-0.6724470619921203,9.359766802150295,1.939936877350176,-1.2441157393459528,10.367068430384567,0.007277530372220624,-0.024616212923833425,0.02046480302759484,0.08624505116563798,0.015430501643684535,-0.11336162861724564,2011-09-26 13:10:09.853904012,5.070090377
49.01060575307763,8.429916855385768,114.80287897144552,0.03236990732666263,-0.026525445052426124,2.6033067039598863,7.79710012338864,0.1802648477241222,-14.138643369241823,0.157647032372246,-0.2846124716552838,-0.6811591507085688,-0.26700221363303556,9.759617906304104,-0.06090552005550205,-0.6270610280489588,9.295202882238849,0.03721885873377602,-0.003486382326961086,-0.053325438787206955,0.017180950592234203,0.019730815448621996,-0.05728742176102315,2011-09-26 13:10:09.953894437,5.170080802
49.010845610900816,8.44065097203269,115.02668077998834,0.0260726534585491,0.010049451962154067,2.3503045734766284,9.944325237943977,20.96646959784213,-3.3365067165988798,0.0005432119937209129,0.11847137991372303,0.002099380949709684,0.24639736587200345,10.277064770732132,-4.678110384754854,-1.4513082183973718,10.881936354484763,-0.04403295359134391,-0.03145769453916426,-0.015038383202640036,0.010364529293194246,-0.0016172480746138723,-0.2296682179111649,2011-09-26 13:10:10.053906644,5.270093009
49.01048705130714,8.441646380985219,115.08965954330317,0.026790619683255027,-0.04446676303765703,2.3440021954862744,0.2986924056412299,13.002760934508714,40.82344972224414,-0.04051206410317788,-0.0862228756540689,3.5132625778467275,-1.1853076128950761,10.026306887637844,-3.2937042167698727,-0.07921631546548902,7.614053292317761,0.0009308092306366854,-0.045321961980846814,-0.0413357733205606,-0.004466609233378419,-0.022670904197667083,-0.007137350596536675,2011-09-26 13:10:10.163909140,5.380095505
49.01084894233111,8.439746378584692,115.45024610784598,0.027031668340939796,0.011524117922073956,2.109267259462687,15.432803905935142,-0.7655761725636658,-95.05515055145797,-0.10857318546572264,-0.6978681184056279,2.7536272978833867,-0.5799566879055955,10.236309793830229,-1.6337164535795792,-0.8228494342148911,10.260630374276772,-0.01356651235450472,-0.05238180175482214,-0.10060821277889434,-0.004618242383515302,0.020852659050636227,-0.03929696732711618,2011-09-26 13:10:10.263948372,5.480134737
49.0111302036551,8.438530279508424,115.28487645315722,0.03285322362071023,0.01155040669975429,2.7048842120429843,-3.4375814333585026,6.233463484194679,-1.2898949966129685,-0.016385272438470863,0.17054385760853144,2.2333475894004073,0.2323493578744384,9.466053812338595,-1.8801984322799807,-0.034800070012947604,9.934860363305198,0.011626968388413438,8.45638427377296e-05,-0.06164315798783691,-0.011938469794964351,-0.009911596687805049,-0.14523146939193693,2011-09-26 13:10:10.363949464,5.580135829
49.010899120870064,8.439276646226295,114.7487242391797,0.029068493501960512,0.004391054386856885,1.9870615312290905,0.9277284756892143,-2.117532050082252,2.767552299586896,0.08682361924013499,0.023899943133322134,1.8535667376299159,-0.17490381518942924,9.876376573367052,-1.7777870961602513,4.06735157367376,13.790904474058602,0.019696335909079078,-0.027797804000085927,-0.006258817267222487,-0.00235535064998596,-0.03446222368646533,-0.08498890315780222,2011-09-26 13:10:10.473919357,5.690105722
49.010276723473474,8.441565446513136,114.7929773572394,0.027805565097323823,0.017867455704419506,2.047145731293933,-5.840072529179686,-14.243246963311474,0.5632944934151443,0.520642680667941,0.16459571592600514,2.408918335879815,0.9735142010216498,10.61613941136608,2.0677527831040696,-1.2889207902038384,9.153489764715951,-0.013976662818813306,-0.011324713483330955,-0.06859393477423409,0.01262199875429396,0.12185434828589861,-0.06443211183136571,2011-09-26 13:10:10.573936916,5.790123281
49.01175171980955,8.43725486597705,114.878718378674,0.035621743805027584,0.006615920828641037,3.7979082547406837,5.180315777160585,1.315837911760604,21.410713730954093,0.1836067788423088,-0.07115734007763723,0.6089263569870023,2.4382851455631696,9.996344608897461,1.7988015350236626,0.9039608012377099,10.113635915118449,0.0018644732758445297,0.06275615153229104,-0.034816870022034735,0.05676144582613088,-0.042624685548638505,-0.09977748869011321,2011-09-26 13:10:10.674116730,5.890303095
49.01122911466432,8.435479180460453,115.20421105231863,0.023790305857097956,0.018509689277272087,2.112191703765843,-4.926124584310129,-8.318403777933677,-11.369944797793835,-0.07090625927773737,-0.0738525292307105,-4.205219913643502,-0.7042996774450319,9.1848784184248,-2.7877346743734024,-0.9937181500630071,9.160336036783615,0.0341600309187193,-0.07562586321387234,0.009103428613714167,0.016439607299185924,-0.0047981996617115635,-0.06660175695226316,2011-09-26 13:10:10.783939151,6.000125516
49.01166589809236,8.439914820142496,114.95898963390327,0.05417874064834424,0.02015468168084418,2.1202319086520376,20.692729907986532,-12.79855364327447,17.173380913163285,-0.020249664524444846,-0.06969892258471659,-1.1404278677484343,0.5504564428773775,10.7380235869166,1.3234743625836014,-0.10663086721505605,10.225845824849252,0.011811980868346398,-0.03526229058598622,-0.09616163448923559,-0.3198446474585406,-0.028943143483440674,-0.07554928974728499,2011-09-26 13:10:10.883996141,6.100182506
49.01183551103517,8.447462822904146,114.91783410425069,0.031298066213925294,0.0728120803792457,2.527862896507164,26.495103881867756,73.29353250017527,-9.671990263571198,-0.004784180975859469,0.08314736716528429,-8.582618182585017,-1.5826806549596824,10.27229212977125,-1.3340093598645753,-2.6168367172015787,13.004620521518166,-0.09109716719274592,-0.0026526334499057547,-0.05873038788950843,-0.007573552136480636,-0.09614527069768249,-0.052157744849351026,2011-09-26 13:10:10.993918801,6.210105166
49.00981833227902,8.439001298849405,114.69109122479844,0.010729550709861603,0.01527839376284702,2.1745697873137484,11.367306399882196,28.747631038259748,19.34278810655661,-0.07897939586751006,0.4175778849009304,1.8303725864450093,-4.014968387066819,9.148651926086293,1.9713137527161937,-0.42963704159054383,9.630465034697211,-0.009951906674031395,0.11977394116683789,-0.13713746721248207,-0.009843819422870333,0.041101588383573195,-0.08896751772357597,2011-09-26 13:10:11.093962978,6.310149343
49.01036887940844,8.43959339287493,114.93925684644982,0.02867650490572399,0.011663295032148937,2.245839804231348,-46.8951739668901,-7.720351343281979,82.85667903255279,-0.8555070345466976,0.1338328677612333,-2.9829069094457,-1.33799179865677,9.01282147979987,0.6224234849274746,-1.4267662880842136,9.834959817883176,0.010776547076817463,-0.005337991697115067,0.08027024954278948,0.012179870595614269,-0.057449300415131715,-0.08004452672363628,2011-09-26 13:10:11.194044861,6.410231226
49.01083822520771,8.438178266241826,114.68315793500703,0.01636539621840949,0.020755036751525152,2.83859313556579,12.049279794207132,-5.178779458367256,27.882671983432658,0.0682204147708741,0.0770057897832806,-1.5002210896712116,-1.0603386192790774,9.92974763893097,-12.497752054006625,-0.5135580321259896,9.272522776172085,-0.01936284016229229,0.023454994453329707,-0.04787711998819773,0.024749777915932893,0.015432166666088942,-0.04261200551106856,2011-09-26 13:10:11.303959539,6.520145904
49.01056889478653,8.440811836389418,113.44923397644507,0.022278775085874065,0.01780081736180157,2.3542698937104714,1.8266892018664995,12.748420812935365,-46.82405064091715,0.2450232450334362,0.019352514164002917,-3.0286357904630288,-1.4622018243748012,9.08598812981896,1.575872670147845,-0.7293380705067283,9.805222249103112,-0.005446101994658692,-0.01242770747579806,-0.009046092961423918,-0.02605026357854333,-0.021385930401907872,-0.06500728300748818,2011-09-26 13:10:11.403964137,6.620150502
49.01231596274429,8.440039564437312,114.75089426951665,-0.03496884331997491,0.02701700019720628,2.183912530280779,21.892343543615425,0.763052917448972,31.205017233376367,-0.004362308194271608,0.00852642919439846,-2.3899328044538812,0.020735183478537422,9.468017545918299,0.5295096477508854,-0.8683959057092903,10.919794567595007,0.019915179613392096,-0.05130389512062049,0.02280789275099162,-0.08229124596194531,-0.033191806598991395,0.023117710888882946,2011-09-26 13:10:11.513964428,6.730150793
49.01178195667704,8.439971547603486,114.79826773134222,0.028247508071516967,0.013302905411026498,2.6509927605355124,-5.807494595134155,-15.944761433251312,14.00418815842831,0.051081710683724996,0.07856821990495351,-6.499649312056134,0.4570233620525881,10.720619873290612,-1.46523056405671,-0.2993087217027557,10.478437324037673,0.03873845315728702,-0.06659909608199871,-0.015464774568345368,-0.09803042331079968,0.00857098311587192,-0.08861287931139153,2011-09-26 13:10:11.613955966,6.830142331
49.010562891230556,8.438038579768424,114.75438181817017,0.032727109043460836,0.013628126870006889,1.8524833459144803,9.370607149868075,13.578768122054836,53.811453585442436,0.03182980453965155,0.045994191828017866,-9.016641118782497,0.635818981235509,12.89723183829954,0.9479655410983185,-0.3425668048153188,9.466217295243714,0.004773391543986653,0.008432050995299426,-0.02834352473706294,0.033539064483159534,0.009691693255670479,-0.13601951860298006,2011-09-26 13:10:11.714041489,6.930227854
49.01279445718134,8.438684528558246,115.00945064152741,0.0305696190640517,0.018322330298610533,2.4080550066421837,12.401138637447108,-0.6946585902952283,19.511121140981835,-0.09455938831867579,-0.07094322085929936,-0.27731373715317864,-0.6231470284032251,9.403381490336898,-6.650241220336386,-0.5559588564452159,8.7016461042925,0.038708775121704286,0.026282860548738865,-0.01659034741665537,0.024905649705740645,0.07553112623197791,-0.032464310302184496,2011-09-26 13:10:11.813975744,7.030162109
49.01140717001937,8.440791934845294,114.93701370229674,0.048042896750132486,0.05135776871468995,2.748206597607853,6.58867991845227,-0.7855347501026442,35.31225143739474,0.6713372917141653,0.16416020454291091,3.2374713767849324,-0.15632758738693908,9.321184100491257,-0.3855203240763492,-0.42675549784984024,8.434331575741625,0.02839915423649692,-0.0159589397636358,0.02256949336431862,-0.03558478396590068,-0.013298703449231314,-0.09388908666279233,2011-09-26 13:10:11.924005417,7.140191782
49.010055223504494,8.43902968706866,114.61437248330508,0.033592336797307686,0.0037863644543693464,2.368652593796473,4.839951587227857,9.765282198936724,3.7142811916107537,0.0082841749056361,0.015177945289112638,6.6656279952807855,-0.4848589413129657,9.150631461072045,-0.973889557885077,-0.003260736825289795,9.791974929104223,-0.02439283651580387,-0.003185504168255553,-0.03775695357821889,0.05502867939507092,0.018979441077112736,0.04387733542772579,2011-09-26 13:10:12.023980628,7.240166993
49.01281763868597,8.43672187572377,114.90482217738739,-0.03851607250233675,0.01837907619273151,4.488179710093135,-7.370166221622105,-2.7609093724933875,5.035162967445109,0.4943601803351406,0.019999778251716095,-1.905535793673049,0.06328104489280476,8.667974455854068,-0.30530788873606385,-1.2897766846608296,9.384287726467432,0.10206864999291414,0.008470331616529991,0.03568892395989646,-0.014418963298762646,0.02495452759938949,-0.054865206666030286,2011-09-26 13:10:12.123974334,7.340160699
49.01060841978755,8.439011943844102,114.94742223529602,0.03543819898047669,0.002014367799486376,2.386701044314214,2.383674073027609,10.754037144369612,22.26452213731212,0.1954279810657606,0.033770545348697466,-2.451459454437267,1.4383681237499426,10.354409807636195,-1.1431141133049332,-1.0279899698786563,9.522277660261176,-0.015749273994265286,-0.07164431225528715,-0.06274496873867196,0.03245983100184313,-0.018865774894346158,-0.05973170672411919,2011-09-26 13:10:12.234214266,7.450400631
49.01144791014191,8.439294364107374,114.96882279921785,0.039254740681676545,0.0020946755387524756,2.1236865401241944,-13.099347096125104,-10.363109310597032,-6.463145877306587,-0.06155335781846773,-0.06743726422884734,1.3590720881122953,-0.13492236947830005,9.801531614205407,2.265020201580162,0.14914064483253672,9.722508648186071,0.02096174530731778,-0.008681451955489404,-0.007221310193439915,-0.0939722918804934,-0.24351086784464004,0.01676821491328863,2011-09-26 13:10:12.333979737,7.550166102
49.01259729150795,8.43901006468951,114.8148633446905,0.04172525202244447,0.025736821165816076,2.1702755665694142,20.510935799375034,-2.8017903678016034,-6.569716839794047,-0.04846598540602444,0.06561227085370483,8.878614561100164,1.671765220002766,9.453994468132356,-1.6720895451756594,0.33484006921332843,8.169446252605454,0.021525516348447016,-0.018431144944824264,-0.013694192831036714,-0.025664912762090916,-0.03077767863000328,-0.007502310037322436,2011-09-26 13:10:12.443996598,7.660182963
49.01086872939758,8.43790286391586,114.399978722177,0.034588417626653455,0.0031840962991382116,2.433304626895625,18.824617071079746,9.81562720549897,79.65425594592342,0.08829753871120587,0.07506853991688277,-1.535467580380913,0.9416367453536845,10.163658164991201,-3.525567422311497,0.5727420286882234,10.838864522558119,0.0005885922634904523,0.03146659937426897,-0.021263771196358326,0.050285035077617994,0.001545822004945861,-0.05631428055318509,2011-09-26 13:10:12.544003386,7.760189751
49.010766724552454,8.446307809594094,114.99157565793799,0.03936031233243616,0.011031647876532056,1.8575354526077403,14.696018874901508,-36.15449973212593,19.310955011649433,-0.057456697524189915,-0.043341277870826124,1.560817344423028,8.579213652457092,9.433585973493352,3.3611091673060374,0.6866343454538776,10.281142329918833,-0.007600361529198052,0.03432442210225564,0.04367101355145918,0.004986319536413272,-0.0006111644780712258,-0.008093334047097467,2011-09-26 13:10:12.654008917,7.870195282
49.01208779688688,8.448419753228306,114.9557656733297,0.03901337815865473,0.0026096094822792067,2.3026724992800487,14.309035841016328,-3.3872439033712993,-17.53178253880455,0.1518879674837023,-0.04854745120580669,-2.4090946357963414,5.094973698780183,10.440068906082258,0.039950378112449725,-1.1547919996331522,11.104494759056118,-0.037010248748653926,0.023942944232259948,-0.034307131517359826,0.013214937299961638,0.07604855642634803,0.06412682165444825,2011-09-26 13:10:12.754043869,7.970230234
49.01170422890049,8.436259921582831,116.17569681843464,0.03977513351483217,0.009264723216889155,1.571063288867117,-1.8273714706275852,6.6744889410456105,15.110022845099977,-0.2951807271376795,0.06946478155467431,-2.3894371642628998,0.6144470975914205,9.088479537284243,-0.9182490975888502,-0.6655924928793823,8.973927023066944,-0.0799691786479853,-0.06668785674808693,0.007915840697995235,-0.03485536717459094,0.05469607167409626,-0.012286254144456138,2011-09-26 13:10:12.854016384,8.070202749
49.00983264835649,8.439469470920052,113.45592749790418,0.03555887713736312,0.016477563885868997,2.432077685980553,13.098104044573212,-3.3950912329065135,11.591803879762454,-0.18793131065030994,-0.008299338541463593,1.111652630249558,0.6878075302277379,9.347010191802822,-0.4112583210372731,0.10130870346433028,10.564172906291638,0.028348080108402295,-0.0510838487899413,0.09176630803758276,0.3032805945702047,0.009085531984881831,-0.06421501532189902,2011-09-26 13:10:12.954020859,8.170207224
49.01157710389549,8.439417980736552,114.76547091172782,0.020872118913257687,-0.0008243434359964039,2.2112015506460474,-0.4087478610377131,-3.5250829619541175,-18.733489722648553,0.013220413137019674,-0.1257671028055928,-0.441953938839437,3.3775223997593087,9.73736001489391,-1.0867227272516087,-0.15417420280295038,11.245571180328549,-0.02485687402302577,-0.01602517900246421,-0.094933231573892,-0.011479242095119722,-0.043970084029367335,0.003496956740808046,2011-09-26 13:10:13.064001351,8.280187716
49.01005706685782,8.440015491317288,114.45255140102756,0.037469224632016775,-0.030200718576201952,2.4191276546240172,-41.791137938636126,11.829313818594937,1.4952690608851409,-0.15518747028465743,-0.08957657277214351,-2.6289248662144207,-0.24722486550086845,10.3585402892267,-2.3366523919933,-1.3306352633441885,10.294612229828989,0.01209049536474853,0.22126448112990113,-0.030085415771511408,0.11106933096579372,-0.005818686527460306,0.006979878650000992,2011-09-26 13:10:13.164035566,8.380221931
49.01175081379379,8.441585131425112,115.0953049834411,0.04586519809084103,0.004791278898121288,3.0162398401605586,1.4673481667575503,-2.856824597380097,6.668784039954005,0.20021147380040602,-0.1027148930605539,2.2067875491339066,-4.088711974070936,10.130066287158519,0.8698951192140096,0.17102442373975504,5.580588112927483,-0.018571750924124747,0.024349817519550752,-0.03241011751902974,0.03130410594553178,-0.033964118864893277,-0.021082950919058808,2011-09-26 13:10:13.264063802,8.480250167
49.0114645287782,8.43912124812604,114.48547786606105,0.02196578504236832,0.0017397778337244138,2.011594303765926,176.41625959756794,-3.8469159552535377,67.40688972633104,0.02007023335410215,-0.05875896750949096,-2.260650895663753,-0.14351779292558137,9.992487137821005,-6.521398480589081,0.013099911411279003,9.32213429805404,0.0070987523194862324,0.028676930410341972,-0.5093815910270434,0.01057459500216259,-0.02885484391181421,-0.02787592861009397,2011-09-26 13:10:13.374033916,8.590220281
49.017760525211834,8.439670736420227,114.15549786760081,0.029578243251683272,0.01033289096300485,2.21810115919711,10.365197697648288,-49.43211820294972,8.940106125545478,-0.09521496659316113,-0.06180932444623034,-4.787056295513992,-0.4880594534805083,10.266372219739656,-1.539887210145491,0.970505040655312,9.451029526195098,-0.001664285438471023,0.08103011235681917,0.002651672850370608,-0.0025860003509475763,0.08082416369596755,-0.05311324036215663,2011-09-26 13:10:13.474037266,8.690223631
49.00896402646563,8.439030484167755,114.96496287962425,0.027817324415256566,0.009405332828876328,2.1211201491710137,3.1563338122618725,5.759636251027929,6.533401995427825,0.09074534662987419,0.0341361705073238,19.738172592382327,0.4567818989445123,9.001723481286536,-4.059054328318451,-0.7569928867373651,9.506749927415102,-0.01141525475216654,0.00905246236102989,-0.003336065675619816,0.10384272596201255,-0.16949215805435217,-0.0297275144819014,2011-09-26 13:10:13.584244234,8.800430599
49.01204615889755,8.4400115808196,115.43094935128572,0.03604542750529556,0.023045180700788197,2.0333875845054576,6.720656890499568,-27.737409582834445,18.497300232787193,-0.7508770827914015,-0.15555213812000326,-3.3109294749945897,-0.38440071878993276,9.77285437281401,-1.5434517649296189,-0.39764979072839823,10.449796335031607,0.04088149440356563,3.1606492777175505e-05,0.024568270541503637,-0.025820015248092097,-0.043310892640034813,-0.0741808421223545,2011-09-26 13:10:13.684215725,8.900402090
49.012332386008815,8.438362872499134,115.15449623244471,0.04084208383560299,0.010678693186688267,2.4129172727631523,-12.999344909513445,0.8010856223035754,28.87706506290065,0.10815671404378344,-0.04445233028507886,-2.5753405886524083,0.13989574553624412,10.418232016467966,0.9150527648099878,-0.5261243336915461,9.949551883813248,-0.011243176512739235,0.01156111219702562,0.026134913345754955,0.0032138991087981095,0.1055016157542627,-0.010232474139039164,2011-09-26 13:10:13.784087135,9.000273500
49.01136164563811,8.433962480833458,115.01142611864387,0.04215315724963462,-0.06171018473866045,2.610028128446378,2.721350021647966,-14.56121461292498,37.0064017366635,-0.021909974453011766,0.052488042387537015,-4.397365765806627,1.5475578813676694,9.171147523682318,-1.464897339633195,0.1155901517395327,10.425150755209836,-0.12972110999752137,0.1728631640618044,-0.11545823679497465,0.005980568882160652,0.020798581855733127,-0.06487546697256781,2011-09-26 13:10:13.894004387,9.110190752
49.01096218996347,8.436172250488276,115.08424870996224,0.026351885834706264,0.007741691068685896,2.2441386224636055,58.20089341791882,-37.409949873786296,3.7441181652000424,0.2093990186942964,0.0790298156878266,-10.850641679873853,-0.8970937593674798,10.167814887755952,-2.1372322317369816,-0.44534738818664155,9.702509332043435,0.018524568482290546,-0.02354379159096342,0.006404439467854281,0.014328461344573329,0.004357567734953318,0.05280783408202824,2011-09-26 13:10:13.994054079,9.210240444
49.01000728587046,8.4421222430412,114.36980182385769,0.044488180329157745,0.02240698833620156,2.74127392697566,-5.531195634803149,-12.147249924187774,12.88259211437733,-0.10643386288001044,-0.06047799152101606,0.12133325763535874,0.601119868023001,9.110262894214626,0.19789273185367828,-0.161140400126224,10.986410516178992,0.01483279981603906,0.02333735967019004,0.016768928324186805,-0.0010009199435680417,-0.0030507642646367197,0.09115544709430275,2011-09-26 13:10:14.094083310,9.310269675
49.01028729199821,8.438186984840918,114.7893123257706,0.0342383335053327,0.005682342448155731,3.2107598028825697,19.116435902777546,-7.3720147559332565,-11.027406931321163,-0.09007605411665957,-0.00723331827970309,-1.393790267767624,0.6589159969422573,9.040249815597953,-2.2109564527487424,-0.06448768011533411,11.487327789470745,-0.0023909779566925185,0.011964693409450366,-0.07075372423027407,-0.04312466103994524,-0.015190308867909404,-0.03844900017937153,2011-09-26 13:10:14.204360270,9.420546635
49.011116208357386,8.439586196808,115.27661790256914,0.03417377268146382,0.012791284880005173,2.1065239051921787,5.568768206942248,42.09626607195155,-19.19032925254042,-0.03008041370195725,-0.017369622186372568,-1.698409902739599,1.2167636026138156,10.053065362653268,2.228246319149788,1.1109321101500496,10.802951043258117,-0.006013352105324103,0.011771173297517559,-0.04740458028391557,-0.02079162589876061,0.01014111466314459,-0.08332105944484548,2011-09-26 13:10:14.304086904,9.520273269
49.01113516158516,8.436105832174187,114.75286602592585,0.016008235258014376,0.010877776814653068,2.3308798508726936,45.010737297868516,13.76687468684323,-4.929525289653067,0.07948052387840396,-0.0413095671717559,-1.9334160481148666,0.31419543938431416,9.349771161622117,-4.469463141557158,1.0410177236509095,9.867711033190433,0.03574382175132658,-0.01842776696103899,0.030273085122600796,0.013886748093038411,-0.015967393617777263,-0.010532485275917564,2011-09-26 13:10:14.404096738,9.620283103
49.01180055638915,8.444514866881054,114.562345891902,0.03404879753141848,-0.008133730507710074,2.4221358172505667,22.359001199341524,-56.457498910770106,-3.0235138551763496,-0.0040718937367068345,0.0028845675403053068,0.029663100500151307,-1.5170310183279028,10.664949704426066,-3.022888447172053,-0.5598333588082469,9.783277769770853,-0.05207101593811695,0.021482786438389176,0.01712881677633209,-0.0343597825864401,0.141891135437171,0.2505662473095769,2011-09-26 13:10:14.514092779,9.730279144
49.01265198391033,8.439370347124697,114.8609890140285,0.0461683920852753,0.00589260140592933,2.3704092094934124,6.46889221696571,-1.1342772093920541,43.00826751053934,-0.008315813700611734,-0.06139458446085559,0.36694575531686113,-0.11327399626494619,9.254431743063368,-2.9434076034960976,0.3407115088492526,8.879992717907738,0.03332684514548412,-0.0220196129872133,0.051596542615395535,-0.02403354841609689,-0.012743234203316516,0.03504970927188182,2011-09-26 13:10:14.614108117,9.830294482
49.01065204585253,8.439461742180274,116.1331318867482,0.030443318143965753,0.07676463442724897,2.444786340512709,9.515585799650484,-7.012963098046187,31.003803744642074,0.32283751887667766,0.13337042044874256,-6.314208088916236,-0.7127432783723469,8.71873060373613,14.178848783185126,-0.12136351882049234,10.23480430394665,-0.01784031543131488,0.008478053493010803,-0.00478818937897345,0.016412189318668887,0.030001842570102383,0.4860216428276722,2011-09-26 13:10:14.714233486,9.930419851
49.010632272086376,8.439690971979777,113.9965005657853,0.021061749256712153,0.012639747406199133,2.473453317617837,2.7976533735233016,-2.34254619908816,-3.114300405745004,0.458892157124798,-0.02468005752037615,-1.4148834824337975,0.039485799620991024,9.55287142953061,13.950001142803401,0.33044933434742324,13.052047581616133,0.0108647838036996,0.013814089883681106,-0.002834224714518418,0.028572791790174468,-0.10392515000949272,0.003238299507044247,2011-09-26 13:10:14.824053806,10.040240171
49.01141865691726,8.439146511628103,114.8306553388274,0.0397580719054565,-9.69753189051896e-06,2.3744877536171716,-2.1736986689690196,11.442937513506084,-0.8290409742290787,0.12694164431578242,0.11779371690040068,-5.305830817311401,1.0015552347548717,10.014190582090867,-3.42001259161403,0.6458104743185167,9.94353217366987,0.003470135146023665,0.04087187526222517,-0.37259600667193765,0.013722371720907848,0.0060983947419239095,0.004792657398120594,2011-09-26 13:10:14.924157669,10.140344034
49.00574082438542,8.436974890999013,114.87801635557233,0.01811784718182962,0.0079292702532803,2.2600796586152767,1.4670798320370024,-9.75893404819922,9.257602956052448,1.3198320360776303,-0.1381462795544509,-13.367965039097458,-0.21537087847526343,10.418760374535985,-2.6159769763733163,-0.7059322745224105,5.8181191055804256,-0.007376213838115182,0.03394406645414556,-0.09769126593074982,-0.0163322117227851,-0.059740363179516684,-0.0045137815985160385,2011-09-26 13:10:15.024077447,10.240263812
49.01217828728023,8.441293584952748,114.8292252346393,0.07419404552576005,0.01468624923790899,2.0157796881840797,-15.272070947930732,12.414704804769976,70.94935402435496,0.038512868297859756,-0.051880435739247666,-1.6324278877819682,-0.40851317778630974,9.748557759375412,-1.7423611519952416,-0.5695787585342631,10.184578743632368,0.02104782002147499,0.015487313512166586,-0.0614240139837528,-0.016388175775363226,0.004609445055476521,-0.02297768510149726,2011-09-26 13:10:15.134143144,10.350329509
49.01063428474248,8.440174055159932,114.83387353343264,0.024966094204343554,0.0024450036708602452,2.2519147637101242,112.50738963655242,-22.383774672318594,10.932320523026814,-0.09031144043614858,0.006387597918530398,-5.597956343020294,0.37679677635488695,10.211970938047935,-3.2511097820710546,0.08642597896679556,10.481212460445402,0.0021316945120524785,0.02282317178027359,-0.09764611279296698,0.0125657358828587,0.004315062296454887,-0.0994566645742193,2011-09-26 13:10:15.234331841,10.450518206
49.011765473590465,8.43832052828745,114.91109542839776,0.047419021024295474,-0.06686257287876883,2.1336889755082145,54.736312733579375,-3.2433398963931968,7.936098104046149,0.13120447817489886,-0.1251586525560688,-2.156406972315418,-0.00592106664852507,9.98125893537849,-1.001277192801988,1.4623536472826428,10.31432112411222,-0.008943169542147985,-0.013546612596375187,-0.016324052610877576,-0.02311469383876888,-0.023716316474498435,0.29016056932498124,2011-09-26 13:10:15.334157541,10.550343906
49.013219650195296,8.437919464197739,114.87962321117973,0.029919094165095556,-0.032380358731332236,1.459016006601368,6.886180368620996,-9.071107803241699,-8.576703429741029,0.06534431156851003,-0.0412908616793507,-3.241383921670468,1.5684812123045342,9.610722252274753,-4.821826957548247,0.5358743067851977,9.796253943511038,-0.009302704602958928,-0.15029521866660275,0.1657004891906709,-0.007251289357510692,0.012941671683585922,-0.02757454238552942,2011-09-26 13:10:15.444144244,10.660330609
49.01098016745231,8.439057676558873,114.91616758971364,-0.05169430798948267,0.010396502666720922,2.3266596419486683,-0.18860146419736568,-15.319740938027689,4.002643889925228,0.346457406103499,0.02378529451269592,4.530113939724546,-7.984486044907362,11.3642272010102,-1.8237480114304985,0.25002290528926246,9.305012437955634,0.04898214581442741,0.015207565203370257,-0.008990196469119171,0.030363773753186538,-0.0002079543184105284,-0.03465151114737918,2011-09-26 13:10:15.544153916,10.760340281
49.01044859954623,8.43920959809228,114.75310006362706,0.06852557130364136,0.0034864883389802625,1.9678652137880015,-3.883006969983061,19.127071604341054,26.717608405970722,-0.02863772394151546,0.008272795868148724,-3.217142270874412,-4.545718931842417,10.145504545414619,-8.677922366754407,-0.2856595361891909,10.323773098014364,-0.006881536658444774,-0.02129612131893642,-0.08771344339650664,0.012874051986794189,-0.022165372871701165,-0.05716738950622363,2011-09-26 13:10:15.654160900,10.870347265
49.01074991298435,8.439966196748875,115.32062388317686,0.020357044777194883,0.008480471824313433,2.15370422617137,-33.587310196801155,-5.230540382628204,-1.9544557536237286,-0.1947392997045961,0.0217292576177983,-1.6244815867293618,-0.3066462938079877,9.793653637763086,0.2302902726903997,-0.0985380640744846,11.32415682069628,0.027218465416944122,-0.12071432277350057,-0.008679605810625208,-0.015746871150010576,0.04754087051242056,-0.021126339590722926,2011-09-26 13:10:15.754196874,10.970383239
49.011393351766635,8.441134044036167,114.93486344430055,0.03648028421153291,0.02206621012083139,2.0258064550149295,3.7425599680839534,-20.374015650917652,-0.20665297461057275,0.15821137003446148,0.0313847095122919,-0.6739614336442092,0.2563666667373803,9.417484076988051,-2.6296494699737676,-0.15291447044765802,11.229374238882441,-0.002044204172982741,0.012052798538007014,-0.0291196023589818,-0.025519973246277326,0.029513702765362162,0.04132708404630034,2011-09-26 13:10:15.854153210,11.070339575
49.01149812255233,8.439608428815816,114.2966609712798,0.020044144434055246,0.010734043094624848,2.208438569615216,35.37619514264679,9.67718186407562,4.717020201138368,0.9001705715618672,0.4917863053624473,4.797631395435827,-0.27736670988639167,9.752313450096226,-2.188358695807157,0.19515787200772655,9.47204257172777,-0.00023625502957541882,0.19006584650405564,-0.007273983225367904,-0.0018925396026042403,-0.030485084034152322,0.135120044595595,2011-09-26 13:10:15.964157257,11.180343622
49.01314459256856,8.440818074367655,114.16912335623925,0.01692311911088555,-0.004246580502586401,2.702074460158961,-33.3890658578784,-13.246015605760258,29.07870021621916,0.04343291421207348,-0.024933312159583804,-2.155728641039196,-0.4849810277240129,9.038434943124841,-2.4570719871823288,-0.6098234544382432,9.139489167513613,-0.010673367039754139,-0.061845343245424546,0.028742827943402095,-0.0034003739704606952,-0.008166733362190284,-0.03821116610319911,2011-09-26 13:10:16.064156308,11.280342673
49.01220822316595,8.439894498418756,114.79108806932898,0.022318102502722672,0.007727594060069282,1.965130720546092,2.691032626805244,81.53314685987534,1.4891066892137785,0.053763471780595436,-0.01942585825011208,-2.89882504931245,0.09466424385470898,9.080679954208327,-0.9887640320702814,-0.35219783622758927,10.082458429266088,0.02274610581719075,0.010450583700764605,-0.05198876365229619,0.024508222240141004,0.007564063808757532,-0.01658508188755518,2011-09-26 13:10:16.164173419,11.380359784
49.005075379114814,8.438730926222828,114.55794373764365,0.035749056042388136,0.01875268458094598,2.093470892480485,23.75634309823768,6.811443534543178,83.0713301110142,-0.10079314929346868,-0.09586691985614171,-4.040039123182035,-0.13683100055184405,9.897890465963517,-3.076158400586686,0.5921807216031075,10.334851843589101,0.02915086041137544,-0.013209062664768245,0.05844557500798208,-0.015733444130886648,-0.0053282232377751,-0.039588613398479716,2011-09-26 13:10:16.274135110,11.490321475
49.01112077296945,8.43784285769016,114.5693205889476,0.017226243764878708,-0.08692010146029412,1.5396237430139177,7.542401498010925,-6.890707153835822,-48.57666190582296,0.13353716505113375,-0.0579468366587949,1.062631303577777,-0.07100911891970835,9.952244279119354,0.8540640308600957,0.6739236668871372,9.873502278640217,-0.06170709140550494,0.05325235102630981,0.004540173649857624,0.007525408555739408,0.028763208480457537,0.0771322851618536,2011-09-26 13:10:16.374186980,11.590373345
49.01188219067484,8.439901911441018,114.82577962903606,0.05230336018994934,0.016405506948441204,2.1498596362756612,24.67269339437224,16.255279858968162,-6.462554794974089,0.004679915473301292,-0.010876180876094876,2.0425637490965256,0.3522718620198681,10.596852589051064,-0.996504220068425,0.10597102371829029,8.155361609291162,-0.026444808273911224,-0.052532883370400546,-0.019264700541092816,0.023463018770938423,0.031011870566055904,0.10194969476380748,2011-09-26 13:10:16.474182245,11.690368610
49.012036307621266,8.43908832170522,114.8116788389397,0.02728026258877884,0.013412243557942776,1.6549155392686679,20.070067391889296,22.431332792081374,-17.724728658921528,0.11518547345891932,-0.037319451665745795,2.3223777815651636,-0.41836660029809203,10.333780258821157,-1.5586139765517226,-0.18379371037221154,10.46870421465815,0.007410705754430454,0.020006161034389628,0.26997613703216,-0.0008514218102777891,0.022243312243147306,-0.052060978950851405,2011-09-26 13:10:16.584295297,11.800481662
49.01070270412731,8.44126041474088,114.71468969533923,0.024978702555596106,0.007180264683004122,2.329604303375557,-1.09806699547645,7.09018435698846,9.075221299600248,0.07545617014336342,-0.08136078099957617,-0.4696242511750808,0.3358323742795165,9.185870529912137,4.737544068303176,0.31744542655492525,9.117124848130507,0.029851150349598617,0.029380420289649475,0.02573824424589723,0.03140067540739554,0.04517978896614104,0.04529603184107588,2011-09-26 13:10:16.684327660,11.900514025
49.01167149489615,8.438934299450615,114.62909502423395,0.03687107085614936,0.019560425720721523,2.2154778850356784,12.093469718357355,9.636306853268792,-15.830732290157052,-0.5415229437343458,0.006802638228432384,-2.3243439010131013,0.1476451343935407,9.68572246638945,-0.24168848232542472,-0.2379834262052385,10.213402468460737,-0.01706077253434069,-0.01654707997225873,0.05747127080486691,-0.033462003020301556,0.0403133222946324,-0.01852715115560847,2011-09-26 13:10:16.794161058,12.010347423
49.011648989290336,8.437718221270687,114.91456590342597,0.02156868472855014,0.0013113255037070625,1.6371794933791255,3.5743244930776807,1.2264707604182856,-19.82412546656402,-0.11888566113244414,0.04780330733857657,-6.813308224458426,0.9133863692062207,10.847435672987869,-4.043900404079081,1.0538060255373776,7.748824370141351,-0.020277449424385457,-0.07360342384445673,0.010179384199987979,0.014545416250818049,0.057153192985632525,0.0899626813939416,2011-09-26 13:10:16.894131394,12.110317759
49.00977740972476,8.440564786601529,114.85505671357761,0.026108177780252203,0.027427815612220224,2.1904057315874983,-10.845539663249358,-21.884318595238195,94.93625463190659,-0.17178296275956842,0.022544052012098786,-0.8768872846037128,0.3196892367598797,8.967807348380784,-3.0228514553092913,-0.2368489371233469,10.185707937162315,-0.10082504469814248,0.02328811066033785,0.07295208910127739,0.013253697595213344,0.04005126170650355,-0.042585894637887124,2011-09-26 13:10:16.994191553,12.210377918
49.01070327269443,8.438941586292984,114.58533433311727,0.011114330408062291,0.022407998203340565,1.6410653974938394,15.542174425700585,-46.94979245826583,55.06692723478915,-0.20936155744838966,0.09075745002673494,-2.0840227389238564,0.5689749479067906,10.67358723255449,-0.5348604544143531,0.6782709525941221,9.052240729590483,0.0109235622428733,0.003801490926165202,-0.020080776101231552,0.009153207187089032,-0.0008084845432372576,0.021213672152436067,2011-09-26 13:10:17.104155004,12.320341369
