lat,lon,alt,roll,pitch,yaw,vn,ve,vf,vl,vu,ax,ay,az,af,al,au,wx,wy,wz,wf,wl,wu,timestamp,rel_time
49.01122413624129,8.439988562615087,114.5066694244981,0.023233608325346336,-0.007221869000107819,2.0381657343456383,-53.77173899447926,-40.83926580067521,-7.653232288732024,-0.2137844118459876,-0.06970248330481492,0.2617492318373851,-0.09662242691308613,8.904391934506933,0.4205774852651368,-1.447418508518086,9.374470840735817,0.00899595341261693,0.025088187826726484,-0.02185667939387224,0.02923485993952909,-0.00798204446565378,-0.12066513076877045,2011-09-26 13:10:04.783813635,0.000000000
49.0116110490181,8.441121049797777,114.80033089130748,0.02605579771411428,0.01999302992246795,2.3535369682142413,10.93730543855133,-28.3524497066881,7.283945422163317,0.09579066186268222,0.19219302914142875,1.0076611057493106,4.28978412384368,10.054223027633586,0.40012207682230516,-0.8519791696870003,10.693945448515146,0.0019256992726890906,-0.01085952138794205,-0.11053068951502336,0.013333864070550584,-0.038373026629198594,-0.10855915086353457,2011-09-26 13:10:04.883633226,0.099819591
49.009909650370815,8.433472556195019,114.5660633557988,8.011246358356414e-05,0.010684841328279019,2.6657535648939885,31.409657685872403,-15.42648025847889,3.0442016813825745,0.07749619904090285,-0.6396606604023408,-8.634343222569608,-0.0025892676122806213,13.607402768831012,0.6218886938203358,-5.051629750521167,8.951899902517289,-0.0035693833344031187,0.03537736193451302,-0.08605590881102103,0.01777213256194179,-0.021188024714670968,-0.12406309987415756,2011-09-26 13:10:04.983623089,0.199809454
49.01147478094884,8.438204219692366,113.88086346072838,0.02518465559785669,-0.006753569904739431,2.1866786258717843,-5.736450456386603,-9.426026266413215,26.863062927952427,-0.030282763236450228,-0.07548006158907294,1.0879605114715125,0.5213523114815594,10.577525230899303,-0.5521902490204569,-0.45395057325996513,10.151306924610662,-0.02785290128234061,0.014936311345598923,-0.02672972057405247,-0.04135990522958689,-0.03683981903873654,0.011958364406529462,2011-09-26 13:10:05.093657185,0.309843550
49.00964492639841,8.44091635127404,114.93089576434168,0.03141908011716209,0.014952068127286958,2.813557100854195,0.6118123753519509,-21.96878850376239,-123.33897908511845,-0.03151270759596023,0.1075244498893971,1.6583204332481998,2.5599539635014317,7.483554401978295,-1.1612702219866113,-1.4568920316239211,10.096752900787056,0.03553303378858855,-0.008185443544332437,-0.012064613601785706,-0.06404454396551927,0.016089318943430995,0.42937149328426416,2011-09-26 13:10:05.193823011,0.410009376
49.01018099017389,8.440472556429192,115.09925499729474,0.02318892416986994,-0.004852724797456016,2.437960585414655,16.602291733525767,43.222536867152634,11.199080451505385,-0.13839830422710897,-0.03906484540567152,1.0423907345047063,-1.004061237933334,8.462199912933096,-0.6349420892835608,-1.7736516880683577,9.467111127088275,-0.014331431114856026,-0.032832148142882954,0.019153034181545694,-0.0095914448512709,0.043329461317872506,0.0687757482082276,2011-09-26 13:10:05.293672144,0.509858509
49.01144841468917,8.44322371358639,114.82901215547267,0.03522664859618462,0.01198622697764964,5.074141517655326,16.132981531036897,-2.903911445501911,-27.417845816740154,-0.100385800563678,0.08066887871773959,-1.580985236284256,3.8955862787434414,9.661459145562604,-0.7870652436437178,-0.42131802377696653,9.837249701888798,0.009204928651872727,0.2887884086852551,-0.02590758947560181,-0.028936351821629267,0.019495595996433808,-0.07989556060541823,2011-09-26 13:10:05.403662726,0.619849091
49.00903598069164,8.439067071293286,115.58087753574429,0.024599633708356834,-0.056325330344345684,2.06725860422224,17.28044425239829,-4.976714625407099,2.4741600368153787,-0.08249912421676737,-0.003198961336898386,18.902270712334783,0.13683651270683836,9.720634235351014,12.687295922254208,-0.9024374551911922,9.111541286922217,-0.04571932108287448,-0.023565932725210903,-0.02729153170464884,0.02622235445047087,0.04399080564621629,-0.2039400863303646,2011-09-26 13:10:05.503628097,0.719814462
49.010800184184234,8.440773426806789,115.08611567025561,0.02664070437210279,0.004188948471815461,2.3599685791505065,2.1908910139428732,-6.084950605209546,30.540563313452743,-0.17270245555753277,0.13219943666656694,-0.230450987050966,-1.9264312747789925,9.483929379812418,3.240162829606228,-0.1266324809831334,9.918373924516134,-0.009376526198384241,0.012592314447139985,0.03010184590830279,-0.006584609275124593,-0.08701724768928379,0.014451031688192992,2011-09-26 13:10:05.603676910,0.819863275
49.010683967464146,8.442204771884695,114.62791244247428,0.016535884548631592,0.011192210170359256,2.35096353535993,14.712120456417459,-80.67168376284044,-15.032347790547002,-0.28785861061364515,-0.27205835272345236,-1.0639361527716948,-0.20931792134651894,9.997729473571379,1.2839872157135146,-1.7563219206034053,10.571530276118631,0.006297700112906469,0.04657178815377454,-0.07612881045632895,-0.061870214487635314,0.0008306617841883721,-0.09047953817204529,2011-09-26 13:10:05.713731980,0.929918345
49.01151260281421,8.440010438214802,115.08930647426237,-0.019510749378306956,0.0235192325906366,2.5544305684017257,6.649338987517038,-16.633593270944004,15.535943583030008,1.0471396602466303,0.169814804168595,-2.540622808180618,-1.14114785099635,10.07038709556221,-0.8090294207598062,-0.8213076194586361,10.018264266559742,0.012318044100390937,-0.012517945834081664,-0.018876853118578986,0.027146444988609107,0.006112104216092085,-0.01210308156247379,2011-09-26 13:10:05.813663327,1.029849692
49.01032940885535,8.439378533069668,115.69049966425604,0.028905101621777257,-0.0010699302129101268,2.1793562723842532,-1.0323109643652444,4.598242747765902,17.36759259107398,-0.11925322290032722,-0.09367504857424448,-0.3681720824670459,-0.696330973148469,10.242050889825576,-2.8629948263551426,-0.3093553773683442,10.620283648855164,-0.03281107967471966,-0.028828646030342374,-0.015559043315423023,0.029462841677991642,-0.03907452194802834,-0.0381792824281145,2011-09-26 13:10:05.923740362,1.139926727
49.0099424372466,8.438278802849903,115.13942822782894,0.014370070688043806,0.06862110241511764,2.591463733371066,10.077549979607486,-7.12120886786667,-12.31594874682917,0.20368424759538917,0.04379232113172269,2.549774577428249,1.234845088160858,10.368512267509049,-6.451548496710477,-0.4703928289977695,10.281117918007862,0.05897070830750134,0.04367999581342357,0.015159537378769895,0.04100397399500186,0.004467163204036442,0.04598035442950878,2011-09-26 13:10:06.023691375,1.239877740
49.011339505165104,8.440425383582394,114.99737422247625,0.03322968052514511,-0.0006363207876454568,4.406295102698499,-10.521636556597576,-9.29433699826718,19.91823117662807,-0.06177308810167013,0.04079048972058119,1.4264823853947766,1.2349579712758827,9.263499476698279,0.21891130224253189,-1.2934689183868973,9.715548039347217,0.20418692328584914,-0.006522424175990561,0.20966557189728968,0.007303407629045071,-0.008613759627844487,-0.03450826425356149,2011-09-26 13:10:06.123706508,1.339892873
49.01025244230993,8.439107419171458,114.99125035121492,-0.043450195293660426,0.009290533491430976,2.909971807579214,-6.28915632068682,-6.780472985247884,17.50950690204521,-0.13278685308482985,0.016471002220502864,0.9279138540193955,-0.7743162220752935,9.012069282937489,-2.4941344902151372,0.5354587672160214,7.798911190331894,-0.07695537662082942,0.013522590800195716,-0.16360225420863075,0.08463802562613472,0.035906334461109454,-0.04400931232073785,2011-09-26 13:10:06.233749190,1.449935555
49.01115085205923,8.44039330186716,114.96143107014666,0.04704470804897232,0.004005724196414132,2.619244017263229,26.44387161057896,-7.7856829350766645,-39.52336602263051,-0.20156149460745473,0.08733420610308418,1.9322917593778197,0.6496143725586783,9.731020822233678,-0.1318812817520334,-2.550811435179244,9.256193405172336,-0.020163793383614893,-0.006863849014801606,-0.12167859303619404,0.014381893855283547,0.10935396932935573,-0.01572252462142119,2011-09-26 13:10:06.333702569,1.549888934
49.01445223466852,8.44093750933502,114.93531700808319,0.026589824018368655,0.0034545400836684,2.5618972132632285,5.017605514110835,-16.499160975736086,49.31179782589304,0.10550320456984719,-0.006671363305939329,0.15604751946486944,1.4054985598579983,9.604312224711007,-0.2249930016900739,-1.1387163076415887,9.91585493056544,0.02147855843419972,-0.010583821622958327,-0.2872952455863527,-0.013906171655683763,-0.005482922754649164,-0.10031278756695403,2011-09-26 13:10:06.433685217,1.649871582
49.01309523438511,8.440166215270326,114.95742954926592,0.03466852655219503,0.014420695693231563,2.5214529460877873,21.670705344042194,-68.28376291016306,11.20885953193213,-0.11334424372843274,0.042005902569020724,0.2611862992681483,-0.5925664297744487,9.394536944645132,-1.6170623608648167,4.907444969371601,9.503970750956597,-0.29511363709646604,-0.030237428592389193,-0.10764206377107813,-0.02847320147921035,0.01552965219684515,0.0013206232668242848,2011-09-26 13:10:06.533725196,1.749911561
49.01011217746483,8.441662505415058,114.69502764948082,0.039968126200913924,0.057389643764471907,2.160292242563719,-4.011091409086422,7.762287725974421,-4.248847849119832,0.09729981905067636,0.31471929039332097,-2.756774979948947,-0.3665298809996771,15.494350380289502,2.1751270234147366,-0.942438617091919,10.26807514970637,0.006995397943462981,-0.003330853643114094,-0.06387938099713647,-0.12042505867547977,-0.01867449981950537,-0.12321982956901052,2011-09-26 13:10:06.643747213,1.859933578
49.01025769671435,8.440139266077239,115.18522713868431,0.020767830280621055,0.01354956385506325,2.6446476316738,8.663014958615058,-1.367057095362462,29.434380416377074,0.16049327988886136,0.053758913315794674,-4.81859724235499,0.2125529789914326,9.813973611491353,3.4069136988758784,-1.1431437565252085,9.917838863122826,-0.0008029143314145174,-0.0010698819840099325,-0.02198185197927358,-0.015502502662860223,0.06942779491923456,-0.049214528206952005,2011-09-26 13:10:06.743820339,1.960006704
49.01019596135451,8.439554257602415,114.77569755209537,0.0294261397740757,0.01132509032167442,2.097187754547747,5.158943465042007,-16.496949915690422,-1.0719358236036545,0.019351782760002816,0.13417435287785834,0.2080442141299077,-1.4681380139757059,9.6654774478526,-0.9126078105906777,0.4822198083610145,9.580556232426693,-0.016925307597509667,0.001833535350852799,0.03042380633896484,-0.020685063544864685,0.029789991318246514,-0.04056076668221439,2011-09-26 13:10:06.853732801,2.069919166
49.011100822304854,8.439578670952043,114.67135592355804,0.035052409191516885,-0.0029980558614010853,2.6033446181022053,-37.66475608932676,26.276663249826576,20.437971885668333,-0.6532097752291511,0.12653677518002254,-0.162850242958057,0.09333299207094936,10.052548991861704,-1.4143001555318773,-1.0543096116275958,8.45676537599615,0.02418377815184412,0.004399838283451873,-0.13273231443683503,0.014040200471955599,0.004115405154121204,0.0380530994772637,2011-09-26 13:10:06.953734971,2.169921336
49.01009694283699,8.438747900410089,114.33443967983293,0.043255485177685495,-0.008067333996441661,2.0753198041320857,15.768230826581908,-2.0612223922738213,-0.2315214231596947,0.04627241594444665,-0.03409746282327678,-1.1587399856637632,0.6044390053903522,10.122675553410465,0.3189203272453021,1.0395821214260477,10.046736245810296,0.04452941389751886,-0.022733577122714097,-0.004676503705364068,0.14855319562601105,0.09754087162809025,-0.21173484267421633,2011-09-26 13:10:07.053725403,2.269911768
49.011546737923986,8.44017917592289,114.86860765836825,0.03414415002202081,-0.0025613910619489274,2.302981291452093,1.2723607903207252,-7.798901615226389,6.009580326312287,-0.00593168924330871,0.0731237696714638,-4.376026471019105,-0.02256167045364714,9.01912363011495,1.9049124253519651,-0.2138074577466863,10.269889710933052,-0.0379291089239595,-0.16402722935551248,-0.17437083130383266,0.019370714627437703,-0.0088796663485903,-0.06202953703062963,2011-09-26 13:10:07.163744500,2.379930865
49.01047361867623,8.440681055624362,114.94497446179088,0.022946171406306785,0.0083649120579987,2.0003691628567313,-0.12096739548597846,64.10274568517353,7.2112091013750454,0.19811313177850198,0.07628706559898035,-0.46136269267592134,-1.0139723316689175,10.120182420623518,-1.0434336560156146,-2.491047490880936,9.69071742144294,-0.022678611838710335,-0.005943836573478434,0.23937446475461258,-0.04638156370183767,-0.006052654553692385,-0.08013458218013234,2011-09-26 13:10:07.263832962,2.480019327
49.00941406404825,8.438531433482423,115.0931731827729,0.03751045770052222,0.006944996441331558,4.444067769566983,6.311267439557554,-44.55394077465307,65.13735644750618,0.09915065460070538,0.07712534869695717,0.09615749718211114,-0.2716183674701066,9.978981625088766,-0.3660510840778547,-0.7050989732987849,9.81899013899506,-0.049510187469660974,-0.005855252961086611,-0.004989464166667192,-0.018115872992471818,-0.02508874710338049,0.0020395208973452428,2011-09-26 13:10:07.363838349,2.580024714
49.01300492144848,8.439769808950366,114.71345108043637,0.06085959828276563,0.002446398012878839,1.5848249028745096,15.498383909067222,-18.65542341376794,12.738835857826803,0.20045435885960722,-0.04308222851990753,1.2524322993230779,-0.17269042901322332,9.88961537318324,1.673277760078606,-0.2528683321534102,10.057286866508843,0.01534677662498585,-0.03766438572139402,-0.06509295022189171,-0.04621367201759486,-0.008790338406078888,-0.13043037275288272,2011-09-26 13:10:07.473802736,2.689989101
49.01019460392263,8.439861691574487,114.96774767021132,0.03541076101528548,0.007148211589300169,2.5982993337973763,-34.12088780121621,-31.41915190794917,14.749208725000166,0.17828631361514724,0.18190945030069058,1.4931128840105736,0.4499047073969366,9.584835430289145,-2.851494078665959,-0.6322963298454276,10.413407474261762,0.01609066779158593,-0.059260309200052236,-0.05205220816900142,0.012708039409567537,-0.0022352448506425867,-0.030513795644906833,2011-09-26 13:10:07.573784704,2.789971069
49.011589659429355,8.43992488307514,114.73725209354185,0.044229480842653636,-0.004450668795420399,2.6540288242445684,54.38622109721539,-11.516791738249132,51.14834727781815,0.04265394594929685,0.07523389344135867,-0.8589177980896321,0.2519693789682333,9.572919507197074,-1.9573294937626176,-0.6538214775101612,10.056091897749923,0.004030283637927676,0.02802955042566346,-0.01643152363817097,0.006072922972810124,0.0760357523855455,-0.05784671027432787,2011-09-26 13:10:07.674011558,2.890197923
49.01048180075367,8.44027487344845,114.74813994653246,0.023674092173014347,0.00535242749274454,1.8678903021067028,24.699050004935163,12.987952356104616,4.551292221561634,0.19153974442007593,-0.011469756287909985,-0.2508389044600097,-0.848066821708841,7.966678384762516,-1.5694024477325559,-1.4472206600203756,9.347434391849408,-0.008946940102395377,0.059046610662288876,0.0070179645060041915,0.013544535785012071,0.10354111406000194,-0.33430449080169533,2011-09-26 13:10:07.783894355,3.000080720
49.01167796674198,8.441221891777609,114.83603797769184,0.03974609286639289,-0.01936961884453694,1.7145874670275452,-31.79033362558469,-3.30699381052579,-9.88997569088004,0.12581175516881188,0.12939905883617378,-2.1110975136491503,0.34128018316354447,9.212019417394838,0.2601935582015698,0.1015556683460781,9.624101523777789,0.026519660238505598,0.014521240349404673,-0.05978098303720361,0.005315289403801781,-0.03336835515544552,0.033096824019002505,2011-09-26 13:10:07.883841386,3.100027751
49.01211440031097,8.44110697717159,114.33970425476785,0.025684458191624297,0.0026674227823559856,2.5372048717795668,33.72955213298314,-1.9341350559444601,29.85313975053544,-0.08922409592587546,-0.057135339411319604,1.8162997479176286,-0.3762490052105836,10.069103985167187,-0.38024444282430475,-1.2484250914055555,14.66594076164322,-0.0012793761851080335,-0.21479598305441527,-0.07839606709636726,-0.012112021648816255,0.00887919883153289,-0.27027850718681434,2011-09-26 13:10:07.983833058,3.200019423
49.01200391405968,8.439663006283041,115.24645110240617,0.031327550275713566,0.014671600919161601,2.1875946197875167,21.982117171468644,-26.734730824568864,50.06114475180267,0.17512984137833898,0.014646992695101856,-0.8017379499527246,0.18108630955022378,10.536432447651803,0.35268123297186615,0.0034422093395594655,9.864514779352612,-0.014080455857829625,-0.0347112226534404,-0.17515077764553827,-0.044212469869657024,0.015230948314394732,-0.0054222560882374584,2011-09-26 13:10:08.093857888,3.310044253
49.01074362214079,8.440536374083221,114.71547352833278,0.03996121125353574,0.005249762493448843,2.406376396028991,0.8440410583434579,-30.078572252144717,9.035307282888178,-0.19814961631381034,-0.00044360716436525095,1.4934684719753726,-0.005812071694908799,9.723866323159962,-0.9042675802798583,-0.032737814938066295,9.708062708245798,0.015743473813386817,-0.0002430885721505429,-0.2779873345870122,-0.01018869367652379,0.01937849400447016,0.22026274640639965,2011-09-26 13:10:08.193979558,3.410165923
49.010974236580466,8.440099458205509,115.1240333710243,0.03805962086252661,0.010706027589727945,2.6015056274256327,-3.3998839244647954,1.4071763451423855,12.404944733548877,0.016434156920423326,0.5643181848276025,5.274128786397806,-7.631426460294167,9.49639309859681,-3.652596733472867,3.375826116795357,9.291559261550605,-0.009430344836164633,-0.015120564142307743,-0.11013793118194651,-0.009528489887046934,-0.017391492892493365,-0.07697141274965397,2011-09-26 13:10:08.293843903,3.510030268
49.01148754422725,8.446098092024359,114.97301829775985,0.09864937786812086,-0.004898388936204898,2.6219243420448883,-4.118031485450105,-13.132453956677534,4.796255500957976,-1.037296400885604,-0.11740322538094843,0.5307959306435505,0.3231850953555417,9.519374882400802,-1.8372361068250112,-0.5215516527618488,9.369997615883497,-0.03492328454552131,-0.0928550711706103,-0.055002087059876956,-0.03317401777517052,0.05091375698792229,-0.04553164290071485,2011-09-26 13:10:08.403826434,3.620012799
49.010200232827344,8.439446997114795,114.9076002964358,0.014621645935430983,0.001597522617783613,3.647891636093533,6.144548577885874,-17.859809597241238,17.15841368073977,0.09691315918882522,0.10347733603382789,-3.742592706821216,0.9733137599862729,6.710677713996275,0.7068023313765768,-0.20183372753257955,9.615361363531148,-0.009582779011545521,-0.030608390737775774,-0.04927028124619079,0.023118412896760168,0.03483618711011473,-0.03243369790364351,2011-09-26 13:10:08.503846371,3.720032736
49.01098203416738,8.438729446069225,116.83635057051944,0.02837905925376638,0.010720571096992319,2.081320655996936,-8.69976685463428,-8.36045519161017,22.370544120445768,-0.10418356321980295,-0.29099327732162694,2.249969822633083,0.41127832539469233,9.440257309668027,-7.320021176309639,-0.10289981858490174,8.94072586634146,0.0844699758422344,0.054755015804652626,-0.07885235999218977,-0.018958569889911684,0.024152242619225082,-0.02627279597591241,2011-09-26 13:10:08.603848101,3.820034466
49.01141322147981,8.442174135293467,114.7291114414184,0.029993491259352564,0.03411299079668804,2.70069464234066,-3.8226933373405636,1.7607151516383137,21.278989814992876,0.03473543306870873,-0.010618046263976551,1.578469208585311,1.0698784643994768,10.125383547068322,1.6524992222421888,0.5521035148707106,9.631266223059377,0.02108936528470161,-0.111085279223233,0.05616807080591303,-0.163848079210208,-0.00399925339221479,-0.4020858845807399,2011-09-26 13:10:08.713938001,3.930124366
49.00451054407338,8.439238657949872,115.06197891353439,0.0410263858631461,0.014639487903164715,2.3232820219651416,0.40865459176867436,-8.54348860619553,-10.243453117163167,-0.23405848509107452,-0.1615601930384082,-2.954055762279305,-0.02854493540646595,10.136695363570908,-2.4450440886293707,0.024884515317010025,9.850082901012359,-0.01025336372500074,-0.020423626024477497,0.009653552040094979,-0.004006922477027667,-0.0048665570539308325,-0.07507382891267764,2011-09-26 13:10:08.813856373,4.030042738
49.011279983218834,8.432966091705019,115.08432672551189,0.019132239964483638,0.011713501556622062,2.436833072635674,12.291445905866578,18.94888341424595,11.680284472124132,-0.02383446440908247,-0.1442980219284685,-0.8590712486853322,-0.38718385543930683,9.29287350114665,-4.408865005910867,-0.8142254692478197,10.112807985498971,-0.1606580701741657,-0.06999865355246992,-0.010887979211011502,0.01638013025248298,0.0019166749892489884,0.11871168835491934,2011-09-26 13:10:08.923885902,4.140072267
49.019129713179524,8.43949683580145,116.77139837714158,0.028106673812858054,0.0022906221121599306,2.397565734733847,6.323728144324741,-24.324790944745672,22.10638709865468,0.07992553010336934,-0.08342275225591339,-1.1346490824389457,-0.35321407791222875,9.855935077215586,0.2903641516925864,-0.6007954635097835,9.40046923952487,0.00573747018633932,0.026966484689671822,0.034758958565342044,-0.1254508778917232,0.025324995528929486,0.014981296203791579,2011-09-26 13:10:09.023861354,4.240047719
49.01097196499951,8.443591696694133,114.88470950371472,0.016999065243837173,-0.036337049671590266,2.578405793335293,5.204031657558389,7.183918941064646,2.96198164385455,0.20541496678473595,-0.1136376477908077,0.012603922464986594,0.03121251207514146,9.290041314013402,1.7698462769599486,-0.6088596391133517,10.345918066387876,-0.040889453947993225,0.1459120730503956,-0.027329124288035498,-0.014562262012909295,-0.011085326331256123,-0.1032632525998023,2011-09-26 13:10:09.123872701,4.340059066
49.00987923235658,8.43944829855094,114.83964898576038,0.025563207831334245,0.017400704904013266,2.374400463502147,0.1946011887669865,-20.045199632331034,9.456691721380427,-0.2018891789056968,0.0121944058358095,1.6507766174727092,0.11963957079674498,8.326046647080442,-0.7603424954725291,0.04009282257894775,10.19572289616487,-0.01774242215886649,0.03302139287341968,-0.09557557066423843,-0.007006274350312785,-0.05237706109624294,-0.2730876862028544,2011-09-26 13:10:09.234035255,4.450221620
49.0117905469762,8.439124497994962,115.09952116309483,0.02139205144672868,0.009463627587906503,2.369258693587767,8.27880155387434,-74.53620069033356,85.62667439156525,0.029928314437561714,-0.0558267894589052,0.1880494283800358,-0.06667058782343682,10.064941844955372,-4.092094504431896,-0.05636727846842243,10.66513979789098,0.02156793334461881,-0.005911504862825882,0.05225512813659399,-0.02071977917863939,-0.018338707114465398,0.011172633079613893,2011-09-26 13:10:09.333882450,4.550068815
49.01032663842386,8.438982483968575,114.69649487413476,0.03675650408264843,0.0030069509964389643,2.1252867365085204,7.522524343649,-24.941889876686396,-22.629314702419087,-0.04999779209184836,-0.030988265761321368,1.8933282739040056,-0.37783445918769304,16.02698297788138,-2.7034081541170414,-0.8929229437947195,10.036526774544768,0.030558893551366338,-0.059533333604665194,0.012902809152541418,0.051526135688316516,-0.0043079148862436925,-0.0644476644779552,2011-09-26 13:10:09.433863288,4.650049653
49.01159907698708,8.44042972075435,115.18680796087114,0.026909999050259252,0.00675118987877554,5.134887969656789,9.18690980719508,-5.38902288727647,-101.55436182280826,-0.011051957321924079,-0.014715706143322928,-1.703344322312872,-0.9148647543403327,9.24252204927434,11.18805150705996,-0.23640692025905308,10.402712558069183,-0.04094430591421266,-0.00881362870193347,-0.07893103897705958,-0.01596287168978647,-0.013397297520012643,-0.09484492901865547,2011-09-26 13:10:09.543910840,4.760097205
49.011614335630526,8.439498960581421,114.93049323105274,0.046243929477540135,0.008378710439465293,2.6057494669395003,4.473364185773255,-10.72503989730991,21.780380438463816,0.2819761162622193,0.05071194940730294,-2.8067144299437046,-0.5881873855368803,10.36726457549146,1.0640733846236716,0.4561293065501213,9.90755515689711,0.14079814106201774,-0.0479980795433411,-0.032283759118257406,-0.002130936993093736,-0.013014835970572375,-0.00137773824822722,2011-09-26 13:10:09.643940264,4.860126629
49.0100362126627,8.44331694737918,116.54226379262747,0.026245581909499157,0.00012933176205728696,3.7820175069721467,19.443362232042993,-8.094556271905805,113.08744402334854,0.2127811198554012,0.1345740495164171,0.8891435693239027,0.46680533413576214,9.687523922754743,1.0569721054563879,-0.45387746472829116,10.602289831415218,-0.017937917927214247,0.007073728744599333,-0.09418221592095785,-0.01352972036185241,0.003920134294665526,-0.07269755434435532,2011-09-26 13:10:09.743948663,4.960135028
49.01017000156126,8.43937226024188,114.72843562944006,0.03147102279141657,0.0052428657901953425,2.5144687634667977,-14.059127746855085,23.660002530799023,24.39262526674867,0.09533028321110432,0.11007840313186765,-2.1315260439010713,-0.1279971509035302,12.694432041052012,-13.430429215704482,-0.33207721667757584,10.525136326941528,-7.228380943580248e-05,-0.01071175281090059,-0.1159585781505189,-0.03715993337089278,0.027629413219262506,-0.04103692647090795,2011-09-26 13:10:09.853904012,5.070090377
49.009680440892986,8.438274667362357,114.91188909272392,0.009456957154778189,0.014955287159876898,2.2175911251051605,0.0611030991804693,27.301940314368203,7.3069275266731895,-0.08346289846108196,-0.03399901644518929,1.028917139114856,-3.1076076873706664,9.253926511550034,-0.5025062482368914,1.9522853949045578,9.390026631974663,-0.17120592643528812,-0.009636497262295072,-0.044960033412677305,0.03962133531524946,-0.0035535153472641997,0.012804350382336571,2011-09-26 13:10:09.953894437,5.170080802
49.01189043843556,8.43761262137605,114.96180907782272,0.047912377835519784,-0.0040717550462859835,2.4791667753569664,9.934694411617418,3.4287798591447602,15.018588134337916,0.14484382164038373,0.06797379450028362,1.610970700422794,-0.1527911503100622,10.507250868527448,-1.678715690601018,-1.603517036168324,10.299511777115134,0.10293976841305513,-0.014628057941696937,0.050765835789381396,0.13942506461985657,0.0013601348576623377,0.06961302950771875,2011-09-26 13:10:10.053906644,5.270093009
49.012202783012896,8.441704576012826,115.03625163135402,0.03198649778646942,0.002279471670270621,2.4384513356210955,2.956248043076111,-20.308945875188524,7.742454732036172,-0.0476482303416261,0.04093559420728329,-1.0083107703816472,3.9485202036898204,9.444088575255694,1.4723740280318962,-0.829431984006576,9.581245687141177,0.0013480961160793259,0.017604083867978335,-0.012988973679710775,0.04289723168697572,0.0026438464217327703,0.09156890208434411,2011-09-26 13:10:10.163909140,5.380095505
49.01126986513821,8.43799610343776,114.93802905558987,0.027465604404932436,0.008214537975167099,2.3284365966612652,-2.3811257408125535,-7.530527189018154,8.999997689679109,-0.10455814526602476,0.08007673820275785,-1.1150279834771317,-0.1248608632142324,9.451280469215911,0.6978713281387445,-0.7309564390381057,9.538844977021665,-0.018814049697861962,-0.003000356157478198,-0.09774707882482936,0.010745469769041482,0.005512941446634742,-0.0415014242637932,2011-09-26 13:10:10.263948372,5.480134737
49.010753705328135,8.43821964236979,114.72682265466702,0.03033155975686287,0.012886479321203652,2.44181107307986,11.409026627178012,-1.459972094079233,-13.533126074863645,0.5872693569496393,0.0997185389522518,-0.5630257149989909,-0.3488160147836151,8.739172398117187,0.6180583875437073,0.651540867602327,10.748633184311121,-0.010598245432872747,-0.0036606656502044766,-0.06651439689850583,-0.04091179971194488,-0.018472279883450987,-0.05549060159758758,2011-09-26 13:10:10.363949464,5.580135829
49.010519996262204,8.438988356485021,115.93098471096353,-0.013039415114313894,-0.011597580581341391,2.274807672406547,-14.99779034146689,7.6122711618844,-4.188334406224925,0.08116395500313041,-0.0869874428692169,-3.7637783677847962,-0.3635013259080494,10.161590695657656,1.272426935822311,0.4661587061982807,9.523838734762483,-0.04967336027705864,-0.03734371821684272,-0.09689309829773926,0.0018902258771734872,0.05218602864122575,-0.09095685418806465,2011-09-26 13:10:10.473919357,5.690105722
49.0118800452653,8.438247932048293,114.73261547780378,0.01504341777783523,0.01949200078513223,2.636603768214942,-19.564616936663214,-0.07317138591231487,-5.291915425382472,0.008396403561240717,0.013243946139957307,-1.3133584499622803,0.7844549386863635,8.259492103619682,-1.1636378181967972,-0.2893171232047332,9.514490229424716,0.022308988431964792,0.0226621287802529,-0.07976257207945137,0.002672567288669831,-0.03371944081964364,-0.031019681385143466,2011-09-26 13:10:10.573936916,5.790123281
49.0157372748117,8.443294259326573,114.9791247330152,0.02758707288433807,0.0167462985221118,2.326080155331498,20.517836440992273,-6.990573100466173,-98.26912746138285,0.20532347086962718,-0.05115867545717834,-2.476290237858101,0.09404592388494529,8.853886623108933,2.3156195192822837,-0.4973105879516173,10.338441172558975,-0.004865573902685693,-0.02351519041115598,-0.09466168104034678,-0.01686284246309295,0.003929090221380707,-0.01562847035248746,2011-09-26 13:10:10.674116730,5.890303095
49.01179785412906,8.439311561396503,114.75915368400582,0.016455313525975658,0.0025401580872597275,2.181187394894452,69.37746475888446,-21.625416796612672,3.0690673925385132,-0.02339635065112067,0.11386684812565044,1.617327581472388,0.39311882300311074,10.235617345846787,2.3789086877764816,-5.850655065331752,8.569603232537235,-0.07511088351113301,-0.03681412435402183,-0.05033634586834684,0.019755777920245365,-0.15055872421560218,0.3680339184330728,2011-09-26 13:10:10.783939151,6.000125516
49.01161847089266,8.441607637268474,114.8183641585697,0.025078758908168033,0.017261693760086093,2.60150997322118,-0.8847872868501288,5.895092421837882,-8.032184799790576,-0.014947856154008288,-0.08427067614128951,-4.367339998016984,0.24626365162340172,9.998578792129145,-2.654075644608278,0.5771400006750596,9.978185006111746,0.080631784436414,0.024489734024662146,-0.13712542593696708,-0.04254501104327192,-0.022348046674680495,-0.014930732935371116,2011-09-26 13:10:10.883996141,6.100182506
49.01246196589243,8.444357948986566,114.68253009370748,0.027703430991423764,-0.0031949804044380664,2.713491201043214,14.607421931751361,-22.02909711086071,23.762523871042077,0.1292670234842022,-0.30099906866770626,-1.8530766734867647,1.1870031433588517,15.221308367610192,-2.534492446471961,-0.3251882676044643,10.102876426183741,0.017889552349056304,-0.0460430075703238,0.03876841202775283,-0.003226561376230192,0.04569992312587315,-0.06475204259164043,2011-09-26 13:10:10.993918801,6.210105166
49.01191173011826,8.440052023145615,114.12195645740279,0.0056294853766587424,0.012638331870365577,2.681825394229131,19.053200689208644,-37.35445054439822,2.6710248810511006,-0.01482156466320515,0.0015160040422932466,-0.3370201018678485,-0.9704592053320431,9.354764204939498,0.27954209150359544,-0.8988640443098905,9.925210698034256,-0.005429970880284535,-0.025817576494224493,-0.01919648340849238,-0.06628374887197483,-0.019128747138160082,-0.06219396772269409,2011-09-26 13:10:11.093962978,6.310149343
49.0087120661136,8.440177321323619,115.17916580090431,0.028774141463535675,0.01376065481519391,1.973121207497125,130.43409904595865,-3.8608011215924143,-3.0511258236662613,-0.08569592425659817,0.048662030287708366,-0.4713387050881225,0.7065211395580451,9.693362823151416,-2.5379900731930123,-0.05604313966861829,8.86609382600919,0.00890235871316154,0.01672224251407956,-0.1436000849566311,-0.006143920009738774,0.034837501929244855,-0.06154386018502444,2011-09-26 13:10:11.194044861,6.410231226
49.01239209876127,8.437923993686711,114.88886995712446,0.020306354364406098,0.023960448805961296,2.122414930060446,93.81860826657761,-4.374522507918176,28.829852997118035,0.1736182262029249,-0.04224490953517268,-3.7819700520590036,-0.08776663513495553,10.555760099456062,-6.659471496864357,-1.2490343295902977,9.84903705424936,0.03710879684897403,-0.053208734203803225,-0.018185573718030562,0.026296934037939833,-0.011692417152559169,0.0030942551596211537,2011-09-26 13:10:11.303959539,6.520145904
49.011496069127965,8.438752797341278,115.01143675339824,0.014327378362358726,0.050290805138775214,2.300358727315493,-4.704154307331452,-15.188002659967061,21.263097956710933,0.6828592062433635,-0.16703943627040155,-1.7212523146026535,0.46858004345804394,9.456329991486035,-3.317191817293949,-0.195702412355802,8.23323812376019,-0.01233383615533293,-0.022811577389520096,-0.13902550361611257,-0.007266319318728096,0.007067376556059284,-0.06481308725510442,2011-09-26 13:10:11.403964137,6.620150502
49.00444294911331,8.439888478342015,114.73716825590492,0.02718111462094113,0.005312352179235332,2.2567592886485146,14.664032850146526,-37.32882217446326,49.16206144575381,0.17638451089988197,-0.011546602859832417,0.9852352938399331,-0.7219101019341256,9.507155085296125,2.811567480525304,-0.4967720263068268,10.725496098151867,0.2336094075558144,0.03734453696020322,0.013771577320581693,0.039131234876381656,-0.040549195100585335,0.008457451114149611,2011-09-26 13:10:11.513964428,6.730150793
49.009196267497074,8.44088364321535,114.01068278751708,0.027717093918675554,0.007962845597994062,3.8009625178699347,5.46167353799776,-8.837333876660328,-39.77589421141893,0.1325997350398349,-0.8194495207787754,-0.25323080953879673,-0.8525817476930592,9.714621648242296,-1.670384895578821,-0.5557970739983971,10.08570809366891,0.004528195096356966,-0.001285702371091671,-0.014729394191695212,0.036722328596300535,-0.07631496497467487,-0.05054057035361908,2011-09-26 13:10:11.613955966,6.830142331
49.011808926420734,8.431522209862814,115.06304168961441,0.024624186339394442,0.0019163122753491947,2.139851454299295,11.585524846203748,26.244293238610805,-9.341130362128231,0.6653946991984133,0.7861738627606023,2.023421651762507,0.4922343865290285,9.4637127827033,-4.588025307319967,-0.41266905362824613,10.037282116501455,-0.034911699131731026,0.12581597788853727,0.05875300339111463,-0.04753847745365667,-0.0015902518617109673,0.13237267195267985,2011-09-26 13:10:11.714041489,6.930227854
49.01088350284621,8.439532658753683,114.2815186682741,0.02450406316748139,0.006727699698347818,1.8795000384654936,2.845272032543967,-2.636986377035926,14.145345745967187,0.09861647090223483,0.01735002594401111,-5.578526119703021,5.022078225975133,9.341111965403936,-7.303384153152553,2.272900092299704,11.126925695183512,0.03213329086633727,0.06416314747104787,0.019019800009811644,0.18206646604862578,0.037967903262436146,0.003170541546168689,2011-09-26 13:10:11.813975744,7.030162109
49.01274425529607,8.437152636087943,114.99527183046573,0.025464477642803844,0.0278821664675458,2.3398714540735415,75.62917456311848,18.975161205735535,29.57192338880384,0.0036760419595062294,-0.04056382215534355,-14.263932906860653,-5.6098870642441705,8.893546703269413,-2.0487465899583808,-3.694000592070344,9.974460797855613,-0.05850358014628465,0.055292048466534,-0.2348632446580532,-0.029976364142718544,0.0134334213748583,0.031719690106824905,2011-09-26 13:10:11.924005417,7.140191782
49.01098795200927,8.436786068632673,114.95626275405357,0.024588753132633038,0.013092979043107968,2.2742352904183365,27.273224051942705,12.385834601506406,-9.90821714306295,0.056637208820828656,-0.1634867152516572,-2.3540891756459033,1.0584852918029144,10.03768186055474,-6.449638200040331,-0.7098613709831547,9.506084343684062,0.054874306079911214,-0.07533968337859243,0.04105762114898154,0.0117747713786954,-0.13708843810828925,0.06343304991137083,2011-09-26 13:10:12.023980628,7.240166993
49.012402083478236,8.439275589278832,114.63201789056926,0.04854779177087955,-0.001656934753327663,2.6549984187522795,10.844570281619248,-27.574597140184974,82.0394063310757,-0.7284165486536452,-0.12296643195189665,-0.44480182160234394,-0.6594162918311746,9.575827100100275,-1.7946998798793292,-0.843625371492362,9.509829074925342,-0.03011995527830902,-0.0033610274648709013,-0.10115612945334984,0.010948921126869538,0.042131388799059616,0.014160075310344002,2011-09-26 13:10:12.123974334,7.340160699
49.01198113539792,8.438895067044008,114.95071113611998,0.05557270356807867,0.01854112183948203,2.524555211989562,2.287657810126883,2.5706658256047064,39.65156586529156,0.09511195420377835,-0.03673894981383834,-1.5779330462818952,-0.5850438188691669,10.518538143688533,7.087997246502825,-0.8672632066569631,8.55247842376023,-0.016843107214705735,-0.02227999833297151,0.14050575470810794,-0.0791460851253396,-0.01110176668661246,0.030138816630863947,2011-09-26 13:10:12.234214266,7.450400631
49.01093456722559,8.439689397616132,115.63877066431805,0.0347430128774056,0.01755526787582077,2.503529358608048,1.4587603877075033,-9.559811512088281,-14.479778200063027,0.49967243186805704,0.11693063625448319,-3.579513559162476,-0.367660593612518,10.357309061199635,-1.5548286300657843,2.9878612420841555,12.312906436857672,-0.0038377516592599204,-0.021737899637255174,0.05372717758642501,0.011921596591357553,-0.078844882401279,-0.12920999381115916,2011-09-26 13:10:12.333979737,7.550166102
49.00954610177697,8.440469974473888,114.96218938978254,0.015067102696288723,0.006826698659602174,2.498690011490564,3.4029067942747253,-54.22503050295015,-2.4643491705445335,0.0950698648097254,0.17677857766231517,0.5105117745208885,-0.7641923046895969,9.171748817546598,3.989559719038353,-0.4190782053631417,9.760459639911861,0.0067821521531553726,0.015289598539477985,-0.026361045303632008,0.06133878922738916,-0.012883346334128935,-0.0441971704057935,2011-09-26 13:10:12.443996598,7.660182963
49.01206291475296,8.439893474081297,114.87351025630281,0.016124333178734247,0.004470698115184905,2.4627806243087833,-10.561506756242887,-8.970366732174481,57.26998715379732,0.10778900974822331,-0.1983307906982673,0.07378015162650398,0.7894749762663914,10.055084472747954,1.2874193255743904,0.2668431886736762,9.966337781731486,0.007742335625871824,-0.010109972596706587,-0.07174636384916794,0.022800873917921086,-0.12422358620296971,0.04622750522080001,2011-09-26 13:10:12.544003386,7.760189751
49.01082467105907,8.438571742234803,114.68956023950895,0.03604068287530729,-0.031894513195329634,2.2543787568381126,15.522606362170919,-5.298560659382316,7.530412787294383,0.11210664086301902,0.03602817509526006,0.024852144119355435,-0.009152239462793643,8.91956857379308,0.039267696139723585,-0.2082040936506932,9.782458916725417,-0.1949783609105929,0.0102644109438236,-0.12285021448674677,0.021909766821880124,0.008260613774877197,-0.05006403001431064,2011-09-26 13:10:12.654008917,7.870195282
49.01157157481879,8.43885695866611,114.79082027592997,0.04068087071399276,0.014119470995743733,1.9123735765445071,0.13057148979131394,-13.932014081237645,10.686120323901193,0.05552685743377825,0.05881952956479955,-2.1445838048564805,0.6740776852456897,15.349687587580274,-1.067971706978008,1.0436786667653168,9.180367899305896,-0.01633186411794963,0.04370586113720178,-0.055046825792467904,-0.04173916763850941,0.010861652326405524,0.07510786847073808,2011-09-26 13:10:12.754043869,7.970230234
49.012320985729,8.438204992549732,115.13236954450416,0.030991726713642292,-0.0003157472661053269,2.557903928274761,37.492554098827284,6.477344749906188,-7.108450374744038,0.3185849385150396,0.43907991091699167,-4.124851144878017,-0.2954626697441968,12.24782479217133,-1.167343975455302,-0.6674358200436443,9.692300800602267,0.0036582416394275175,0.026237746046676027,-0.0714112100026383,-0.04473984646633097,0.06440996667955248,-0.06619299575084857,2011-09-26 13:10:12.854016384,8.070202749
49.011879057064895,8.440635940132104,114.93884698739414,0.05924645587424797,0.010344865673098029,2.319531638713144,14.828146552967644,9.336927097828266,48.05140237444124,0.07237042474237407,-0.02059743887867382,-1.7473778968856921,-0.4057975041347554,9.273516773636633,-1.9413892993165485,-0.33727486148866315,11.33380989154702,-0.0009668111539058791,-0.16208950713898435,-0.024794893673518455,-0.08447931029706014,-0.02822443217922261,0.01633136045007522,2011-09-26 13:10:12.954020859,8.170207224
49.013831631040304,8.43648900380014,114.56987239209606,0.019398139712364718,0.0008776654066993805,2.609247113770753,13.828845416027654,-21.704711744806048,4.300609314258301,0.04213861711356849,0.06331347697547493,-0.5789218009374797,3.6146513000051566,10.13358451792476,-5.704881397380557,-0.8116983693945732,9.852790943584937,-0.06129074059298192,-0.02546230560834506,-0.05327134334045853,0.02357088198850014,0.11164463025475327,-0.03397751902727517,2011-09-26 13:10:13.064001351,8.280187716
49.01159215068464,8.441294686880516,115.06530457579846,0.022386404502147777,0.020832143495136,1.996039909303889,7.932573320796116,0.8865343222940814,4.281587235756417,0.028147586194317887,0.06026416719255888,0.096965776563952,0.2996999424577733,12.157244806099722,-3.329620651980603,-0.29577731153946657,11.306954981173341,-0.0019117106874957431,0.14103905549872672,-0.12953184756667277,0.07033355564770555,-0.021005645535970896,-0.11161205131026561,2011-09-26 13:10:13.164035566,8.380221931
49.006243925356046,8.439006738209146,115.0072470513525,0.1009980861415487,0.010314273267986415,1.9580849629599377,6.021253593833105,3.8100548434071992,35.41379484296311,-0.001183271151982232,-0.021548395250584024,-1.6817726765562082,-1.0638154837988174,11.31501590163285,12.166064937106281,-1.459873073263515,9.743843544849332,-0.015169780997351612,0.03620769409071149,-0.07146720556839964,-0.048789547755892324,0.1300123750635951,0.018958523824802016,2011-09-26 13:10:13.264063802,8.480250167
49.01070624419721,8.439118941820887,114.69421449068771,0.031003041373554828,0.026460541437347582,2.272085115821241,14.762304679269757,-11.428582786243068,1.8503542719776434,-0.08168265718912762,0.12913344551339945,-4.311003678715193,-1.9717746890274486,9.877737398794874,-4.277508236886218,-0.7870456137658649,10.153798013712272,0.029037921519727786,0.0129446506793169,-0.037578781451022655,-0.013388269824896062,-0.02820393540111048,0.020065636066692913,2011-09-26 13:10:13.374033916,8.590220281
49.010892484660786,8.435204112874239,115.07418317097422,0.032767419818667334,0.006642810518728679,2.2125801624275123,17.98959570808941,-23.306226462475642,-26.42434984315063,0.25054804986045565,-0.09776107342528609,-2.18910798543813,-0.6000758962600252,10.279496893316695,-0.791468004681956,0.07641069721102425,9.975468203263514,0.022647012976745845,0.010593623102395495,-0.008660492821729026,-0.004713325368958564,-0.0004028325939512564,-0.06827392789275111,2011-09-26 13:10:13.474037266,8.690223631
49.01007262810122,8.438659147558631,115.06933719042657,0.03244971824360234,0.012003216320681057,2.190900438042382,8.36955436410487,-11.382714418363637,-2.1073403213687367,-0.06906531370267345,-0.090279605869722,-3.2634656456348523,1.6980452420877918,7.548629535027443,-4.867006686403155,-0.25832440333525525,9.683653624612475,-0.030932091599912635,-0.1799421623692824,-0.08097586272769147,-0.08616198464258112,0.007965366164181573,-0.02440833116345096,2011-09-26 13:10:13.584244234,8.800430599
49.01197939961552,8.437344198065274,114.6502161061093,0.028648427205500426,-0.005735678892479874,2.160940000445292,6.767836795323889,-2.2556318270344384,-4.0365305868664585,-0.047164523019646555,-0.01879676849579927,-3.2294225476712506,-1.3799832195068606,6.091866604345354,0.9349634776382174,0.48413454032139625,10.120830006187521,0.008061082085368206,0.04404654041486757,0.03976380373549836,0.022550070662042794,-0.010572540512181644,-0.05190443971130074,2011-09-26 13:10:13.684215725,8.900402090
49.010213290252096,8.439187135681303,115.04003299611432,0.028381437813616534,0.013954279708217438,2.31120379867209,7.027170458264127,-9.11328153337415,-5.356538448918352,-0.1390070144015386,-0.062289625770173704,-1.9645265108316894,-0.25507246251958643,8.790071644899013,-2.7113416526332967,0.7838489758498419,9.12105403560586,0.04212002853591396,-0.029521409780910973,0.03831720812764234,0.01314027157042286,0.00045428874883694315,0.15841747455710123,2011-09-26 13:10:13.784087135,9.000273500
49.01211958930397,8.439081344060574,115.21939417686553,0.017431913985392993,0.012073787544369222,2.320534270438924,-5.585095652967493,-4.460218992916167,-33.15018388714019,-0.0790642709016037,-0.031728509636112984,-3.967491308784077,0.46846836302033823,9.988457334099822,0.11195641298992198,0.16355246392015932,9.787765851713676,-0.002168674836129705,0.01903584735046212,0.18425674622161117,-0.03127017043741549,-0.018735021533098063,-0.04299998402733235,2011-09-26 13:10:13.894004387,9.110190752
49.01212275795108,8.441010360248137,114.91753392630629,0.026910624642562442,0.006650240621881464,1.985814930458471,3.2821891594529418,15.313194448772599,12.384011425638136,0.08646774930931721,-0.0050346303177302675,-3.7711604212168535,0.3276975169146379,12.216756164593303,-8.296360132194133,0.097829938375945,10.078927196347124,-0.01794000946074017,-0.03458077140113755,-0.057544063694458414,-0.04621774030394107,-0.035919423621991874,-0.004109941490523126,2011-09-26 13:10:13.994054079,9.210240444
49.01109206330787,8.43934158899916,114.42638779398831,0.004463161187402483,0.0015050010831704156,2.6368081117150797,17.313709317765742,-1.56700476521551,-11.267659527129545,0.10166991854495716,0.06757676831137362,-2.1295147559980654,1.2958361135662246,8.50330047202223,3.0247071874553324,0.28917115094894796,9.27229925975887,0.0023769474218422893,0.026210355902118607,-0.04133861952913917,0.015299858067543484,0.0036483607579664424,-0.017350605361794624,2011-09-26 13:10:14.094083310,9.310269675
49.011137341005444,8.438953511547286,114.96430191492884,0.025010285822428473,0.007781671166911455,2.080163016928713,6.553422151523304,-6.159623851377403,3.257343876746207,-0.016006200835564408,-0.10147576764189914,-1.2568419916768903,1.3067871406169114,9.691249589349004,3.066488498475316,0.1568367997898092,10.059724616615451,0.008451829779609586,-0.06442049874031648,-0.02060513426825274,-0.07218864074706793,0.15962529139351378,-0.7326388621938686,2011-09-26 13:10:14.204360270,9.420546635
49.01006837806332,8.438093014109024,114.95962045565192,0.031313424509709156,0.017022207811264997,2.4827473253292087,-5.702399160794545,-7.8597706342875,9.354706187020728,0.034265823193258535,-0.043075121144148514,-3.0262336447889915,0.15485833334388355,11.422257553434864,-3.1728050368317184,-0.394058909429881,9.56091702835556,-0.0403192716252868,-0.01147507348609013,-0.08350821289537193,-0.018915159832513666,0.004464420310432844,-0.06052820294344673,2011-09-26 13:10:14.304086904,9.520273269
49.01053505835412,8.438869248480861,115.14157299190285,0.026446345597651893,0.005091999920696744,2.114500780601433,8.380656911675707,-1.6735435680529558,-9.162271358989393,0.053350410911673626,0.3850077962371543,-3.4859632337264954,0.10926417411069915,9.020640067273082,-2.710209872646581,0.8118184957278143,9.689535800061877,0.01372824407370956,0.05856126549348391,0.03817657557988012,-0.1933697051378121,-0.014035587354694372,-0.03235850742302319,2011-09-26 13:10:14.404096738,9.620283103
49.010892117508284,8.440075938027606,114.59614974310357,-0.0032042120294185107,0.0071808407081764,2.0739861341207737,5.014696172884711,-14.06033128572717,-79.65662677783425,-0.06232757719870542,0.10932145939385302,-3.1101363610932866,-0.42008130519016484,9.768302142054283,-3.1208548385987207,1.5504160032457042,7.150535878258908,0.0446511764653443,0.04240480751063491,-0.07641955121644912,0.01910731215714148,-0.014638261065400948,-0.06066749278953315,2011-09-26 13:10:14.514092779,9.730279144
49.01076573622307,8.43850836939903,114.84366094459386,0.03666689051786154,0.01063278197323071,2.2307084065339176,-22.24539228560773,-2.122534109891426,12.448823244056324,0.031118369847060175,0.09430912441971474,-3.686644481534854,6.038652210905622,9.962801239796303,-1.9569111962912804,0.6345544783840672,9.797430732416284,0.03619156062608431,0.01057066223907914,-0.04517751639440247,-0.0028742192199594303,-0.0262240187191602,-0.010182280872761199,2011-09-26 13:10:14.614108117,9.830294482
49.010173573150865,8.44362934727257,114.4322877736948,0.018717972110057157,0.009125048852222897,2.403898437251238,-40.6621109444143,12.665393371598082,-3.1802842953755714,-0.08569564763184503,-0.41670922159514834,-19.009356172066724,1.4751134431183677,9.656575212839284,-3.300018289982073,1.0206891344368743,10.267853700486413,0.009704534314819161,-0.04491719436166042,-0.12346632130108692,0.0595682812971072,0.012402009598600315,0.09749291226080856,2011-09-26 13:10:14.714233486,9.930419851
49.01108727930923,8.438426910804736,114.98858784037836,0.03762489435801018,-0.009099406333663474,4.031945457653264,2.4662714592452826,1.5581725369221435,11.66457218238185,0.006184103765501728,-0.031151955923570028,-6.407285411526195,0.559698195510036,9.328257627836475,-3.4292540310729303,0.34052036187462204,9.409413934319712,-0.028479455998345858,0.02607401408187402,0.03924270056301566,0.007572683382105882,0.09376239353767125,-0.005498044965840646,2011-09-26 13:10:14.824053806,10.040240171
49.00612882558819,8.43688440518835,114.30653756357033,-0.024353083339225996,0.010804919600625518,2.413518423765968,-15.94387700628933,-55.13970323401992,12.414755022856726,0.18827196069246796,-0.04704343625637612,-5.4379448435329305,-1.1926592190662384,9.728663064780728,-3.8359902321832253,1.552790262738879,9.745633314023735,-0.005052385552582788,0.09479115225256668,-0.04959705492367131,0.010153186470777793,0.005488597157010687,-0.08994140277003126,2011-09-26 13:10:14.924157669,10.140344034
49.01356858999116,8.437590817372033,114.87025099897686,0.05127537983020618,-0.0013944689638322148,2.478131133136391,-24.802864329715206,-53.523340394757966,-3.4607698166094254,0.13558448389285802,0.006203675106303897,-2.2449113201952424,0.30266865504621454,9.166655959054635,-0.4400344153929998,-0.616123645229675,9.037830039356496,-0.09746539996514078,0.03621859811969053,-0.04806003800046944,-0.013926479662032459,-0.04355982061281864,0.39628707042758143,2011-09-26 13:10:15.024077447,10.240263812
49.010048487907625,8.438036770987699,115.10345375332552,0.03219226320728524,0.02939681349514956,2.298182067946176,21.92426173669047,-1.3707180964052377,13.42264972179364,0.009820714559033588,0.10106108045434682,-3.025882936366245,-1.648758559523979,12.431201960762815,-2.099881007769383,-0.582148949571846,9.78151553862254,-0.002991801109641532,0.12567990460493006,0.12063377740196146,-0.030780096936139232,-0.00042225422549773024,-0.13021401623152262,2011-09-26 13:10:15.134143144,10.350329509
49.010424254020315,8.438815505123793,115.5387223893756,0.01870728139767958,0.02195029106236311,1.8265577021242747,14.709885430920874,-10.0017444258728,11.58745959008927,-0.4077244535192663,-0.01663795189139758,1.905545245813175,-4.110614818022962,9.02157418738922,-1.1681840123655944,0.5302842954501514,9.094829055477376,-0.015741953161495112,0.026005350891378384,-0.0019078569477984884,-0.03164409880421075,0.010412782785294748,-0.05569835607583938,2011-09-26 13:10:15.234331841,10.450518206
49.010776072227124,8.447155543964891,114.51727569136466,0.009726397451790134,0.011475505642379796,2.3241887912207364,45.24691044383397,-17.069987648057435,-11.238296486750404,-0.05638829345768834,-0.03675616296031817,-1.2349266456967352,-3.5542937454868624,9.88092691714913,-0.4176195662443607,-0.5647017583402293,8.860903186782418,-0.0032346412470366476,-0.010648063873182125,-0.3451340220211784,0.016643874993348406,-0.022476257425225146,0.041553025343534805,2011-09-26 13:10:15.334157541,10.550343906
49.01033996084421,8.437811511033829,114.13436388549452,0.029391429735830712,0.009853406650044454,1.8148604699623196,9.147237851590992,4.216755335027832,29.449080188710536,0.010038839945998218,0.08790660488470618,-3.427679816728234,0.1410123509397575,10.35737010617266,-1.8781065969908561,0.600310808523421,9.203949967215086,-0.005284178729969044,-0.024568619445176753,-0.037009916826760435,0.027164114249322014,0.08234517488808502,-0.03479197748303063,2011-09-26 13:10:15.444144244,10.660330609
49.010739750683506,8.437742801714549,114.61088759573653,0.013337727263117298,0.024734997422015,2.1638518235628887,12.781137595421985,-13.88556700193729,-8.96057822932094,0.037514848285935334,-0.0040689925617512,-1.959019485302807,0.658733892897024,9.557847801579731,-3.9496188935356207,-0.9631910695956812,9.507417331399648,0.03463350166061848,-0.015328820823525114,-0.052312437462477386,0.15295466658749332,-0.01898338490048103,-0.013904378537205535,2011-09-26 13:10:15.544153916,10.760340281
49.01141148179643,8.438975763724892,114.41809939317784,0.03047965264527973,0.010257936783376793,3.64644123331989,0.10316601519528712,-6.348437942095332,14.35445564823315,0.031045736641232485,-0.02322515282862732,-8.202157983839513,0.24422068620630238,9.708866299260311,-1.4800542022860472,-1.426249518090419,9.826887978540084,0.02544059631884811,0.00694481006077616,-0.03294466583394788,0.02276915859607823,0.012974805739730571,-0.12445557089717434,2011-09-26 13:10:15.654160900,10.870347265
49.00951594083424,8.438808970628115,114.6981962651613,0.029226766899409874,0.015555593094692146,3.913376131141913,5.393757067247261,6.403777265190891,20.627287175129787,0.03731473083903411,-0.12235979431519142,0.08129159233220018,1.6334966493356764,9.875194145329772,-0.6105328360230627,1.7530838258265975,11.86676219740826,0.0026570027862560077,0.026936555685054,0.02818525265579291,-0.01709913093289122,0.00017107497137821117,-0.022745724708452635,2011-09-26 13:10:15.754196874,10.970383239
49.01103153252345,8.438225418698895,115.07560824625679,0.024136834852900278,-0.024056009962389546,3.4579430528721047,3.3155649977203736,-0.8216373819862728,32.10706322485791,-0.013664880258209885,0.2025593223534106,3.148883837996811,0.3698359321130935,10.088851913952508,-2.183722171870583,0.527571325008922,13.148098591576703,-0.007124591354240595,0.02497380708801004,0.015719672233259607,-0.013768230006913577,0.0002449309085693174,0.013300279576550644,2011-09-26 13:10:15.854153210,11.070339575
49.01161794036132,8.441238484258363,115.06045553453791,0.02571564195244652,0.025099957785792312,2.0115951428769456,12.613793625932221,38.38665213779543,27.586466195076664,0.5320486287604742,-0.3269163483979973,-11.94250975449413,0.898848709961938,9.54818117387823,-2.2467965165573434,-0.41418823417011363,9.621794879204552,0.004876266948637621,-0.001547806240451385,-0.010835361845892278,-0.013657205290290162,0.06858690210451576,-0.08922915100752773,2011-09-26 13:10:15.964157257,11.180343622
49.0033014931319,8.438690778137218,114.63969864932135,0.02315768291615112,0.0556424395150828,2.4806718379607355,22.68902571542868,-6.752245757663314,-4.878733291268306,-0.1314867245482471,0.028540758070673196,-0.8723903487518354,0.5819963581828905,9.130985496656526,-3.4498329404299932,2.4501440323257,9.764879719850274,-0.0006697556474058088,0.3035477998507954,-0.2512454981047361,0.047466747495346816,0.007853968353220343,-0.429321770916707,2011-09-26 13:10:16.064156308,11.280342673
49.011267687475524,8.440233905138294,116.12567618210483,0.019562914776753957,0.002360716422235185,2.295114488617146,7.381337156983667,15.652379732802236,28.73881858182471,0.06259082375066605,-0.1662175846862339,-1.9120422439266167,-0.18169987171164098,9.739284987842453,-2.208440414857242,-0.04499539419419503,10.490447434214015,0.0010224334009716748,-0.059046349576100485,-0.03346303484987616,0.01265805324379747,0.023073104511527852,-0.040420039428345655,2011-09-26 13:10:16.164173419,11.380359784
49.011286934070185,8.438486468233805,115.06694355513457,0.029703083961285168,0.012436064529961953,2.312714583600307,17.46478559825375,-15.033194505596926,-14.24884870539288,-0.9582918937120344,0.0878095845466789,-1.5827525509995262,3.173502165997787,9.539220903108541,-4.437159201995198,-1.325060025940524,9.928164369778893,0.009911180728304204,0.011879052665070035,0.02349473728286447,-0.005645206085256468,-0.02317028893894643,-0.007871633484503088,2011-09-26 13:10:16.274135110,11.490321475
49.01051147262494,8.439065748815274,115.56811162498995,0.02403562965113589,0.015189938827578733,1.774419840000247,7.4927510481963076,-4.705693734716175,1.1425495280919125,0.25108164645654296,-0.1778526920488578,-3.0031201565712244,-0.08309244333352256,9.64133167677424,-2.4083718666035328,-0.4553953637727783,9.350897662077793,0.03072168340824764,0.025047098169147318,0.18399579870840027,-0.01832245802281742,-0.09549063275933961,0.01904660211783956,2011-09-26 13:10:16.374186980,11.590373345
49.01054303535916,8.437874150298825,115.07629049354273,0.02419635076698284,0.00038729768765853774,1.8010685431279154,0.5837297667654384,9.873286306188433,-26.363189511601057,0.298805457930126,-0.1865705796643586,-1.2519063010212057,-0.18026021395749214,9.521810297201839,-2.3203209972750676,5.56059555172237,9.055580310252854,0.015347063848862313,0.003329408444387017,-0.03365705073187992,0.021712595417944607,-0.0012317539010776068,-0.1037287132906896,2011-09-26 13:10:16.474182245,11.690368610
49.011576557768024,8.440702473290731,114.50795904572931,0.02782802013892097,0.008428738697765862,1.96678523694823,3.496257508507548,-5.296182852903975,1.9361126513817053,-0.010125773372606417,-0.10735260184823447,-1.390106686248631,0.9209795747865921,11.231560983561774,-3.9477686199801116,-0.3681326005167684,6.540376073489869,0.040385393152717636,0.01411678896078195,-0.05935113589362352,-0.007820391443880333,-0.03405467009282191,0.010921373188168626,2011-09-26 13:10:16.584295297,11.800481662
49.01084307582917,8.448073344085387,114.9034797233149,0.05517473427277285,0.021471832503318744,1.983573923182815,23.299747482403998,-14.378251131408,17.53168822894574,0.17091626237728086,0.07576609891423183,-6.987330600544112,-0.29080023275692884,5.513877201560704,-10.32263288953479,-3.711448618876163,11.58034692399396,-0.04551532559867356,-0.01473608294308723,-0.031371262184069666,0.01043332800165346,0.0028924382556529734,0.0131975889667961,2011-09-26 13:10:16.684327660,11.900514025
49.011228840298536,8.436873576527777,114.61577840188968,0.038335787770915924,0.018191586896810098,2.1411439263330485,-19.3832807569384,-3.0506376616941253,4.971056327889041,0.10043299404016641,0.16703032884627997,-1.018762895085087,-3.503973943155772,10.7284724951398,-5.224574126330548,0.6886505941204046,9.493892126647697,0.013073012332051692,-0.009953655129332321,-0.16245752189138685,-0.006191351082402213,0.02649328541008117,0.0602379197586456,2011-09-26 13:10:16.794161058,12.010347423
49.01010170636551,8.440397862594402,114.94676305679862,0.032918344810234104,0.011697507874908093,2.2236247879395536,-19.603414696630608,2.8778750010842074,-21.904716139605128,0.25041744004830496,-0.0852391761374385,-9.644911823047439,-0.06669629474954558,10.033042311076917,1.2209721488210734,0.6422270630829704,12.574263661050823,-0.016988180615573677,0.004775822099560118,0.04739939878080851,-0.0077520760168160886,-0.02179078101824642,0.05720904365377116,2011-09-26 13:10:16.894131394,12.110317759
49.01138023863072,8.439013645596107,114.53370996618335,0.040277286144445756,0.019770761022724594,1.93747997243531,4.342019782216126,15.500210376150921,26.96266317486557,0.20223156197382758,0.011982648981383678,-0.799621198921483,-0.8064788064066813,9.440430516867693,-2.936024958439764,-0.8247159661155541,9.634695969989448,0.02375647858953822,-0.06353641668354668,0.02254248629533314,-0.01800538881270094,-0.16575821940897106,0.023637285751275203,2011-09-26 13:10:16.994191553,12.210377918
49.01082866652422,8.439638561463292,114.00781764766496,0.02767013292942401,0.007921374315673656,2.05078046489244,-12.4096876025619,-2.6992319000860316,5.075207029484008,-0.10256079133138792,-0.21390436984949182,-3.51477530711564,0.7018033830357642,10.0324114576838,-0.5381269000931214,1.6550803689814784,10.268938569509555,-0.016298637138646727,0.0014105663910321494,-0.00821297164399034,-0.013358710427718416,-0.0679682993860467,0.04690021685287855,2011-09-26 13:10:17.104155004,12.320341369
