lat,lon,alt,roll,pitch,yaw,vn,ve,vf,vl,vu,ax,ay,az,af,al,au,wx,wy,wz,wf,wl,wu,timestamp,rel_time
48.95130289851841,8.411049603553058,128.2041014859991,-0.08895521442710566,0.19345545581428397,2.0168137981679486,4.107910774949066,31.242234037432972,13.847442623965996,-0.013888686776143008,-6.817712593888926,-2.6771986951638014,-0.14542651318163768,9.496341341623056,-0.3743937691135774,1.244642655923116,12.211542074236498,0.07305848063987926,-0.01258883726721089,-0.4016004743772629,0.12081599456303013,0.028967172846392407,-3.052728103405329,2011-09-26 14:38:23.992105480,0.000000000
48.94602059601006,8.41307816123335,137.0078798224466,0.0525705605799751,0.09838126709034258,0.7114612650918855,4.972042631260448,7.009113511743938,11.513101643179477,0.004310739836408561,-2.695840757258466,1.9993462919613192,-3.8541725307901644,8.86994439927532,-2.2380056525662044,-4.441685195004152,9.75852022250364,0.014953090938838143,0.04376984442277826,-1.0510539613917045,-0.018898770586616945,0.03137915111878593,-0.8157551798830516,2011-09-26 14:38:24.092132099,0.100026619
48.94097924595976,8.416122682303042,169.40344467618806,-0.07002861684569547,0.49146320555496126,6.429675266694112,9.175525507555715,-17.869107369484045,4.954341202476126,-0.0012557816758622664,-2.4824222141251067,-0.022987190325374662,0.1600951374559232,10.60791419638586,1.198833054883974,-1.3399790456035268,9.115190375522197,-0.0477346229200114,-0.059898445913659615,-0.23746261658506573,-0.18132768218292972,0.039026635347578,-0.18940989789429125,2011-09-26 14:38:24.201993174,0.209887694
48.93794271157999,8.416414195784,176.1734807874443,-0.15754442513330247,0.1294233241260978,3.298055636575639,2.7432930178284627,-5.54804115754083,4.123503308639206,-0.2845692488535995,-1.6660940700866913,-17.00479730275892,-0.4890444418823199,-1.6605018475722328,-3.173921650001817,-1.143833938147009,10.491864233631455,0.0015305259125831614,0.007504472254203139,-0.29903983305820847,0.522027775848371,-0.13062412273335638,-0.34521907135623264,2011-09-26 14:38:24.301963973,0.309858493
48.944302408312325,8.418257259072279,144.78259631611886,-0.087516228472517,0.05956906847159068,3.3515989345218973,15.987417574216863,9.626623836618688,3.7613215917241924,-0.10601329281654082,-1.198501236656321,1.2968410482943042,-0.5979645900146133,10.433055170345371,-0.4164924062317277,0.046083522193028914,8.638226673624759,-0.03464585710622863,0.011891301978743225,-0.7751410218765045,0.41561562393351514,0.058255179347089146,0.07938956634533079,2011-09-26 14:38:24.411907592,0.419802112
48.94244626908411,8.413675422741136,133.84547112541506,0.014513103980220099,-0.07065379916753471,-1.174043842358791,1.0948226281178772,-3.2652424726314253,-9.99839877937784,0.029815161353561007,-2.571525566665196,-2.718302450804071,-2.9373660507932553,10.935637716776151,0.8076459727371743,-3.572494294099509,9.089617820381054,-0.0005274255635662785,0.0015232867610403128,-0.1645644025849055,-0.04541093094814157,0.017116534746602963,-1.2501366745055502,2011-09-26 14:38:24.511869049,0.519763569
48.940630145413714,8.413041147165163,127.91773637662317,-0.05323940891734244,0.21468024531625113,1.8238095250706432,2.191692319076125,-0.5217463403991014,4.81118934908605,-0.1455211864299285,-5.34767108672457,-6.874573448814049,-0.9659748399472825,9.51147824768881,12.024636945651809,8.88105174603607,8.737305815523912,0.010408487295454977,0.03410035485467405,-0.21103364168365057,-0.3860210080567442,0.02357711598434238,-0.37065324290493884,2011-09-26 14:38:24.611852864,0.619747384
48.947346774222716,8.41007697810282,153.1995975289332,0.044542783294243944,-0.02787033943628439,0.10165832466676439,-7.425846964271245,1.777270777705847,-1.6570439993751576,-0.2238191454637224,-0.6513186749543798,0.5455872128107003,0.6198212691509171,8.774363784726054,1.1966146583412898,-2.1502312014630123,8.474707403200693,0.17355349944930895,0.029166184543874096,-0.953269841232733,-0.036423956744961,0.001643010135164609,-0.9298862938513124,2011-09-26 14:38:24.711819325,0.719713845
48.943157477679,8.416399918483055,139.4411832354147,0.013509547273886854,0.6520368179831889,2.8455614687677184,2.566645403211883,1.000720570017068,-7.326274603423928,-0.2638630788831998,1.4607515021686321,-4.509761047049651,-3.9902212049357835,8.198217486766087,-0.05321489178292216,0.16426418645470098,9.264491363981913,-0.7229407779653628,0.0012793825197199293,-0.3166395977054404,0.006988957383145819,-0.01976533919247534,-1.1319010988406037,2011-09-26 14:38:24.821764302,0.829658822
48.947550863907296,8.417738140215706,159.41196002872488,-0.29754237050851795,0.3534965157042935,3.467744430897058,-11.093387150019378,6.547824623513292,2.8580402318917026,-0.2923959303560996,4.088743543360175,-1.3158274107114112,-2.294646488892169,11.30456553906053,2.230450717635183,-2.0791116469336,11.904521782465501,0.7025171108932609,0.01995558689462136,-0.9437144048321378,-0.0369004685900643,-0.11051809830343552,-0.7922644487724957,2011-09-26 14:38:24.921722394,0.929616914
48.943234316342355,8.416322683513021,252.38213690280907,-0.27511389599314073,-0.5035254522791883,2.6639470048206,0.411600804672847,15.111737607490847,9.576039194472589,-0.01995703805232822,0.6726413253374273,-0.1496737520014172,-3.963622944662104,14.529603562235753,2.7237586508853333,-2.4013840088565432,8.7780256052787,0.09102348778733887,-0.014817485282046992,0.5623147355093249,0.007773383930671587,0.4261487692164726,-0.4515808045176972,2011-09-26 14:38:25.021732195,1.029626715
48.95316464625816,8.415317046509633,131.90671585104477,-0.04400966949584069,-0.04563403662152415,2.376587574150797,3.543854959943566,-3.7456226550728036,29.496976519958995,-0.1282525891475817,-1.108128402778523,-4.92287408463957,-1.8388508731523543,8.513164941957982,0.2837301309856707,0.7739300315461473,10.224812925929319,-0.013914933534022974,0.807376797437601,-0.35533905270690647,0.09861702991107908,0.006374795187527205,-0.9688200177196049,2011-09-26 14:38:25.131664732,1.139559252
48.94292268085062,8.415273388347057,108.4402878288114,-0.22786221770062126,-0.15390142381117652,2.2502460369559563,5.917015325641897,0.9077382899978802,12.99766502073618,0.032293620860764524,-0.44822359551559554,12.155873009365317,6.253071209613782,11.485877003259287,-1.7375144521621035,-0.10095034649132972,9.942177892118002,0.0742461948749614,0.016907505561444887,-2.0067673065906613,-0.0159238193517618,-0.06766706915370051,1.6685712454788688,2011-09-26 14:38:25.231592022,1.239486542
48.9412989635397,8.418859624903861,146.53257239773717,-0.022233577504344793,0.19991545990006657,1.4246042860834058,-21.616913788272736,24.14841017172313,6.973965614371819,-1.13220919100849,8.905442828735973,1.492002359261189,-0.6005204357801313,10.093218330034011,1.600985107717232,-2.6344444382623706,8.297791594055573,0.05825813146745864,0.22070345767853536,-0.9757777403515739,-0.020898358646266574,-0.03258469088371359,-0.330844647155446,2011-09-26 14:38:25.341573173,1.349467693
48.9423796913465,8.418836387808794,88.93997115775647,-0.06658903989853149,-0.004533911209321111,2.4603880600823604,-5.592674679703297,-1.6984225279448635,-3.3223259133310497,-0.573371287325384,2.215662007306748,-2.0848849429630865,-2.4180622536411813,9.444045529101741,3.5644612202758434,-3.575187596352972,8.725316863735367,0.04350414377441559,-0.08191377408085983,-0.7676753127009852,-0.0034543151526854263,-0.09515163170717489,-0.9537463391639469,2011-09-26 14:38:25.441598298,1.449492818
48.94050490135427,8.415965349302038,148.4941824552705,-0.0910748356084651,0.5392995240293195,2.112611246459044,-3.496123853198881,-0.5589325316596548,-21.148845213454763,-0.1780053261920543,-1.6919531609137675,0.19178260510173256,-6.250048029181006,11.224287775694126,14.57962105210808,-0.5469215356877586,10.795488034784258,0.0450863137554606,0.04429701531577679,-0.49881559633172823,-0.043603561600091746,-0.08437194821310393,-0.24570016662196148,2011-09-26 14:38:25.541583570,1.549478090
48.94214460158723,8.41944223339628,201.5739810881151,-0.43073921582254576,-0.0429098427821109,4.035731880174261,-1.3904823724962525,11.402447758385895,5.664558447718328,0.02092867534797932,-1.8120961952023595,-0.6270937171879933,-1.9521357067796905,11.254553286295433,-1.189589034849757,-2.433896846900925,9.778033093216834,0.07172393461186208,-0.1667828545852865,-0.02009248533230623,0.030986878750325998,-0.11350632166671956,-0.5619404158611716,2011-09-26 14:38:25.651451544,1.659346064
48.93970955316575,8.408804286332801,145.58740497588718,0.032607710318138534,0.0012215132497761828,1.2484736122880578,9.421247633462402,2.426421157854397,42.65608376832665,-0.039675645192337176,0.23826579343918955,2.2968125800726447,0.5847958106279347,9.722729075180807,1.0567682133728744,-4.067508758104455,10.167634301797179,-0.007744342420999625,-0.008907801234687592,-0.7488665023589469,0.45434765627648943,-0.1454042307206075,1.195895092462365,2011-09-26 14:38:25.751314745,1.759209265
48.94193426840272,8.413583359655266,188.82721567218346,0.03312254847866005,-0.05905378461776522,-0.9076146056334498,3.5442848227735277,4.490513609522228,-3.6560387578186093,-0.874677512904588,4.325477360412752,4.7375798968790725,-0.01792510879743081,13.094931702318409,11.354136277304704,-0.031999613744969846,4.5496556492738875,0.10179907104967412,0.031225897046612203,-0.32695543663875376,0.11533779144743603,-0.014916640490179534,0.8978776891326365,2011-09-26 14:38:25.851277688,1.859172208
48.94389663790156,8.417202126381484,144.94131086713762,-0.2068593014034623,0.05544278535904198,-0.9943048688512601,-2.9740631609772783,6.048694106101574,9.310305859822176,-0.1104772640908181,-1.2420920803007054,1.863874061013893,23.26477478838676,13.571959314205632,3.737453730962984,-3.766779143972272,10.064079336012055,-0.006690411182672343,0.003995892963727769,-0.3305192757472188,0.04454517875960237,0.030518676075567668,0.017081346526836516,2011-09-26 14:38:25.961219815,1.969114335
48.94343849836374,8.410932865239,150.31113392154077,-0.01732040384590918,-0.045423153739106256,4.112352560813704,-13.065318197260114,52.96332607665062,2.6283651498020815,-0.15385878842492784,-1.5995512099597127,-1.0007868602793517,-1.6304781949276488,9.912213089153127,10.717088142216411,-0.6409594259774672,9.63539647513124,-0.2590701924873948,-0.039268487270886485,-3.0665860832431333,-0.014537819400869668,-0.032202349046187725,-0.6344690835233897,2011-09-26 14:38:26.061431288,2.069325808
48.950533648277236,8.420024638322907,200.91948228499777,0.13144606159720054,0.1781226627542955,-4.301967417597508,-24.404837271938213,12.207141525086069,0.09700051970751922,-0.3400986521462728,1.3373429388625984,1.5740238038069159,-3.9893973214378695,10.282162734876051,-1.1402977122005917,-1.3723318612628872,9.649835732997444,-0.015607259202198638,0.022989949667359184,0.02996946565151365,0.1005367679933618,-0.04215189667809157,-0.8863715367534554,2011-09-26 14:38:26.161208623,2.169103143
48.94056283863467,8.368623325698684,150.59525014819494,-0.09336268975133108,-0.10083972938122396,0.03254209356865201,2.8777195888571576,-0.2112526314992058,-2.0708359635486566,0.01827409273116383,-0.4786118001725125,2.9076108734815276,-3.5606059955405076,8.264623325510053,1.0629274548540522,12.265060651783948,7.886748756883874,-0.03522285562678044,-0.1722946709286818,-0.7633067073197368,0.01774917362490065,0.0045325960831017215,-1.914205754188709,2011-09-26 14:38:26.271092476,2.278986996
48.94524502772678,8.391018069584069,128.17159355372672,0.11336514469959236,-0.027876200509009613,0.8718264871933086,5.317709933093827,4.41118414234329,1.1889039185098844,-0.10312036272448859,-1.9074454613448273,4.449554379404969,-1.4319429939297552,14.812418266477815,0.24501164397623026,-5.195164739803214,9.595519691289217,0.4229894793877797,-0.4195627737116997,-0.1913572207748906,0.0253975685283404,-0.09954275901113496,-0.2957916689015756,2011-09-26 14:38:26.371055389,2.378949909
48.941886392354746,8.42472655047921,157.11101417334692,-0.11768486773223828,0.12843145680246845,0.4675053454364835,9.303985260400694,-1.576366950585796,-5.346356076198685,0.315033856379481,0.4117903461452416,-0.7094494706913943,-4.2189189172428225,10.54992841638421,1.1950936062057953,-3.4897184453123273,12.257910937216066,0.03513972143667429,-0.01558573496201335,-0.6000024715828223,-0.5025237070518501,-0.0532000873476827,-0.24962750554550406,2011-09-26 14:38:26.480998144,2.488892664
48.943263899614244,8.433437104393699,103.24983264025997,-0.03959241227864983,0.07111569020234532,-0.21044779986756335,3.4592564373730936,-1.7584717864453119,9.518247023385552,0.2578012709719511,0.6708672734989565,-1.4552791513164238,1.6322468552780682,10.657593781353961,-0.15509034297531854,-1.3746348346255943,10.559203050983514,-0.015033011060574735,0.1424864110566567,-0.11267889669327184,-0.06074073105702334,-0.16115528937468707,-2.5886424377544754,2011-09-26 14:38:26.581055360,2.588949880
48.941386025065334,8.418338688975027,178.87011095187108,-0.014301721701335732,0.2642305399135435,-0.6885825753900108,1.1723696305224518,-52.52405878318571,-1.924054555252185,-0.12656378801677998,-1.477013561037653,-2.441310859600929,0.12210088443323097,8.043988148375734,0.6749774194273749,-2.608492085995306,9.86435380270738,0.04913699668632433,0.05426483536504031,0.46562678436439453,0.11808009826609919,-0.13760356556587908,-0.06547261306236254,2011-09-26 14:38:26.680894463,2.688788983
48.93936613677071,8.41415006672568,140.1908977068651,0.39215461085950715,-0.04650060208397018,10.043127191144553,-1.0708690324725647,3.9720424743879987,0.23632838387288446,-0.0890451079035002,-0.7620820495139293,2.5365344598010733,0.243354693052809,10.569947309892909,1.8037013572550284,-2.627343040793791,10.099262941550082,0.024839686872088547,-0.09741170410330358,0.3407753555433133,0.09478992898086125,-0.03460954461208991,-0.011916517674667837,2011-09-26 14:38:26.780885160,2.788779680
48.94125465505422,8.415374043352628,164.1370402886211,0.021785705649607252,0.050170853624827275,2.925611181316429,10.915938303698693,-20.943266836003016,25.242618425486064,-0.01736731742194101,0.9896063540955933,3.9276066894816664,-3.3608693475623337,-2.381709458728551,-2.6463685454830284,-1.1850179447379448,8.92936371815627,0.016154600274844735,-0.016038460929128487,-0.6751762609850067,0.47240788978926485,-0.11077976764149344,-0.386230092840429,2011-09-26 14:38:26.890798004,2.898692524
48.939852491395975,8.4145217728309,157.79520822497324,-0.05878680736731329,0.09830793669516139,0.12616751983706354,9.351519471833605,-0.4951070147522256,1.4676851547896321,-0.41514760209326773,-1.8752857157340634,3.8198401786401286,-5.772696163000298,9.87705474479774,-1.5380590105849596,1.6486567397853547,11.770046447458505,0.07547671872542308,-0.12200500415304238,2.0050916990511363,0.12082280490349814,0.01934368251836817,-0.22301658538325822,2011-09-26 14:38:26.990730609,2.998625129
48.95548281419949,8.414497493288671,154.01641862803905,-0.02046983374034026,0.17466908353083033,1.9670133480773415,5.34157325520721,8.161254176443567,3.0428364805325865,0.1651839918989239,-0.5607407532265969,6.315145504389896,0.27787561475185607,12.728175567907417,2.405103888111207,-1.4794684409613215,8.854724223865624,-0.03568720379579629,0.11847566928461602,-0.6235098548094765,-0.028945827946129002,-0.16613909894403273,-0.9611913760717583,2011-09-26 14:38:27.090816597,3.098711117
48.94281220093893,8.408133915453131,152.43219596843912,-0.059653818801806424,-0.23281256993905416,1.788238807932864,3.152483385734373,16.937287534711054,1.551591147542684,0.15092220892744634,0.06638514111145466,3.1022126680126814,-1.2930998036281358,12.699831938259903,1.9275230272019548,-1.766663237029282,9.529650090097233,-0.0118701579810317,0.00966186484343702,-0.30974903552200567,0.004917777361142833,0.011899790082544758,-0.8135513961137331,2011-09-26 14:38:27.200639982,3.208534502
48.941589191298355,8.413759470756345,139.99763382249185,-0.13841400711032525,-0.29403305510760613,-0.08792506502189756,-0.2856278441756954,2.868956155289421,9.375838647495677,0.27676413297309127,-10.746080603234091,13.037671564829214,-14.356560729006992,9.445671446164491,2.463000103304678,-2.1883748398674197,10.393940249183666,0.04473829740226734,-0.158887819148768,-0.19330496601377797,0.43984893161374783,0.00894975113701578,0.42424373480114275,2011-09-26 14:38:27.300614112,3.308508632
48.944824371287034,8.41812104494636,175.7660729276634,-0.06024605877351456,-0.30195859014047405,2.3822371149751316,8.581258359947174,-8.901827109196068,10.222455083321373,0.18566494061082164,1.0120662124864832,1.805550959897093,17.557932492996876,9.32353831194525,-0.37925584090663267,-0.5902528949135388,10.034899662873482,0.04612852703488202,0.0032586490072330494,-0.5518082887115389,-0.0049990530898869874,-0.015562090164315425,0.14247074841034374,2011-09-26 14:38:27.400577677,3.408472197
48.941912225400834,8.417427910517679,180.60882976894112,-0.09323529529129387,0.09032795692326698,2.4260284891110344,4.6356878831006965,3.5710759716366267,2.41028155373505,-0.06377258362695831,-1.5993617935282936,1.709428900176068,-2.080689029882045,9.81718735048158,-0.2621427579390361,0.26523773788003835,10.312168693334785,0.08852670109834475,-0.0800986994488078,-0.31910169377908343,0.026085095408909673,-0.05303347787674089,0.2976489374504434,2011-09-26 14:38:27.500582473,3.508476993
48.94225757259519,8.419410603718054,169.09688616279618,-0.15419519900259412,-0.24593765464646145,-7.463837581412244,5.4927975082334175,4.601158782664759,5.401965080427745,-0.09832739780319749,0.3762756850267443,4.3658348221162315,-20.440629926730146,10.376626908481132,4.595854063310871,-0.1255710643061983,11.469996366315453,-0.025674054403772475,0.044779123670226746,-0.4861430730999346,-0.3792056265907848,0.04925752780528462,-0.13653835000119668,2011-09-26 14:38:27.610549208,3.618443728
48.94264583028036,8.4159015517667,10.090547657693719,-0.0786841262059443,0.042065299974043874,0.40413661501067066,10.254151210146938,0.3122759861845088,-0.055016804668778896,-0.24656975912392465,2.0152500683447965,-0.7313873671752255,2.6575151673814377,4.96594171657302,0.7892408954525207,1.1991280819766932,9.265453386113943,0.0015663146473343702,0.003994083696333533,0.27847436684585825,0.05225096082868995,0.04147841056735173,-1.053740590650846,2011-09-26 14:38:27.710452240,3.718346760
48.94024915188983,8.409884866683445,148.33475028177114,-0.11579086496999061,-0.32856690371906083,0.016345658197544966,6.226082417371074,16.96168976449051,0.6982648957480286,-0.01594341108273508,1.3081686822263587,1.84664333519566,-1.7629816551742397,10.287309516435117,1.4968773975698122,0.6644180356894662,9.569575691868865,-0.11490653231318833,0.00893041241671811,-0.6858631262808836,-0.2742251849866314,0.06026086457980683,0.26086289332924706,2011-09-26 14:38:27.810402095,3.818296615
48.94075022855303,8.411521752898585,77.10849333821191,-0.04773683280066037,-0.7760037002698252,-1.7120670885575315,8.137934675538826,-14.463076353595124,16.217365164241507,-0.061456007726487835,-1.2971356913106293,1.781562373399163,-1.1670012680360724,8.548001446255132,0.7866260053679016,-15.347412517025218,9.427045538126627,0.06270699429703509,-0.013263750107667555,0.2580643892655052,-0.13870459861796752,0.0716675154038909,-0.038164002376688495,2011-09-26 14:38:27.920349825,3.928244345
48.94562495103571,8.405313303826189,233.78323897901274,-0.019035858590447673,0.2622163297698067,-3.3385625107148327,16.295563901351752,9.821570374148221,10.293769382811995,0.027666028112752268,-1.603946406948513,-0.023209896963744564,-1.2042984810507291,9.4532943483588,2.5412797198211754,2.011058380440443,12.719582358002244,0.03752468757891447,0.2948310833603412,0.661427909363998,-0.016374249763632914,-0.038671099019938204,0.14522314073248907,2011-09-26 14:38:28.020312019,4.028206539
48.94146886243207,8.417567148213166,258.48542529965624,0.065432792542273,0.1701141337860676,1.480439488888813,9.852052533835323,-22.69075210948558,-15.933171423556765,-0.929980673072426,0.2246826915817222,2.4180718774500423,8.38008157361084,4.119452640544323,-1.140240999491441,1.5232072091816702,10.44580865274078,0.014979868585256306,-0.09255490201357565,0.5419783936837382,0.07528614627932265,-0.002870084890814261,0.9959522574588253,2011-09-26 14:38:28.120455789,4.128350309
48.94538891441856,8.415352680839934,151.98521023214948,-0.10068758252070495,-1.1964666891234694,0.953591655012686,30.749438862771967,28.864899263241067,-4.9710316359970355,-0.09365887144198498,-4.729978742521338,5.077856608451754,-16.48916167204439,8.287870567312627,1.6606266643688699,0.8876682602355337,10.35731886724519,0.0964794322616611,0.10643188705652508,0.5525115005303713,-0.05756317635838935,0.05709962562206551,0.002115950661277524,2011-09-26 14:38:28.230210987,4.238105507
48.94331741182236,8.395279279475313,132.84682602025072,-0.029820650768935884,0.07084849336140746,-11.707816223943993,9.629257905102268,10.91356660146077,-4.289523542333027,-0.028977010036035457,1.4997423808756905,-0.19691392833111665,-0.27820959543848245,9.845120537126776,0.46500603754820835,-0.7772690536243578,9.412063584424141,0.005352505342221524,-0.08852172153020431,-0.47392401956506774,0.02303162228159133,-0.12740310102725946,0.29187646173511284,2011-09-26 14:38:28.330163014,4.338057534
48.939859512406464,8.416416756977377,150.11749562435003,0.06699911732666235,-0.15157508515588683,1.5101656971359838,6.4988077538862346,6.905823121523214,10.07399829534357,-0.015512728845363593,0.8333557790263804,-2.89162762956291,-3.67766727117513,9.01325225979798,-0.6079789615911413,2.2853586614376913,10.16438340612626,-0.13848487929111705,-0.8045322376841645,-0.03847665753238198,0.018553968156645003,0.2929358826226097,0.4518319347600728,2011-09-26 14:38:28.440263248,4.448157768
48.93992716846343,8.425283593920936,170.33375331617907,0.042655080404186495,0.219213694270393,1.0998529008748616,6.589320831059308,5.23589625710604,10.688486780172301,0.02024491598597474,0.19120663019715506,1.1141296392915958,-0.11726349833155159,10.2231075025269,-0.546251206249379,1.1321365838545152,10.779887294356104,0.02586283517830595,0.147328555011596,0.011569248317056163,-0.02253164905103881,-0.11008295134337914,3.4535336552246334,2011-09-26 14:38:28.540228734,4.548123254
48.93946805643546,8.420153503647176,176.2876762149991,0.06368853526848561,0.15400039688390144,2.1550860774968483,0.2774398212684126,4.723394130273736,13.447054313313586,-0.07960386854225926,-0.9243743230430647,0.21939944097100422,1.1741904912972176,9.61392547522649,-1.3908725120231733,-0.09908343128980199,9.842453742597806,-0.0044295289032554724,-0.39862315854381625,-0.009883930950372776,-0.03673285838565415,-0.00028330015915446934,-0.3793064020690133,2011-09-26 14:38:28.640175526,4.648070046
48.94479300661512,8.41213408264934,142.03376085854748,0.05433764136405445,-0.015323754658488255,0.4684219839102425,5.774617475303712,9.52461979180199,8.623539019604989,-0.1693666054314967,1.9618598684104187,10.672639163018184,-1.9373226119825984,10.237255700607303,1.5499054215899708,-10.152942625880671,11.514477282099689,0.04667614061150621,-0.06396955124099299,1.2282665600722618,-0.06426804757768503,-0.06951129513833057,2.693970592453619,2011-09-26 14:38:28.740034525,4.747929045
48.94309834720678,8.418375254674835,135.60176939397948,-0.21380984748288728,-0.6437308454910734,0.2605689757665547,6.716106901414355,3.911279865009789,0.3223571428559051,0.10227828377506118,-1.2125251553825354,-1.2588659364630563,-0.5470123919833279,8.914046954657625,0.3431642865504063,-0.26167028874789466,8.806179116295176,0.0033710633804160633,-0.09642034381121761,0.2652691663310123,0.043076726657869324,-0.045926462012305894,1.57891474435601,2011-09-26 14:38:28.849964709,4.857859229
48.943394740304534,8.430558016842385,-13.608107326509298,-0.11097552386531936,0.14472644581500407,-11.726154173372404,7.096810994335128,4.158338270886816,5.4908994508825355,0.11057970956762937,-1.0217749469926114,-0.725715226727283,0.9039133104613295,10.931956114186928,-4.165020942504556,-3.3926994846315552,10.658240448080942,-0.1507209135317455,0.014692155394159747,0.25977258019216476,0.04095150084080635,0.2123973392687762,0.20641069900108724,2011-09-26 14:38:28.949883148,4.957777668
48.94269698382179,8.42041663273976,129.88237277523973,-0.6417924564729501,-0.040006523843384156,-0.25648601564465856,-10.471112435564322,27.518115400566227,11.125623138290226,1.0358455335767087,-3.4120472583664605,-0.07772710846444851,-0.8803250828710425,10.485688650443546,0.892975188774576,-1.2794478089415373,10.253044706065094,0.03182198177896867,0.05201571580350342,0.08706348586360446,-0.003013578701014215,0.08879814587080127,-0.18061829890996525,2011-09-26 14:38:29.050035180,5.057929700
48.942012351010234,8.418479187454695,142.8081431435189,0.13202636391856715,-0.13773480335427282,1.8959995889149968,6.323296878546476,15.539478249367983,13.217537679632077,-0.15018501366861386,-0.16627181148077042,-3.074695472976632,8.761358724145998,14.132784152639276,1.337460419608208,0.28707366606927576,9.90783899060446,-0.05025286267166168,0.11205534257258204,-2.5463639349425207,0.4986092668467847,-0.09791697377904977,0.06937380606904282,2011-09-26 14:38:29.159823027,5.167717547
48.94335248078414,8.41504687361532,-157.53939371976068,-0.0631752846928248,-0.04668409185204891,0.9326080411137849,11.906253859386187,10.202737294266015,4.332999345625155,-0.3982001830369678,-0.6759300105953633,2.6756139613869987,-0.4829032860864294,9.655372297418745,10.382801395995157,-0.07880110459522609,11.392482212876729,-0.012335811369579227,-0.3059567645651752,0.45269648327934287,0.16565194915053572,-0.05654978868020859,0.3989389440957655,2011-09-26 14:38:29.259745096,5.267639616
48.941087193917966,8.414784084138764,194.55421008013235,-0.04661087701256238,0.21124694146925108,1.1822151434763728,-2.7017194875587034,81.52007915057524,6.978232533711633,0.21978601322752359,0.9938116240051774,-4.0346600650904385,3.5515756037033825,9.706227058719676,0.6109509533913684,-0.8964671961341404,10.912354980001718,-0.015450329754963996,-0.10325835407527303,1.1254379722763161,-0.029438483233664395,0.29593793190172046,-0.05403283734631959,2011-09-26 14:38:29.369673651,5.377568171
48.94415888557758,8.414919492574874,-156.32003450666983,0.008625472252959392,0.04058355467148563,0.7213582231240664,8.429059269367057,-24.458212119822438,3.093347878769973,0.024055022295187373,6.744560291038428,-1.4088792940351702,-4.284120557608629,9.39004156275308,1.2858549869521374,-0.5352611214628468,14.170722288196998,-0.004059383888846252,-0.0014396569535143947,-0.42974570964701736,0.06841801204111427,0.1283001809592499,0.2701797779964744,2011-09-26 14:38:29.469656559,5.477551079
48.94212657680697,8.414477581997405,157.57551653903252,0.0866305506217063,0.09733935441730479,0.3752192056862733,8.016427438779683,8.381705987200647,45.47996337445278,0.09432249747780984,-0.7088060118421543,-2.1250377970667724,-12.831716994702585,10.011134399881973,2.0774469412988337,-0.27724609050465815,11.14842806442762,-0.11031804219865535,-0.021425036894276016,0.14967389110739404,0.035386850253641654,-0.0038095046332595342,0.10979662692983853,2011-09-26 14:38:29.569637503,5.577532023
48.94825222448553,8.404634010018611,151.95163937592324,0.02251462969303719,0.1626305092735589,5.983881148866323,21.54541716951988,4.596117053157779,12.02280118691355,0.880760841509676,1.3142289289443667,-6.255266865884075,0.8310782714534009,7.336788579254882,-0.30148659705294634,3.986764030657165,11.103621152336155,-0.0440261020103772,0.001907047022983564,-1.7756129532921265,-0.02118149672428667,0.0472835176690206,-0.04473747482919874,2011-09-26 14:38:29.679555927,5.687450447
48.94350223645352,8.411997463942734,150.61304126922082,0.009954420951745252,-0.15601125024543092,0.0038564739285438243,7.85762736319154,3.5880700013655993,13.426925330303597,-0.17083249937208111,1.8299654950302935,-4.754902776969034,-1.4392483979282191,8.51906102898634,1.397221440868595,-7.881191565590755,5.511756250973279,-0.08724925201153663,-0.007793092837050133,-0.42395959040493125,0.04643156766159071,-0.06903272079725657,-0.6702408009402961,2011-09-26 14:38:29.779551704,5.787446224
48.941958733206874,8.412934054880807,80.51927469836467,-0.18257015243325805,1.05383654610598,-1.1725606506322042,-3.2282744857041568,19.02457574893686,1.4516904301029956,0.022378710819790582,-9.300516224918713,-1.5592876330748147,0.9120198923119769,10.849160380296837,1.1134468605904737,0.4773289434728025,9.087837112882088,0.014892749578885615,-0.04745669883689484,-0.006760709847897244,-0.03148750293750506,0.05769989948096875,-0.030640550049124762,2011-09-26 14:38:29.879473317,5.887367837
48.94029512695168,8.399437954960746,248.53758209068042,0.01814547359878326,2.3334414555498926,1.5223788688582163,8.487277857522615,-64.13186409334261,4.338937733202418,-0.042755896656107455,1.2744126657325814,1.2958732830945237,-0.14617550160020037,11.380434076725388,0.3131831604774515,-1.6670062832813486,10.91833450401158,0.07157284909436028,-0.007721711131739332,0.3054498606179643,0.02643857618852973,-0.11581010041322932,0.4897017428869158,2011-09-26 14:38:29.989375775,5.997270295
48.942467821411846,8.410377546377903,120.42113634677115,0.09668113783962662,0.13751443276938893,-0.503900978245583,11.194541123488143,-8.179375009210336,15.012796132963764,-0.07785306614886432,-7.992075471334942,-0.05761217700207172,14.269563879414576,1.2010282602765319,0.7187262456535797,-5.282481985585006,14.546057878614183,0.048582650057353176,-0.13754415537191425,0.16814359600448694,-0.04216010665603871,-0.03029359801821088,-1.866827602276154,2011-09-26 14:38:30.089573132,6.097467652
48.94296991846069,8.415239405159214,132.5133988035393,-0.08374457686724447,0.07254343694466464,0.49317747418004504,11.238625294433684,4.893773944485401,4.2923006115095035,0.03560324820452015,-0.5790340964223648,-2.044056131453822,-10.544578174848425,10.430746538978653,2.097056581925953,-1.9467419927325575,12.300188655531564,0.007517814330202877,0.022568390181318662,0.5885480386923022,0.11543219992100853,-0.037334796570830074,0.2610797732414857,2011-09-26 14:38:30.199274800,6.207169320
48.94417941224203,8.421252245158403,143.0693908481936,-0.00517599845212814,-0.4954429782309035,1.8282466928652994,3.586646461552643,-3.958275849212323,-2.6904119012291297,0.029817424299476418,-1.014262920425384,-1.779522545139801,1.0686446935741272,9.956383352237136,-0.39043047917535173,1.8397503599190164,9.453996966480121,0.060595070087991434,-0.020100420081236706,-1.613428326214676,0.04226319765250045,-0.028702503602570976,-0.5992579117637178,2011-09-26 14:38:30.299246421,6.307140941
48.94023899991015,8.417940832408894,142.11247339495748,-0.07649303899513389,-0.28570639430367645,-8.238537208880919,-15.415336778943384,-76.4460480582563,5.137406375048748,-0.2290333610206826,-1.8321025832430657,0.2091002278746793,2.57901598935056,6.852204570502615,0.011762168844310528,3.9135723739060584,10.896625305402532,-0.03065389147821995,0.026873109171076565,4.08150496290414,-0.11357922671267846,-0.00390832594135641,0.9014259565516186,2011-09-26 14:38:30.399221167,6.407115687
48.9384138816737,8.421914119982098,76.03581643499851,0.10290902071916727,0.2952903137970047,0.9885842175579456,7.499606520994199,9.939225874053385,2.955080202605225,0.12623435220528478,-0.13874985131893744,-0.3277513141409348,0.3631336518259022,9.976354324994018,0.22724507381993406,1.6724811772861479,11.101073525622592,0.12232030986946799,0.09132131639623381,-0.2350691361009297,-0.08814109621037503,-0.007866013671176203,-0.2352521389455881,2011-09-26 14:38:30.499179384,6.507073904
48.94323681737529,8.401073049319377,97.88881287082589,0.5082720476501617,0.288896915002753,2.063395473445659,9.874291665754143,-0.845251845993618,7.505627068103767,-1.0679954577547586,0.9775825851879568,-0.3620153253011894,-2.8257403650208066,8.031386260210525,1.130283358061154,1.1442934698997345,10.619533165187486,0.051327114884625796,0.07242410701792142,-0.33867744990958926,0.0492874832654594,-0.28265643694333037,0.022972136070407788,2011-09-26 14:38:30.609138237,6.617032757
48.96645923518488,8.423225716710595,97.30847870412885,-0.1183580587946696,0.21931191232115665,0.6821500862417662,-2.3779561657420984,9.506039845308658,5.230123113804614,0.08021383619701251,1.1359425195300061,0.573597987752583,3.4477365119017147,9.54241383714717,-3.579763246916411,1.0090729043121538,10.430567820350479,0.11224338684695864,0.010507673266687056,-0.22762079064625018,0.6934331449645775,0.014247656081864117,0.18031588864676687,2011-09-26 14:38:30.709090732,6.716985252
48.940394730628114,8.414816057265858,102.85477649006211,0.11344687769778086,-0.28668807453376616,-17.19823433779547,-27.40147750177788,4.2492368365992705,12.38967609187447,-0.013088425621341541,-2.4868931806437926,0.8880698575384276,-1.6054933617051632,10.975413350280212,-1.9784607769374967,-2.622104712326534,9.835610774718644,0.07530100291920547,-0.022209549817151307,-1.4762301196755214,0.3145985171321411,0.04521685752972028,-0.22575659531523612,2011-09-26 14:38:30.809009515,6.816904035
48.930841836838006,8.413112807044616,192.9620260613138,0.04525203102401194,0.07709176856836167,2.9578920136825904,2.8028148370932238,-8.595566016722861,3.2676417699412834,0.045551547169868145,2.059029697987668,1.0538345103047637,-2.3772084726790643,8.315844090206713,1.26601603305093,-1.1164069658068638,10.425041244638358,0.0751027292470422,-0.12156319442366935,0.35984817192169494,0.14824119089780163,-0.13061052598015205,0.22727287064779653,2011-09-26 14:38:30.918940076,6.926834596
48.94851777167332,8.411068056128887,171.4326412988726,-0.1121757335158119,0.03513015634119503,0.5937226628411059,12.099614840226714,3.2714408918063103,2.360854795846692,0.043672278262994954,0.7019807963206403,1.802884575200753,0.5667874685389331,14.66326417612822,5.161431574573463,2.857845661437063,10.538329682393135,-0.021288037425088824,-0.034008835287759095,-0.21226228666822528,-0.6078615221387049,-0.006259090166472018,-0.10245406737205162,2011-09-26 14:38:31.018951148,7.026845668
48.94511671365084,8.411214526398656,132.50799874132338,0.06314341674208329,0.3587671836185816,0.9365970789646084,1.5332895603993637,3.3117066453384214,6.076605514249309,-0.4376754115252796,1.7553035758297342,-15.103877081953904,-0.88407354382315,9.373151034701165,2.539592115853818,0.13230864555792315,11.30062196219448,-0.09159078486522507,0.03902489187696425,0.017721894326598132,-0.02044738176005767,-0.10856201778000611,-0.3893404575440772,2011-09-26 14:38:31.118910611,7.126805131
48.94056930765566,8.411949215496128,172.06778203542518,0.0811451743014294,0.5498425964234768,0.9259389843470235,3.6795144152025903,7.0960131524944,10.988973264930134,0.04604387946072291,-0.5876225459510894,5.062363537956218,-0.1737173073934129,10.73802919258593,4.698766630456987,0.58339990465205,9.998963677940901,-0.4509940783667865,0.016057627629990183,-0.11819632025783271,0.045462885786452065,-0.4301784708192959,-0.2047760078315424,2011-09-26 14:38:31.228948371,7.236842891
48.93571096119283,8.412362339672516,81.93023653551232,-0.05936109292622791,-0.09739954092672322,1.2684180834561543,-3.0075529065179447,-1.4295796042423046,-3.1441412203655137,-0.029092740498258978,0.479750959491224,-8.095494636651058,9.29268298203798,10.74656968848221,5.138477469855923,0.9194378184248994,9.028028416627166,-0.027867454035345837,-0.02745121306920123,-0.6629858338993662,-0.028637406237157034,-0.04131150833163855,0.4015861969506434,2011-09-26 14:38:31.328790454,7.336684974
48.94484808097085,8.412242874360244,139.50337217137118,-0.10361074937605783,-0.028559421618217,1.4393247518965953,-9.965768007164971,-3.5653102612376943,14.286773687304322,-0.23801199991205738,4.766315961154121,2.5639146055510755,-1.2345773239012066,8.082930135807601,4.889923654038247,0.46835755888448394,8.931932956360813,0.02048476165639193,0.10730698360947342,0.08133126258278374,0.02053476060423524,-0.1045435828049096,0.455933590661504,2011-09-26 14:38:31.438754017,7.446648537
48.938975157544846,8.406261605220132,114.21597250550072,-0.053649682929890315,-0.012980994229467626,3.2599106792194883,4.7947379417661145,-14.667459058344816,-21.34914594372659,0.2404376631470328,1.8172991050724132,6.406925178318085,-0.37510403482370264,6.914142167498661,1.90107832430751,-14.198813335707687,9.265660573386809,-0.10469093622051273,-0.07551892801611643,1.3111287213247285,-0.03584209032510872,-0.003636791096390473,-0.37442774053613825,2011-09-26 14:38:31.538866652,7.546761172
48.938205532402314,8.416436493010753,181.96670839768217,-0.02513824533176086,0.30097712924811376,0.3717786959537279,9.65829736872065,-10.06567331355434,15.956311273505623,0.09854846430591252,0.823939855432062,5.888036727199943,-0.9332010944775191,8.337572166914496,2.233637701289407,0.07156725234351757,7.716713503014359,0.08923067852494025,0.03592258768951762,0.43250353463867763,-0.03807249150623898,-0.07278784562449309,-0.12450226523226535,2011-09-26 14:38:31.638616975,7.646511495
48.92732451858194,8.426908740262036,138.409050249341,-0.5017743408943945,-0.1163692756598099,-0.6224345247981797,-11.784095992980507,11.082905690780787,0.040658596898996535,-0.1707479665375882,-0.22769556045169564,4.072682451780703,3.6228004506162823,7.3053606959913955,0.861051310966331,2.7145275351371523,9.181189914850105,-0.05137548078413501,0.028207671317094507,-0.17459745695348816,0.22812244813673646,-0.041047904453779295,-0.07995542396017333,2011-09-26 14:38:31.748588728,7.756483248
48.94887687532018,8.413874838369365,141.47285002114094,-0.053102570897752124,0.043895913041397165,0.34396092789583144,11.078933953969585,1.60663055469225,10.947040818885533,0.06194039917241667,-4.486115209511422,-0.36103286854122496,1.147070791474274,10.80803422316623,5.020834534144763,-2.1959522235806896,10.068581099862122,-0.09422530324996485,-0.1671097176757237,0.33337112559347476,-0.04523273535368005,-0.02927389811453803,0.7442416729845529,2011-09-26 14:38:31.848554866,7.856449386
48.94310058334585,8.41173616206691,137.68785299014505,-0.04229012615764222,0.0628822928991092,0.9499366545488239,8.787635504467463,-2.9207711574053095,2.3631892055198067,0.3702568637746133,-0.40368233996072567,-0.8524009608915284,4.886151054117398,9.953291558768006,-7.531587381904407,-0.31825909975913197,10.94560491141735,-0.006458437620123082,-0.0896527675552074,-0.41449175895201396,-0.05347112930906023,-0.0013002543066901254,-0.12171532278034075,2011-09-26 14:38:31.948475630,7.956370150
48.94283327159323,8.417249583520938,132.3960267155865,-0.03896564810131045,-0.21379897486242946,1.7130507030100453,2.1299938879823483,5.187620597154338,7.169911641307614,0.13273610825487595,-4.636219644355828,4.569395951660911,1.007779962848971,10.444764890200341,-9.095053437821967,0.9241477188989978,9.955491023787854,-0.4840382105568992,-0.013804259475466,0.5745666549504287,0.294699209136181,-0.10240612459203954,-0.46999745875700755,2011-09-26 14:38:32.058706929,8.066601449
48.94304857320293,8.424375522713163,145.03523055618604,-0.011070982182690831,0.03191676732541074,0.6569400256736887,6.923181973278981,2.174172675485547,-37.935919996826485,0.6051041584338414,-0.7257058850251987,0.2571307402574914,-0.32402465191028235,9.213148729126198,3.0734729357587622,8.800749863919108,9.452189128760235,0.11895615298420911,0.02424459606313589,-0.2043996034393153,-0.047684838932610024,0.09806879913736156,-0.5222122928291467,2011-09-26 14:38:32.158355895,8.166250415
48.943744274047525,8.41468500180422,166.43658405169364,-0.11743761913783074,-0.3337464132945909,-4.751552763109515,5.020674200531936,4.7128601215607455,4.324860313005056,-0.6215775023081811,1.3054930651809011,13.966214539862163,-2.031525621141372,10.670643537233095,-0.9591650808830912,-11.188023348507674,9.096853784095277,0.07383978965099008,-0.022289748143958354,0.02460159559205873,0.13607349674074767,0.05955695818925613,0.848392649153693,2011-09-26 14:38:32.258382827,8.266277347
48.939363035001804,8.41344018042903,145.66690026016707,-0.21608390336859157,0.21540027017278035,8.12580468353211,11.748698692468219,18.126274015796426,-4.43223074337447,0.2895429181548359,0.57666117378087,0.7424205238619959,-2.5872956863312035,8.44738693954929,0.7587080512528327,10.917586509566368,9.915054076687348,-0.02677035587485705,-0.0329785737036362,-0.14222341813076564,0.11768914067251846,0.018985977417244865,0.4503051192554484,2011-09-26 14:38:32.368317739,8.376212259
48.947153289256455,8.41798670280435,164.4674346434051,-0.07673678661385956,0.0045838975088873714,4.881357167512937,9.246221317017085,12.116657821319567,18.5461232072019,0.4841331364046651,3.9640137350459708,2.3682969282213544,0.8159666060236591,14.932515536554522,2.4255618462937503,0.7633849269657107,10.72108509269217,0.21100034851386845,0.29843163612148754,0.022256164382907694,0.06349159047083106,-0.031382457980382056,-0.6295306123250977,2011-09-26 14:38:32.468279711,8.476174231
48.94155173861561,8.41369727978218,139.72914359373107,0.10800722657475746,0.046631279221449426,1.0682348651170404,6.431283161703337,-23.114658733528323,3.5592395280635998,-0.23125290119777075,1.4038577105920804,1.6931505961957967,4.314248092089198,11.244133586103665,13.553682409147576,-0.6137915688025705,8.955070956160274,-0.07351472837901717,0.01881816117112183,0.16216146622723168,0.04022333849072636,-0.08815212918507265,-0.05927476291076763,2011-09-26 14:38:32.568336576,8.576231096
48.943058000007404,8.419242827342272,121.78855313446823,0.02410761220251674,-0.07326270293542254,2.8589839054711863,11.17993313137542,1.6062606769018304,-0.15149322023859924,0.03801027450969942,-0.45215197970600546,-8.888790540429149,-5.294422944438635,9.051658599936811,2.094320017243868,-0.02287347243621795,6.84842798454669,0.04943487601565103,-0.03175490672874514,0.22124127813275773,0.06321552017361001,0.11397764915715114,0.0007772080288939096,2011-09-26 14:38:32.678176411,8.686070931
48.942482146035566,8.419150147931486,132.4330429517215,0.007418671407133291,0.12755235638134227,3.1615095694160926,1.5846163523034065,4.900946564935071,13.21069289363775,-0.06077262849284362,12.58852345182657,1.7787904555673322,-1.3213294130724005,11.571707743104806,2.9677827591121866,1.9430713792884846,12.410116826308219,0.10813132138943776,-0.08339562256126169,0.6000847813751382,0.0001685469590160249,0.15012330984462005,1.2394221258645688,2011-09-26 14:38:32.778165415,8.786059935
48.93885810147174,8.414571658283643,181.76409212746447,-0.14714366347215954,0.1155999752766814,-0.3240411903834588,9.386501334191328,6.1902201191016815,13.645513148514489,0.03570267571575225,-1.4582032583674531,-0.04307037785603418,-0.5886397749969832,8.584319483436214,1.8228516633829144,2.1828142477275954,7.722804588330195,0.10424755613559335,-0.06585316976199725,-0.4329202340177253,0.1372913960022188,-0.11154185729139392,-0.433803172931207,2011-09-26 14:38:32.888073932,8.895968452
48.92394109821833,8.445132292728733,161.26406347371753,-0.09438656917034659,0.14081806064087155,1.9155139843101643,7.269648597230228,8.086535349730509,-1.612253857365939,0.23923376527286372,0.7164323895027501,-4.457857539444991,14.468045843123386,9.516492510695608,5.924635317885999,-1.441649874734131,10.377349862884275,0.04023005146083471,0.05989254459167151,-0.024522984037496337,-0.030740913792837447,0.10772736835021467,0.8546450471371223,2011-09-26 14:38:32.988025239,8.995919759
48.942409259978994,8.41956721656601,145.08760668779345,-0.010079259985053282,-0.2398644218504916,1.0190167095633136,7.985996573896323,-15.7875534166383,11.060153731212171,0.07253077864752075,-0.5458912226679323,-1.9739846537494925,1.4800718938007942,9.839925212049959,-2.2722095944674514,1.7269150676661584,9.47907461664851,-0.007812184826475621,-0.0042466525759925385,-0.7160663077808466,-0.05264610343027817,-0.0620982752261691,2.002675844235273,2011-09-26 14:38:33.088041705,9.095936225
48.955615339297765,8.412886191981645,191.66042440205715,0.01894725643285715,-0.09141222335606201,10.554440787921184,10.994248224964537,15.695127330082816,6.4869372491535175,0.15012520331008689,-0.2311342191148934,-4.653925438952348,2.2476809126280473,9.699749082946875,-4.33058022620725,-0.32564752394401997,16.188087833012645,0.024433960520970938,-0.03130777162856187,0.2159165325139843,-0.07257813001174113,0.29836929278910485,2.019316387538992,2011-09-26 14:38:33.197878270,9.205772790
48.94149071861655,8.407987025384578,178.48140501798014,-0.7463333844830452,0.3200064839443608,-0.3447874179862791,3.2128353684833253,-6.480038351396722,7.802417995820144,-0.06365139670447154,0.21800771899378846,-5.529074036570095,0.25806937176518235,7.535056890870898,0.3699232776877023,12.77575040254007,10.561622676414597,0.03804374933746414,0.04648967807813434,0.5236336256355251,0.38608044908440065,0.008239967143212876,0.09590841435512135,2011-09-26 14:38:33.297853356,9.305747876
48.94752808074279,8.414318240826457,185.7699415882937,0.09305897698408942,-0.3937941479383021,-0.7514302880329993,8.567064096452556,9.969179546290299,10.303268473389242,-0.07039642751056056,-0.6842276353929782,-0.42717901590701135,2.846262958268867,10.332167734917586,-0.3824241754826047,2.8370078930227267,10.173479558347617,0.015931446679438167,-0.02305056694485705,-0.40693135709472267,-0.04698611351478603,0.013512532955837289,0.17574903543064763,2011-09-26 14:38:33.397890691,9.405785211
48.93691199096459,8.408214231012968,144.4009940096917,0.01123782094039404,-0.0402087776105434,1.495502940457222,52.77297986633352,-0.6548267593129884,10.939856661037235,0.48246837741228216,-0.13945915634075007,2.095360160029725,-3.6440332739952273,11.638332753399432,1.202470645637916,2.0239770592710062,9.730123944246373,-0.17119861251475987,0.11180677226205281,-0.6266645659160842,-0.10419591028836421,0.0740234072813206,0.6965164760572593,2011-09-26 14:38:33.507812576,9.515707096
48.948792912783524,8.4136643518618,153.22985358653057,-0.01919125584156544,-0.08375348549128513,-2.47418166703393,21.992143899280215,-25.11788833444595,1.3040555383559749,0.749902668062759,-2.162273522002921,0.07847033351247501,0.548941512089371,10.477562592810175,-0.8791317001620966,5.129675291386293,10.622759779389222,-0.039444171030296585,0.0014773785170171068,-0.7167554729601773,0.013354050371262045,-0.05910742955652638,-0.161193265611121,2011-09-26 14:38:33.607793339,9.615687859
48.94698694623542,8.413887974235571,189.72872928295473,0.05136172301293906,0.07717739881026128,-2.831586093343769,3.1358106099974683,30.92242443842875,11.93749248027713,-0.10555993716496873,-1.7340531526505722,-1.634529956376709,2.885266836716202,4.335113113156841,-1.1613660100179226,-1.1986275560250395,9.376570253129856,0.7419391427973686,0.07753686797862447,0.22736309439866914,-0.03153500324828882,0.19460130016455413,3.006406425402574,2011-09-26 14:38:33.707691277,9.715585797
48.94061809398252,8.411504189609467,147.4654138982767,-0.16555871697085586,-0.039681894195317036,-12.295550002753961,-0.0009892462730727303,19.368356252331232,12.146356319284207,-1.3547524132248627,-0.27931406065396314,-0.05384705242360141,20.449769635166874,8.69141515041771,-0.8019479788419449,0.923288059587936,12.890948959717504,0.5246626346384246,-0.1558491348377221,0.5554063942106997,0.008505070786423492,0.04755680819456187,0.23014006293169845,2011-09-26 14:38:33.817659248,9.825553768
48.946893690667245,8.451485469717035,116.55962467980696,0.3470371543998309,-0.22350554525048455,0.3909029746713285,7.152877814008445,4.620419105139361,11.09272996707857,-0.44063197432157153,-0.392896144053903,-0.08970435513027239,-3.0990362339492927,9.025533616003392,-0.006015124130978267,0.826576989740992,9.332302623426157,0.05394186937157235,-0.11681937800305277,-0.8038141750973998,0.057876369824351584,-0.007236760815651998,0.14575971436854923,2011-09-26 14:38:33.917595196,9.925489716
48.941673898473454,8.413921667987154,159.91887468262715,-0.1733244071238251,0.08019487311626416,1.4382760280287294,11.126461467317046,8.629117909697522,14.01862007197264,1.1963210600297847,-0.42484987358339793,0.8802867748454601,-1.4645641268309553,11.713073222975211,0.5222951222491703,-0.4680138247712086,10.320764869501435,0.3314598472498832,-0.08436727408646619,-0.19354482220789426,-0.024744094086224428,-0.06780641047537027,-0.21253104554316718,2011-09-26 14:38:34.017577183,10.025471703
48.94591784956939,8.414885902494305,93.47013748586443,-0.07340159999087746,0.006532686434714158,0.005080507157269931,8.742978248381647,1.146805988659589,-5.86728516037201,-0.20573065262132473,-0.3713378161879797,-2.933846696792575,1.9805946215467851,9.72687116575791,-0.7077104808935097,1.8498270420286222,9.289788995053708,-0.05228631067639303,-0.11774611122634088,0.11639832759331359,-0.0671312934978846,0.06301696976475525,-0.4261258553372661,2011-09-26 14:38:34.127676609,10.135571129
48.94247403495555,8.4136357517856,255.0614545817471,0.03192427127342685,0.14424265944345616,-1.6143267174095022,3.557812590514387,6.763061823336079,10.877798175722925,-0.22236386072880715,-0.7843499659570271,-0.44897807321034905,2.59126446052993,10.568226868263014,-3.0915349448925933,10.262880549822526,9.873785386087992,-0.10976816334274064,0.05444361155206358,-3.3868019056878214,0.07969337271809893,-0.327160808015798,-3.297816495840904,2011-09-26 14:38:34.227495394,10.235389914
48.938114621651295,8.403497522290998,132.77409779142806,-0.19345249296470357,-1.4703966925656642,-1.6414831395146439,14.340497152277875,4.324346659995445,8.35250024867898,0.08735780982395416,7.35503775470117,-0.31799249804899277,3.0751155413572278,10.677395503924203,-2.4723529517325153,-1.215078406839095,11.208697469032716,-0.04879829222858969,0.07442919890877527,-2.7078175832422398,-0.5551738768234945,0.40845777736095434,-0.12587247856384653,2011-09-26 14:38:34.327492473,10.335386993
48.94545780945036,8.423969573532947,175.47613750432333,0.058657827254738455,-0.29629852316430705,-0.44789278210113004,13.578753289486961,-3.710660906851552,14.392110289793656,-0.30080286528944755,0.8766433819290105,-2.700383617550151,1.0609205793867449,9.164367968953425,1.2989295866688377,-0.06316960943480371,9.043802385661795,0.03360992052451813,0.030385078511222165,0.6741016125597877,-0.018551021827686316,0.11306378313379502,-0.3670634690234289,2011-09-26 14:38:34.437375250,10.445269770
48.94403671357062,8.417109962497562,180.29638582615763,0.16263133193398827,0.12854766117546132,0.84808395916734,3.082101795467946,41.26505127036705,17.591046481609464,-0.06746552171268155,10.819750928425236,-11.697848563885554,2.4732279881681487,9.309760569767299,-0.19463191168393115,0.019827601639013953,-2.275753829334535,-0.14132907110298076,0.044597991585832206,-0.0863232755092973,0.11911728553519615,0.003284602526659966,0.1705476538454556,2011-09-26 14:38:34.537499707,10.545394227
48.942217936928216,8.414045508768735,181.54377800510156,0.06084547497779599,0.038233315225568845,4.1960531256477305,12.89797297256656,3.450336774025484,15.559005114442371,-0.3520809667951269,-1.119518969414356,1.5576864215319224,-3.807542874260654,9.702256986771983,1.198395360214973,-1.3683449600284354,9.34209057653239,0.06711769919431415,0.028344484422433126,1.2751238097370825,-0.013690597844386311,-0.15150517947021022,0.8423589131464004,2011-09-26 14:38:34.637300665,10.645195185
48.94837710398659,8.412554227568325,105.61487582252727,-0.020156253947231494,-0.9186997704799373,-0.6243430511810389,5.936140244976309,16.44471959942021,13.357635108096433,-0.2007081695275646,-21.017203670296247,1.7781420275546913,-0.4756323325024557,9.396559857635998,0.4623362893010704,-1.7292539757984904,10.461558934294546,-0.030518171299634782,-0.11470175106670796,0.7747866818607663,0.07744576358350241,0.12072104984737032,-0.33236408491625946,2011-09-26 14:38:34.747230672,10.755125192
48.94504541758345,8.42431329942842,131.4022611512711,0.21513542020666193,-0.08728675243400683,-0.38695607121932407,7.523620604719271,-11.838117710391398,7.445132612600586,-0.04771000687362072,0.8245884723462171,1.8821877306191037,-0.9282578885204044,13.814812202451824,-3.5692848197752736,0.998229724837468,8.658752440452801,0.2823809103829207,-0.0069513061902977125,-0.5474866521606452,0.027842996475548637,-0.21092960088427198,-0.34380406817179887,2011-09-26 14:38:34.847158090,10.855052610
48.94356806658238,8.418405535667192,133.50010855932706,-0.021811094745881172,0.26025110248916783,0.4896439884545112,7.277391383241184,-7.634520132553885,10.645428792551096,0.47437121798467335,1.3449315564759055,-0.497716110249042,-2.7949853250884367,9.734283888061253,0.32173953673206457,0.9934878697191428,8.786332396793997,-0.03455118569601207,-0.01426807285152764,-0.9047917835747605,-0.03781155781560312,0.0619976946208185,-0.3433930470208874,2011-09-26 14:38:34.957158506,10.965053026
48.94458338053901,8.421100146043212,198.08618465442564,0.011504581397671198,-0.14942209768355427,0.587776691399442,9.563417003095545,12.987812436801883,6.604200424903388,-0.09732500425539581,1.6019740421889506,2.8830628471072073,-1.4932761834003043,10.352289961467083,1.8031920874603413,1.123263689863291,10.643937362575157,0.0077708183898413715,0.0058767730776817725,-0.5104608210657916,-0.4959378986712032,0.14793646197905322,-0.17451648935976144,2011-09-26 14:38:35.057299325,11.065193845
48.959942903924805,8.40759671295749,135.51745743214093,0.1099303607963899,-0.205633599518703,1.9041030774535135,-27.412334183370014,10.218709834508944,10.81589557907896,-0.34753346882775893,2.6564071987953253,-4.469226264943366,0.057806009113089196,8.240029210516111,-3.2697154585655857,-0.27990397516443005,9.924676053358612,-0.022799546832792002,-0.025275890008089923,-0.2825580969257263,0.03109972145464264,0.07965842782978348,0.20449273466917073,2011-09-26 14:38:35.157084372,11.164978892
48.93732835391164,8.386048004232274,180.18402097067454,0.009927497284168463,-0.1373307350637462,5.0050763437505115,12.89861831324222,53.55984032053242,5.331151604568762,-0.18997397434779298,9.911529963574106,-0.6527971142488436,-4.435478997554384,10.356397321162076,-0.18128135251855418,-1.167051403750444,10.412263805591147,-0.0013094884101785918,-0.011815783447340474,0.3583052071392352,0.05125140138906814,0.006619804244570503,0.6089411374285649,2011-09-26 14:38:35.266984222,11.274878742
48.9306415804477,8.421357262472663,107.80733741240849,-0.14623640226973614,0.02137147942268611,1.155735988478328,6.810569212405332,2.718562995700029,7.211126708378862,-0.1660568553296456,-0.4838866349819783,1.041743441465586,-11.783792240069545,9.52804334549065,3.999652033329879,1.8303048358696734,9.546101817318057,0.05298846764939749,-0.026943120646195824,0.2943987744828271,-0.16467610763311127,-0.0846412457666213,-0.10683557000709337,2011-09-26 14:38:35.366948011,11.374842531
48.941391444154654,8.392005035845528,155.6703699609017,-0.12207293746209469,0.04919760432029324,3.274554627425095,8.984323882988122,2.892045908971822,12.715955261962193,-0.7948512557434451,0.1352466893596444,-9.428189627518007,-0.42874100233340046,10.49572997573985,0.45133481313202545,-3.026470980279612,7.727373638913167,-0.014676051680199517,0.021179240044311372,0.7590663597962541,-0.021827742742520254,0.6746483035878122,-0.12477769011322604,2011-09-26 14:38:35.466896786,11.474791306
48.94122915404211,8.409133077082112,176.00856603814526,-0.3769547403887047,0.45019702076530127,-2.2049012177624308,9.896705216974128,10.271911850253673,3.4402566089103583,-0.23778798949136015,9.222433661708259,-0.5279970757395779,-0.4168206856644885,9.247311436372332,-7.207734071856907,-2.9706290808662903,8.592826386905568,0.019355074253835564,-0.1833661143093296,0.01040927689403632,0.005572378504945157,-0.028481218381714878,0.8269319122754759,2011-09-26 14:38:35.577063641,11.584958161
48.94532214560115,8.396201228049105,223.22086221514434,-0.10062836479574687,0.37485141636299274,15.381727828824603,5.906164409903728,-7.612789597172905,7.909969564368523,-0.04996998910337726,10.38437880026898,-4.430163534887831,-0.5859619872663799,9.350804240841157,1.0005917122532821,0.2534152223341635,9.795992151943253,0.07926408265673941,-0.017909089392397506,0.2483923954756856,0.09799920365248568,0.33810217433615464,-0.4269553609376821,2011-09-26 14:38:35.676791132,11.684685652
48.9493923511847,8.415073574055747,129.99447972667872,0.09297485140310557,0.003528988139374246,0.054508097785928245,18.429220583319086,13.74611701759158,23.768027911774496,0.2414794021461032,0.6838015355827577,-2.741406290628697,-1.9643762487024423,13.84210373085362,13.122905072721943,-1.5002898292051057,10.073593900708111,0.013670638310964671,-0.026984273872765245,-2.4995259617728522,0.47975339693775243,0.0936774015272807,-1.2496687450960435,2011-09-26 14:38:35.776804943,11.784699463
48.94508313380953,8.41333685041242,150.5449934376565,-0.07267625072134082,0.2206402937940429,-0.48832787288532853,-1.0389115191728058,3.9598395503615964,19.445578547369387,0.11842117456072991,14.98827491778853,-2.127449333010346,-0.5036243416807513,10.366774071910037,-1.7240616096317551,0.4392708231598423,10.151523097203869,-0.0938229693007679,-0.3046381528363038,-0.23296916732139078,-0.004988259601983737,-0.052207763862374544,-0.2503434425473611,2011-09-26 14:38:35.886660829,11.894555349
48.945000705136025,8.420061455050428,169.4549209898666,-0.05996039220522684,-0.20662327940471362,2.8034275514834364,6.519898536524702,11.045660407528857,8.973681579013684,-0.10983005310467622,2.2769268033996917,-1.5663712082342378,0.12146100369026513,7.335638566840116,2.1259970887834334,0.6346814842205295,8.946231236877514,0.007241422631722982,0.0031343441605144683,-0.3547015727642655,0.37760048793944806,0.004986057884191095,-0.8048530186735987,2011-09-26 14:38:35.986619463,11.994513983
48.946243339690646,8.41922144351061,158.05409958666445,0.006840132899336885,0.03322482975871666,3.653859714305923,11.265058922544789,10.577474147261741,17.514181332432827,0.4012363594455089,0.230800035873843,32.319339160930554,-0.14729218290315832,10.139204458512806,0.8909429198933182,4.1718695127421395,9.87716423686349,0.014148943531801622,-0.08281389728135082,-2.1181203824589154,-0.03190029773581486,0.0639696485688456,0.28650730145512265,2011-09-26 14:38:36.086677362,12.094571882
48.9432663816981,8.414687451446667,143.91062938796435,-0.07753338008777673,-0.16529849130410676,3.8639149770993386,4.554740458930562,0.8615245141520296,7.38122253023989,-0.3713735183815427,1.0017238495401586,-0.8444114805823302,0.3760358410926641,10.830517256426893,-0.2683982478334649,0.20306318720253935,11.624982007153108,0.3031461936287207,-0.009605626312239973,-0.3998274597682808,-0.019109627247334608,-0.036549831223187654,0.21368991839061768,2011-09-26 14:38:36.196507219,12.204401739
48.940055938253536,8.418014255672073,173.92870542041703,-0.5807848811666735,0.00520347417032937,-7.618272304545451,41.878993927757946,-4.493276947924584,7.824633835875059,0.025740183531508337,0.9691495156275117,-4.7815592856708236,11.725274639164095,9.726377432268862,1.2140981336093097,5.239087389187928,9.370773481960166,-0.07079156732476738,0.013432676351036564,-0.05520653931920193,0.1744752614998989,-0.11702655833813079,0.18322251400333067,2011-09-26 14:38:36.296469181,12.304363701
48.9409661351553,8.412634246286354,182.7147528086512,-0.09266408607590224,-0.01953579256613257,1.3774869690140465,7.329719524482844,9.814559099921379,16.933514783700616,-0.01707422046689064,0.047599857166518225,-2.5642764809260266,2.3971286215741747,10.255090057459464,-3.535806781572079,1.9178504582560314,7.755014284949374,-0.0029630925254911975,0.1346262943402319,-1.4644060204867473,0.17437607116314996,0.692988737241779,-0.042631728753415574,2011-09-26 14:38:36.396474684,12.404369204
48.93933889497346,8.422733877316084,133.76853735118613,-0.1875554960959469,0.7141832300842945,0.2824120535898029,11.884954316337577,-6.724222323680803,3.9232343332959694,-0.7607315084555546,1.4327340158557853,0.43303098997102646,3.6602294095688306,5.142296533606947,-1.7353441378033698,0.31600230704418464,10.275105774856327,-0.025865741993063587,-0.0746283556757755,-0.4777103472133895,0.09618307589432996,-0.03341757020422409,-1.9121353717903529,2011-09-26 14:38:36.506374887,12.514269407
