lat,lon,alt,roll,pitch,yaw,vn,ve,vf,vl,vu,ax,ay,az,af,al,au,wx,wy,wz,wf,wl,wu,timestamp,rel_time
48.9474299274431,8.413921432542104,153.724339864228,-0.003812690605722039,0.16103064894196042,2.7330195528640244,1.9584946554549942,38.993792608363634,3.35741297357149,-0.07260349375238824,-0.2036081808171317,13.642505158776524,-4.109467029392434,9.281017769617028,-2.2067004826651724,0.6431487231467348,10.223799146563033,0.1034943885483871,-0.006151360177676883,-0.059961099649417704,0.022123369141641834,-0.17152951847521208,-0.5492678532318535,2011-09-26 14:38:23.992105480,0.000000000
48.93665254100277,8.412571825608069,213.28377008188357,0.1496685157756139,0.1212581859588802,0.839549147924251,1.607562859339179,-6.090314584846908,3.326250012887208,0.09795576910723897,-0.6503390356987796,2.5714861976240084,-1.3464228076611677,10.025602231304237,0.41957883960151043,0.07767738249275569,9.28134720694651,0.012037050732461913,0.09138133237074736,-0.8796146965784366,0.023566919460435737,0.059707565648042436,-0.26291552519159544,2011-09-26 14:38:24.092132099,0.100026619
48.944518819600894,8.41980009549984,150.86430535603762,-0.026511572719211864,-0.0051421107661377835,2.8979899655214796,-6.158397839931,-10.431354563229204,-4.0855222964566185,-0.161745998393982,-0.27767681406910116,-5.719375274917362,-2.1287737899211665,9.951500286020398,-0.8991005149578957,-1.596857476436519,10.12160117673932,0.08064454514659232,0.07278153007693315,-0.5677600457334107,-0.01831492724357749,0.056672397461674136,-0.633399492104343,2011-09-26 14:38:24.201993174,0.209887694
48.942080836169865,8.416520509908429,142.055270103221,-0.109345104038188,0.0880842567644598,1.424008328046662,0.9873431695800905,3.9178252884812244,4.26605429984404,-0.3418310137160691,-1.1687430604202882,-2.438721906735215,-1.8033230460736236,10.14167178109904,-0.9239664861165209,-1.475244426371023,11.468336511725239,0.03817501114060454,0.043152045601126315,-0.7085107062602003,0.012912034595801647,0.153257836536855,-0.33843453524162104,2011-09-26 14:38:24.301963973,0.309858493
48.94497492558048,8.412465235577368,147.94602398560565,-0.1301293917086494,0.1935001481990044,1.092627118211547,0.30619436850588144,-3.8370250278220377,30.186304733552106,0.11393018600963334,-2.342225029736671,6.801740722825082,8.938754004586404,10.476204650076097,1.6305527939718827,-12.538810352371295,9.555276023749455,-0.03315299946845594,0.20456013562326492,-0.03987505595096974,0.028792590193355255,-0.0017370060211047015,-0.5729094048517506,2011-09-26 14:38:24.411907592,0.419802112
48.940589827773806,8.416640576310604,142.2497851203017,-0.14273131084182772,0.10954462695316977,1.9391082726523758,4.881566300809306,-11.195106379868129,-3.8907665168347014,-0.10413918832782582,-0.34054428624960786,-1.8236270961959606,2.97228125832412,9.643747467427348,1.992127089149796,-3.9919939001085867,9.329733394501181,0.11881807056572709,0.0756632173596869,0.10707814556877693,-0.005499978887849859,-0.08561155272236844,-0.5179668532050333,2011-09-26 14:38:24.511869049,0.519763569
48.940664556713976,8.413935841701502,251.79324398019781,0.10296130808518697,-0.33919487393456843,0.523135672400129,40.0404558552571,-1.4672958609907514,6.24645397520033,-0.1682543456465533,0.7795369825430607,1.9789046331973958,-0.4960474171377296,9.252647594454775,0.16646115919901333,-1.5152961793897126,9.932013849829543,0.0030098620879059415,0.13120997646823349,-1.371260643881428,-0.04032476979067392,-0.004701602953998962,-0.354518447768349,2011-09-26 14:38:24.611852864,0.619747384
48.941409330923456,8.444834209071406,182.13894627601542,-0.1764332211305345,0.7228715585370153,2.4544728548350396,29.97997074086352,-19.441646435890455,3.0892345027573955,-0.1416669877463064,-0.37474921054233234,1.5047567172694651,-6.359750229154539,16.10519305785496,2.196970314569639,-1.9704111625964484,4.858390213542317,0.008290536496573908,0.10458333037335542,-0.09536330527446063,0.0822946482263087,-0.1383315100952074,-0.37510716735553984,2011-09-26 14:38:24.711819325,0.719713845
48.9441306552328,8.434778820821974,24.819601480432937,-0.15160354477355215,0.17427704350141066,1.1934278369624276,7.51897695379153,-13.177143038998919,-8.377950176685857,-0.1350457193319267,-0.5635123492808807,-0.9203467360821925,-1.4700650305026906,10.113053697665011,2.244630859366371,8.399340820026621,8.897813980654,0.07992227280353978,0.00441251801799606,-0.6013351492371181,0.051816963224075877,-0.05931582700224566,0.02786971632187818,2011-09-26 14:38:24.821764302,0.829658822
48.94356431938525,8.41309423050357,160.10279650986055,-0.11495201725084211,-0.13270424253031582,2.0033297280090094,4.624610119520374,10.806054641078882,1.6729344326965643,-0.3379811773157132,-0.032881826750127324,2.2134507618644417,4.814328900061759,9.032474835012506,-0.0018005447698480337,-10.647495640220004,8.683921132889676,-0.0032102824827708737,-0.1295066954699513,0.13408863925271886,0.003555956820615226,-0.09514159658086928,0.18346042215967417,2011-09-26 14:38:24.921722394,0.929616914
48.944635090552495,8.397831830594038,215.35936148026957,-0.10170384245567574,-0.35195832377246955,1.5006128158647491,-1.6043542544787601,4.090482681485436,6.0527140300623685,-0.4526600240186846,1.6995952394712786,0.4782366160577069,-2.5722739128350387,8.29829237204468,2.4066910033430475,-2.449467320085313,10.393074107435556,0.004076049664594784,-0.08230599274119935,-0.4782108075434722,0.07218374743485019,-0.10044126371839854,0.16398665014997832,2011-09-26 14:38:25.021732195,1.029626715
48.94501644673807,8.41515886505954,111.00733666425344,-0.15637180024843392,0.012273832872924759,1.137069503872196,7.100835511666201,-11.61082531645314,-10.073029957550272,-0.3138172888299307,0.2961503269022544,-3.5929285246315157,9.76974233088119,9.264386634209641,-3.971754265216944,-2.97548316374825,9.872043871296194,0.024204567193820185,-0.01625526335092875,-0.2229174550545363,-0.11264993051844449,0.09714333833616194,1.1856120342296785,2011-09-26 14:38:25.131664732,1.139559252
48.94608236235396,8.419103844062871,122.39692632398068,0.11081039766289447,-0.24225965406701572,0.38421264846096137,8.031936421751013,-12.614386038848778,-3.427988778823002,-0.4353748001122968,-0.347729578069869,-0.19835505467581452,-3.522906868206725,10.98807789918584,1.339491750309601,-3.152176922582097,10.716875820323946,-0.02161872120358662,0.24444888868026812,0.020471086028513774,-0.022755920854051,0.03624676101703135,-2.8845061115134,2011-09-26 14:38:25.231592022,1.239486542
48.94651213142371,8.415077104945349,189.58126956175,-0.43612861253816915,0.16190751260218336,-0.2251099361846347,-5.255059214446781,-11.522092660301857,6.420451831771656,-0.2115592247107409,1.3809065221088757,-1.3399048116684869,11.434138971919985,9.917590345206744,1.0890138589054574,0.07444960544914458,9.198027407746643,-0.0893465960104173,-0.0280773245000331,-0.26892354354581527,0.03649485684664187,0.01038643435508603,-0.10212708987447566,2011-09-26 14:38:25.341573173,1.349467693
48.94545631577427,8.417608897816393,143.43647849783693,-0.07332026570191325,0.19006077231779162,15.807293007419869,2.6329988333952903,11.929566329367656,11.542270762056859,-0.024585877039034684,0.3079183420097269,-2.322603954866064,-0.8714996691272363,9.483541638538588,-1.204169640065796,-0.6244342534063612,9.04750336348898,-0.11895201340073427,-0.0020388867827014316,-0.04030800661490613,0.0946735978187822,-0.11806682189363445,-0.3421320629506246,2011-09-26 14:38:25.441598298,1.449492818
48.936782587920135,8.409224194998957,173.66496937036334,-0.200931039590429,-0.3399425426605189,1.635755361161277,10.0396582616376,-2.6457903812151593,0.32519470229737735,0.1024218122674374,0.8603335265406721,-0.6465980289089123,-3.7633493088837415,11.751438330796281,3.7473191344947874,-1.0193306226199608,8.60286432583268,0.00015158387298399092,0.02735779717330956,-0.6543905307673897,0.040937365269021975,-0.020973667156545472,-0.2410228268886349,2011-09-26 14:38:25.541583570,1.549478090
48.942498604128005,8.411357671902111,128.21156585946662,-0.009868122923250629,0.21048070270430183,-1.0427945092988458,10.695143327008799,-14.139877025969769,-3.3808788770182834,-0.22343543284138961,-1.007005249549896,1.2536793140941245,-5.573501337163799,11.224139013585285,3.1976515964381904,-1.6330001335911344,10.382566011921417,0.07084181240034827,0.026658872449880962,0.009221476924606509,0.04108540698000553,-0.04822670059731942,-0.38984597569185075,2011-09-26 14:38:25.651451544,1.659346064
48.9469963262957,8.37315655192899,89.7353189735859,-0.14738680760774958,-0.03682942816760407,1.4023018290376204,-18.79715291689655,0.771067717252921,2.1162096082142985,-0.04285047922572481,1.7783968436791222,-4.536708637439987,3.732919786829654,12.6445176954841,-2.3062030122900232,-1.4062257476809616,12.803497513047251,0.0765536690293415,-0.04859307447582063,-1.6237304533572574,0.060902800756146874,-0.011954934491047665,-0.48246811799569866,2011-09-26 14:38:25.751314745,1.759209265
48.94261277567801,8.415387198066227,109.96748593379435,0.0039855130322862115,-0.05931713433112206,-0.7970690348366269,-3.4769447644463565,-13.0414149849462,16.801306477489113,-0.006842011739201258,-2.1271939393377215,2.535585928136153,-1.6091165602774102,8.830235048233659,-0.31358483022817796,-0.6806241216280885,11.155438805500312,0.09887870448804384,-0.0018513951067061114,0.17520750500951282,0.01434036712196243,0.0029433325306419504,-1.6730197595331349,2011-09-26 14:38:25.851277688,1.859172208
48.9431425442564,8.414754906810863,225.68973379834455,0.10925334061449499,-0.08533696394635604,1.3021316630958337,-0.4208561190190103,-1.062292406913862,-5.21673095729045,1.1901354986847343,0.05323549127531886,1.7001454848522533,-0.2939045674158993,8.282682898061529,-1.346276556331606,-4.488296308703868,11.240005576843426,0.046554117498471596,0.10808817724781097,-1.2808876352153389,0.0897969671854902,-0.002061363218416566,-0.6522269868405396,2011-09-26 14:38:25.961219815,1.969114335
48.94228777483078,8.41691629695794,137.85597938436365,-0.23626609466858242,1.3653267830961062,0.7201714352740973,-2.1961817347846355,-1.966816531356402,0.12627974326911673,0.042307723642745,-0.07910691018536722,-1.501726595825204,1.5343713720872365,8.96647761980694,-0.012594999211023139,-0.2518275920717449,8.391774141661543,0.012660039191926329,-0.10119143439375579,-0.4842771791070614,-0.025145795509615296,-0.03612015298352317,-0.0804996176793708,2011-09-26 14:38:26.061431288,2.069325808
48.92744179954496,8.411361899339452,165.78319600005972,-0.025064399942284727,0.20716578518795856,1.317874003547696,-7.070032382996424,4.98351038306844,4.067371814536566,-1.2942475567413039,3.14438058321905,3.564810049226227,1.9085443372112698,9.418225514246602,-1.0605960213011383,-2.773306959977109,9.68220172783934,-0.0519090687023154,-0.0450636484176217,0.7199225823984585,0.0643321161970518,0.07802131491499727,-0.6060336479794528,2011-09-26 14:38:26.161208623,2.169103143
48.94261668686366,8.4145494653161,159.81580962543012,-0.08375135654729338,-0.18554813204693246,0.2512426255343294,-0.16101029486947738,51.76526393287634,2.754555774961713,0.01728467629941259,0.9864714319415245,4.351272094377721,-0.3618297510742561,9.239498693000352,5.570689215063815,-0.9718903812575435,11.693143169395356,0.17175275663792544,0.31297232847376055,-0.14480516814121808,-0.024046650784931557,0.2124924839653302,-0.7243967842428478,2011-09-26 14:38:26.271092476,2.278986996
48.94123428133068,8.411141289906118,171.92485611283706,-0.08902698477541401,0.23088504044751798,0.46009156587859,1.014814165290975,45.38844069399857,3.118344926215896,-0.6599773324099183,3.0463954188832654,0.8769147768369238,-4.1163272050822535,10.066075117481173,1.6593409702956317,-3.7134159317408777,8.8629854029421,-0.09676858440894831,-0.006360202454986228,0.02216080010439392,0.08318255062624573,-0.03781519026217697,0.15009439864820828,2011-09-26 14:38:26.371055389,2.378949909
48.94553363569102,8.409933166916902,96.61211513290259,0.010942531505809226,0.030136575734758593,-4.0163367722271905,2.348150313294754,6.602962369503918,-2.306384330564637,0.0027789231558571423,-7.374569709615269,4.859414174319248,12.588592069252616,6.704836083947509,-0.6854046351917552,-3.3317165667587423,8.198275200858083,-0.014866158827475173,0.3201991638859218,-0.31763620914556157,0.09771553342121728,-0.048378894756851386,-0.3844413518030555,2011-09-26 14:38:26.480998144,2.488892664
48.94488412496327,8.417860144088378,136.89377661183983,-0.24858888625098868,0.03540993327057779,4.321942171792085,1.3431532046946257,-2.2721855800343764,-1.9095929938550404,1.109803345475975,-0.04735984228736879,5.0982261817048276,-1.7833464139668482,9.011736268371772,-1.0540148111135608,-0.7315679714689156,10.380527981442105,-0.07008419041216175,-0.051710657098708986,0.521781036566158,0.020337175066817214,-0.11261849762155382,2.3495171300539086,2011-09-26 14:38:26.581055360,2.588949880
48.94189874806815,8.420420750162668,43.367690721156166,-0.15751288806244015,-0.2258064563536663,-0.19383038488253979,2.7967153883608717,-8.352703973451218,-19.41082150331425,-0.5678172269817585,-1.1874441796513882,1.412437363903841,1.156745451656191,9.618399008789998,7.052731745219654,-0.36090192651470276,9.033384892406735,-0.049485132500200216,-0.5050418706660386,-1.804232141712438,0.050091171395684,0.0548271445722973,0.2963071168982817,2011-09-26 14:38:26.680894463,2.688788983
48.93978444024482,8.417804621964542,114.12720989299663,0.8158102870232989,0.034102897716703745,5.397139695084716,9.171984665896899,45.19983016900862,-3.489020461269673,0.11722657699175862,-1.6316451787329602,3.041854658546499,-0.33027056219767037,9.549121863314358,0.9888571139601067,8.814754427606626,8.642870812512184,0.03536168857140332,-0.02050240674906667,-1.9400835274042385,0.047397224882700054,-0.04773017057449544,-0.16423264634677476,2011-09-26 14:38:26.780885160,2.788779680
48.93971092551335,8.450576868177006,117.83535082040298,0.00772332394584057,0.6060362625984742,1.5048180121062575,-0.318827298398622,-9.298041846781853,-4.180102854857527,0.005072954182984948,-0.5881041049453763,-1.4042501135767411,1.8100661241804328,2.1895686975065143,1.4782276596297366,-3.2517170121842756,8.87786360516642,0.050296547531643684,0.11134035920826002,-0.4918760877317171,0.08877632820876001,-0.02944627298524717,-0.21565352347182382,2011-09-26 14:38:26.890798004,2.898692524
48.94596922978579,8.413870027291736,66.74048601569471,0.10458750016415853,0.12164799040135023,1.33759213459053,-2.2392470916558675,6.901293631964253,4.9474524387578676,-0.06406281966192034,-5.107415092000587,-1.3813181463326303,0.9522078064634372,11.165638075932797,-0.9691948979496217,-1.4503984864710744,10.564013347511043,0.023272551115475243,0.01275403206057018,-0.9063553714278285,-0.06316300366199512,-0.09247133058508122,-1.1583421493183814,2011-09-26 14:38:26.990730609,2.998625129
48.9445453246557,8.415497654723307,153.23816872390833,-0.08055786904533416,-0.20137365262192009,2.197051488054862,1.1771490844537715,-2.234756552577273,12.86858399467928,-0.6472216295461454,-14.456458495157232,23.241933657418386,-0.5714921704665441,10.284727468391988,1.6918254879687051,-0.25694872590597906,10.526993358477496,-0.2630251600664931,-0.4069740976830811,3.357642975492901,-0.011777969546166348,-0.0018150645096191818,-0.4368675040328811,2011-09-26 14:38:27.090816597,3.098711117
48.940485231349946,8.419991397768532,175.52732501852907,-0.03761086387719002,0.20370444506823954,-0.0258865249780178,3.0820529860324597,-8.552668534805246,-0.6034883419293422,0.06680583448427477,-2.048281125779136,-0.9690500276329106,0.14696395534269568,11.2199300129159,0.437381860054858,0.7795691200598742,11.334102479811683,0.10549686513795115,0.0934247975800281,-0.18808672197559165,0.024530604791192602,-0.08958048983152914,-0.20877911972895496,2011-09-26 14:38:27.200639982,3.208534502
48.940911941351004,8.409831831878993,107.00887173509864,-0.11366707962424813,-0.11473113532166583,0.6964510262900578,-3.216859197566035,11.177077974549196,3.3684394285383163,-0.07954944552469906,2.5269867528977636,2.3843880823705534,16.294385345813474,9.069928804792509,0.08691702667524015,-0.9369291226202778,9.788604906991177,0.038580810270307894,0.01490214539265881,3.1329456848309833,0.0015356429680766287,0.1563913891026067,0.3133394133948833,2011-09-26 14:38:27.300614112,3.308508632
48.93826074013881,8.415261081410323,208.55185315751623,-0.33792200841304915,-0.01922185940832,0.18888734452545886,6.72539839569436,-0.2947003574773186,13.083081342749766,0.702360561417339,-2.5565792900069884,-1.212977937135443,-2.6579832576193683,9.889997144443253,1.5565773833692111,-3.099371086376369,8.516693241419945,0.2456742106399522,0.039571897606036834,-0.13986450579520077,0.5062110727050737,-0.10207173852619643,-0.691070716097247,2011-09-26 14:38:27.400577677,3.408472197
48.947320128504174,8.415158351176416,143.29820302253177,-0.05607840104251314,-0.06083819807732613,0.7911907740049359,33.677353542688735,-13.215506810199434,7.568139533204771,-0.1608273486035148,2.534551921715303,4.504503954114893,-2.6073686055652,8.480908034835975,-5.493503913072365,-8.835019210868513,8.16122130101775,-0.18528752107254148,0.27013506994357905,0.03262978199682352,0.08790014718599826,-0.07286757995173837,0.4948893180494178,2011-09-26 14:38:27.500582473,3.508476993
48.941568537134884,8.418184204070501,116.87832336789631,-0.11468655942848206,-0.6267252091566807,0.41899949863481667,4.11536124486529,0.07180149123150903,14.582751303028797,-0.017556879949404112,0.1512081827761077,0.9049495205020169,1.3166036028725245,10.977459749671754,-5.99139643098919,-2.7297366596913015,10.008466813310728,-0.03576192049414701,0.0031684910686670866,-0.01298163760687962,-0.011646964215338552,0.02488605348378308,-0.22940604264623482,2011-09-26 14:38:27.610549208,3.618443728
48.94120766744459,8.419965683356256,203.15233500478564,-0.08077703062969716,-0.32508503085220986,8.692726694044522,10.677784987864309,10.937341419581825,48.53186647637678,-0.18556541233631615,3.8232272764008988,0.6969762488382272,3.1825229259751286,9.15189602163974,2.61455909674446,2.623629292727358,5.728870162312793,0.039952048293353616,0.03769452846568844,0.3853271570609561,0.06752078879956347,0.05214387510691881,-0.44901776766109047,2011-09-26 14:38:27.710452240,3.718346760
48.94336380501272,8.41883519964081,163.61875834609734,0.3823132718971813,-0.03997712777748456,1.8246180408054113,-2.1490837518908634,4.330287055572543,-12.827349068746502,-0.08326545467766312,-1.5836557194856677,-2.3775618944521546,-5.060383840720552,9.87512328226417,1.9875698887382711,5.129153039138301,9.427055901475246,-0.03636707810391823,0.03252124342738146,-0.11463877246647587,0.16065067449446224,0.11306227301399413,0.26496416853673704,2011-09-26 14:38:27.810402095,3.818296615
48.94767813607095,8.414819243153332,138.8390453683238,-0.053966601831668,-0.10432542700562145,0.7510011244658537,-13.009217226096155,6.904506448925951,-7.907425052823763,-0.2882343040166309,1.3280991676606566,0.6228565142476964,3.0740310477724337,8.36272511122442,-1.2126760979333429,-0.6713817531530755,8.77530645939319,0.19572238711923082,0.09261432024000787,-0.30916101281199787,0.0014512524462277493,-0.09194374035877759,0.2593347370703606,2011-09-26 14:38:27.920349825,3.928244345
48.94044332969351,8.35786135347289,168.53779867636285,-0.045596688488965996,-0.17810183544079955,2.869181213007299,7.242287926599956,24.81066374653864,9.618651588530653,-0.26611538311494937,-3.0019842960434846,-2.241398123947027,2.4026734273276187,11.403487310888075,-4.160456810132182,-1.6742060089527768,11.636910408675785,0.09413129342567006,-0.018541625137104986,-0.5862007336327847,0.0900608240370448,-0.04677997663769354,-0.04254414002340304,2011-09-26 14:38:28.020312019,4.028206539
48.943437294242756,8.409757945080173,167.59066917111838,-0.022085979935848397,-0.5009017813865213,2.405234215015472,5.303400676049769,-3.064382490892748,7.624170180318016,-0.35925150938464023,0.46053030292108327,-4.30312360761159,0.1878845020939811,9.101187619972844,-0.30954377372376163,0.01855950782780294,9.276904092074975,0.021531364301222,-0.017110425275134417,0.4201208001889488,-0.5216495085386125,-0.10420363150468456,0.20232029854542338,2011-09-26 14:38:28.120455789,4.128350309
48.94186746438902,8.41445274032604,131.84164992328294,-0.0584634081432191,0.13641619613248346,2.5513342750885872,2.2574543618015164,1.5315015550719853,-4.17828222806171,0.28889709650938156,0.8767777229531826,3.6392568484291097,-1.533761310802348,9.982050359765232,0.5185140895107719,-0.469206536139962,13.330069397117649,-0.05755151786871469,-0.09794880952479564,-0.4769870848226171,0.03269530417908153,0.07017427310384916,-0.7506027993846103,2011-09-26 14:38:28.230210987,4.238105507
48.94205721123997,8.41509819314884,112.43883532185683,-0.04723187460809535,-0.0001446381940766366,2.9633171936333973,5.52911379628463,11.583776545465241,-8.465699526859778,-0.05075459185649459,1.0245906661811048,-2.13253708346538,-2.4485787207210734,9.621784114990826,-2.3873316777296174,0.13632097196666862,8.631594796784409,-0.014315250498514185,-0.0754247825998095,-0.49012344357201393,0.02497010592645979,0.04985875180554818,-0.18946270225565515,2011-09-26 14:38:28.330163014,4.338057534
48.94240146591833,8.41774702013335,167.88907218832935,0.03468348520937996,-0.030375268238986043,-1.5218462952757363,-3.650959941230994,-2.465780748563811,-6.286580921901015,-0.0470050797012996,0.006862786496553905,-1.0236632052377899,-2.21628370068876,10.521939776146354,-4.433791615686675,0.5487832735212498,11.244167706148389,0.020454512925869837,-0.048359747092139874,0.8307892852331257,0.0323659297689169,0.004375432849669321,-0.08064562061639921,2011-09-26 14:38:28.440263248,4.448157768
48.93936999868373,8.420104584013258,138.234583829531,-0.012346112656553769,-0.036097154742344366,2.4084387485347794,-29.91316591176286,-12.272074064229631,1.9969069444251648,-0.023432301059584066,5.679390132307722,-1.0465082065238072,-0.006299252404191366,9.459121625482926,2.3805015629502964,10.437993823331453,3.934843856352048,0.032651885177835405,0.08207036175497123,-0.4118769528617699,0.1305698136031937,0.12043486444229934,0.3414593269385855,2011-09-26 14:38:28.540228734,4.548123254
48.943948979082336,8.4206383290953,160.44911793462092,0.012705172379208245,0.25489581710063686,2.109686094388535,0.0867844975454215,3.9872546761626153,-0.04822443812345245,0.8116929549436274,2.390257154238585,-2.182138726524964,24.118010363528555,10.973131589773445,-0.4695947660623486,-0.09113529910540677,8.430932143902478,0.018624644889621525,-0.024180150046255098,2.5507982921528227,-0.014216780083746567,0.06323186160543147,0.25561596510200535,2011-09-26 14:38:28.640175526,4.648070046
48.939268082632736,8.408933626263588,180.4238982582484,0.13301064132738308,0.06389779321794492,0.14130877481601645,7.188451151283288,10.449786748587833,-2.5896360027223464,-0.032853565157993675,-0.6995525155020828,0.03318499939383224,0.0685493064688742,9.808929542748595,0.8964598237436506,1.1430670508761958,9.1820990010384,-0.12257515214626657,-0.112764535023817,0.355343138081531,-0.05995959462366193,-0.03278113908149635,0.14586873957640667,2011-09-26 14:38:28.740034525,4.747929045
48.9461852577777,8.400311126848967,143.31215270405661,0.06545739161300484,-0.19257393978071413,2.747982712623152,6.791500963733115,4.5769207736625495,4.832671372890332,0.1598722625904827,-1.6201059657786954,1.7145594365992929,-0.3651199815603203,18.183396467021904,-2.9603578573225255,-0.5909519319096326,9.740946829904221,0.19446221651674817,-0.009701201474002075,0.07536052135522257,-0.004305030893907436,0.07851395425262256,-0.3742673381865707,2011-09-26 14:38:28.849964709,4.857859229
48.94291575125553,8.374275381669426,181.77036532954315,-0.1182287926190064,0.06099338414268474,-0.9139416455317877,2.6254362968057254,8.267473520315407,9.900991427128693,0.15675520890772196,-0.6425816667129084,-0.16400880241042926,0.8160965322672309,9.818214233750082,-0.8049379276660926,1.9236352871037459,9.753983834457319,0.10216511163883771,0.0468320594318544,0.5626457660779348,-0.026209436488109528,-0.06569400961237745,0.388409521740146,2011-09-26 14:38:28.949883148,4.957777668
48.937429059540015,8.413747103492634,149.7612600617653,-0.00529741550914711,0.15258178219314422,0.4622847029356451,3.8414020174552066,7.126249903558237,5.62494878784237,0.09476419133657162,-2.7175425225921366,-4.3415723438859315,-0.12852187101974807,11.0989787654534,2.3826390592067788,-0.43920724716642,10.549835811546075,0.11003497478220947,-0.058607891627666636,0.08728615715886218,0.021719824926136534,0.6136486421783897,-0.47477517156070587,2011-09-26 14:38:29.050035180,5.057929700
48.94062783169376,8.409937901885735,168.37008226959585,0.06792154080707291,-0.08417700626396694,3.502959637458778,4.578546118672984,-65.3124889834352,9.346316525391359,-0.030036029202386735,-1.2573221161958692,-2.8089567696017053,12.447027632059433,9.256305344058827,1.186890400418998,-1.989618945334847,7.867344275746278,-0.01685687106278878,-0.06190951287961255,-1.3109523781918986,0.19839151750692438,-0.040125763171590216,0.5726896489518336,2011-09-26 14:38:29.159823027,5.167717547
48.94092511009852,8.411491909335762,173.3686712288424,0.08594110475330002,-0.14586180751871877,1.884730505960456,-1.6073247521336143,0.5023246391404594,-16.561181221319956,-0.08007808643428185,2.2639834927085443,-1.4007265458427174,-1.1632515402554393,10.620213809732597,0.4374996184519455,-4.143928949451215,8.426127346812962,-0.03806144806965386,0.000841703386817147,0.3438188817402902,-0.3478423212619208,0.048808425495453486,-0.0312752585829591,2011-09-26 14:38:29.259745096,5.267639616
48.944467989889425,8.42894563322921,200.68063914536413,-0.05478672001543916,-0.2818264719788937,-0.7123113476248889,7.941335023272371,12.636004044151315,5.262159165769273,0.0018280039394123135,1.7423255622828517,-1.9129437417877138,1.473782516739225,10.302982014698232,-0.824260674016389,0.39304461179742545,11.215145059276269,0.032322195217177635,0.022593563315609102,0.222742295559285,-0.004867740858088481,0.06393494394732613,-2.0235374505643002,2011-09-26 14:38:29.369673651,5.377568171
48.94575674363991,8.4117196829196,156.3442349525373,-0.10474033296599736,0.006741983299356472,1.1781288465610482,0.26564938666386295,-11.55350771875155,4.600273240320507,-0.18730438614294792,1.1769558433806675,5.037350458520106,0.2262702138013419,19.331964519230937,8.76197638860473,2.4513566592096594,8.929709313518453,-0.10368482704483056,-0.03805043886488446,-0.1617464780164953,-0.0013403190091678845,-0.08892506514326709,-0.054093765486652484,2011-09-26 14:38:29.469656559,5.477551079
48.94246037459267,8.410121760290313,271.3932382829968,-0.09845874200824636,0.05958429513151958,-0.9483395178410274,-7.381210750539169,6.086327428393373,0.13659684404674355,0.16169190915606202,-1.2669195673369436,1.3886949618703646,6.051836685569896,8.398675383329095,-2.779853912412458,1.4973939807060828,11.120478508332146,0.011787543941411873,-0.04090884216369748,0.6607469496241634,0.0405906661808598,0.006550625476152876,0.2876975429854391,2011-09-26 14:38:29.569637503,5.577532023
48.94336643477135,8.41633852802797,138.73318361171115,-0.028681645495807213,0.07287149960331811,-4.206366078938906,2.6299932337677507,6.041954533139401,7.254156452194611,0.15990516417296688,-12.942574297872726,-1.3728980783567875,-1.214438034598783,9.795540239763103,1.7173126115318325,3.160845403446488,15.4771049087714,-0.0028461752545195437,0.02029897544637487,0.5931459991032549,-0.05135961804930944,0.03189914600513647,-0.22844344044914783,2011-09-26 14:38:29.679555927,5.687450447
48.965698523604566,8.417665560917104,149.74565593669988,0.39453455183972297,-0.10808080801857367,1.5080610285053844,1.8016967454309731,14.072940539606167,8.380912516732073,-0.21274183680199213,0.8174323047863389,-22.134462880365156,-3.9708393023353525,14.167803948059193,2.257112985188423,-2.0837829330583038,8.406540145591347,0.06596004113753895,-0.022963753692439255,-1.5819404891139663,-0.020288653240580455,-0.012141989578555466,0.2885934531666599,2011-09-26 14:38:29.779551704,5.787446224
48.94076050033366,8.402138931545903,110.1644788993612,0.06686718257794848,0.026532230027017878,1.9215059883145875,4.665220991562849,4.647219612598437,8.201258146615224,-0.0866155902006227,-1.1365884785181568,0.1631848323414608,11.196789841315384,9.43030871444199,0.3925109259238967,-1.4786180209157953,10.437236662594271,-0.024019753242190196,-0.06993412241031265,0.37537165561496366,-0.0034028445106240434,0.03570706574817433,0.47679860710625205,2011-09-26 14:38:29.879473317,5.887367837
48.93894502119744,8.41360319421587,156.08166275702226,0.17678093741962927,-0.06328802566427284,3.4234978137214873,6.143955954119342,2.098806748995161,4.513541916038174,0.23516499611507208,-0.7009174700922245,-12.840945077312607,-3.717428386075109,12.98597447503792,0.019418074390563138,-3.173406287112986,9.887662492635032,-0.7065828334525494,0.13330823467509795,0.5051573461665686,0.04239082480620174,-0.06307656082657039,-0.03392557377887223,2011-09-26 14:38:29.989375775,5.997270295
48.96823049108979,8.416205319839282,152.1539851798046,-0.010517526285075629,0.08984267886708358,2.2191271434017716,11.313860065874886,0.5237028254249871,0.48010206619538387,-0.036180892302838774,-1.92406506396952,-0.5180494610371689,-6.09485634330426,9.967405943229808,-0.8558428671591511,-0.09161122785120637,10.96130870993587,0.020703570269992738,0.004955440530938647,-0.34521112707018087,-0.03741027990941557,-0.03996850405742381,0.12007780922553446,2011-09-26 14:38:30.089573132,6.097467652
48.944899394845415,8.414305952182326,105.06602055933465,-0.01420873781239618,-0.25784288397705113,1.2537817407835474,2.6720206363612755,0.023237963385508653,-0.9767958010884445,0.417106878732809,-0.07063751252475331,-1.0610934109689527,-1.9893715230066151,8.332938106945548,0.8853639932211913,-0.40669817582072354,8.815465870681065,-0.008028594168458733,-0.24263513877331797,0.1007522054647636,0.0312116860020235,0.01892167211251293,-0.6886578087369128,2011-09-26 14:38:30.199274800,6.207169320
48.94135189252215,8.425160050924854,151.61385902724527,-0.01528986066798263,0.19003924175826678,1.2495271292544516,6.716677595013043,9.909589119140184,0.06739507635204234,0.03315562910518526,-5.004200931530522,-5.564147391862466,-3.5750816102350726,9.085670566529298,-11.429306067181702,-1.097653884076149,9.06598121464794,0.03025455252692147,0.06855291233895432,0.03256559337300426,0.2999104217858656,-0.0940118548259889,2.6534586626425556,2011-09-26 14:38:30.299246421,6.307140941
48.94406705599928,8.412281475292083,85.57145894122323,0.10203801771688667,0.15085359155903333,5.269834039796016,2.868580247843524,1.8346035984350144,2.1493019078968922,-0.3741801113259835,0.7942816550078824,2.3306482237283364,3.547191119159048,10.986020984064927,0.020788888342689105,0.597322502240422,10.319237609264189,-0.03516979077387862,0.0480113155934663,0.7480431991365747,0.18467129951819722,0.0005560251019194528,0.217473091947199,2011-09-26 14:38:30.399221167,6.407115687
48.95411974396965,8.412125898950888,89.97466726855262,0.11111610618254794,-1.1593608474518062,-1.140966654892288,9.763779913423303,8.792919335097672,4.159051844418601,0.047622782945886566,-7.641443505791555,0.8047969827106612,-3.6014181660639712,10.183909828534636,0.5291846792178456,-1.225665317367847,10.717322809408774,0.04286988843119091,0.024120339520894103,-0.1910874043999837,0.02954396336835973,0.005210929557220403,0.679751451271972,2011-09-26 14:38:30.499179384,6.507073904
48.944897842939206,8.419106104284324,72.14233571752811,-0.12761519137988195,-0.2235802043233352,0.39262026195031985,10.72933853043757,2.781590640347618,8.172592877967121,-0.15364661437649144,-0.12931237001581314,0.6696674358340218,-1.3017685555648826,10.10945867853727,13.070090896195364,-3.2955647484677306,9.423065056692963,-0.008808652141722538,0.05387499213442562,-0.5447220026239992,0.018742024436482436,-0.011179159040568936,-0.14318370993621635,2011-09-26 14:38:30.609138237,6.617032757
48.95269522121557,8.4303338393591,119.1495775411231,0.05445418926116779,0.11688372289792608,14.420719836740847,35.57438096972463,-2.8271637135192256,-16.57384943481628,-0.051593961702638476,-0.7847491283185898,4.134682426803693,3.4539617130676534,9.7842725856957,0.2185520271132635,3.0140586165317895,9.667497884710047,-0.03597163681697166,-0.013375165766272422,-0.6474330434513057,-0.16360746435948442,0.06848320603588152,0.24385755565333161,2011-09-26 14:38:30.709090732,6.716985252
48.937120016503386,8.389724731670587,182.01282854379795,-0.005843006903964605,0.022503032822929713,0.7983915404682538,7.855111050061046,8.436805017679875,54.74056244725311,0.0018461673916035162,-1.9401922194942152,-1.433700224271714,3.3376259935193233,9.635738245307321,-1.1020395708505797,-4.2573611266542715,10.345763968237684,0.007485365884501055,0.0711466881816593,0.4866402190383982,0.09053849378362747,-0.010506440094458754,1.4233794873583383,2011-09-26 14:38:30.809009515,6.816904035
48.94533153730691,8.412305643532985,127.15815867517705,-0.052016561215186996,0.14499772431303595,0.8306591066234925,-2.221269094443845,10.447602749687867,14.505674574468895,-0.15567682642346306,0.5569234400488072,1.6109544870302615,-0.014644892456625154,19.87843881997054,-4.980775462353959,-1.6269894548676742,8.53655719790967,0.05144738480085832,0.13715339659004303,0.8994926342608528,-0.015617922806582241,-0.11685019397193401,0.16543155316016728,2011-09-26 14:38:30.918940076,6.926834596
48.9432527797524,8.41588026928423,125.0870107683825,0.25500089848846136,0.4649001496534001,0.5458869803632331,10.828306376907939,-69.40400269653026,1.778986909938662,-0.14144862208117479,1.4321477323887228,27.102979625408032,5.214934534625294,8.708456004622727,1.6892003998139353,1.0735893110657897,10.090798080235112,-0.07082755035815824,-0.02458290670824234,1.051524333444977,0.019681198456479275,0.3192521357314579,0.1398207659708856,2011-09-26 14:38:31.018951148,7.026845668
48.943191158078236,8.409610970298528,163.85020199613678,-0.029515585754936468,-0.22098686820438973,-9.404733161965618,5.392245216620787,39.00937532590055,26.028484344852227,0.022660487699666415,-0.7418494728660475,-1.3333649022281764,-1.378160083807596,9.43610683459376,1.9491307863886167,13.98119143784899,8.463603077089395,-0.2197472568523,0.062259222090950084,1.6008345659163514,-0.03970436920295369,0.004600301684054339,-0.1186023486580845,2011-09-26 14:38:31.118910611,7.126805131
48.94130369413466,8.411935904896731,153.01476298523065,0.11764005418020068,-0.2738858212985398,0.14023568184144197,-8.30660873974117,6.389683392190843,12.129313927579371,-0.08390447426281376,0.9119993610597955,0.2577533992237162,-0.10010647746113596,9.619985462154384,-0.8858794964964349,1.2046445784523594,8.281185680934147,-0.053322793324745446,-0.6738547799921025,-0.2500959761273131,-0.030171858496395424,-0.14182425977588992,-0.4475050046313285,2011-09-26 14:38:31.228948371,7.236842891
48.94727499017726,8.419722254856636,-72.18496699518434,-0.06899381874620564,-0.11463738266709496,3.1436118958460337,8.934799208268302,7.833984165899278,-53.65131467665255,-0.06312526300104876,0.031683202268312394,4.919893712061235,-1.8218601548846183,8.811247279683027,0.07987433209266759,0.47184403997015334,10.718971812110347,-0.5963934781441018,0.07707083347942549,-0.2637594585982237,-0.4212302260656592,0.04824999725537715,-0.25757920027458664,2011-09-26 14:38:31.328790454,7.336684974
48.94683781856089,8.41970095521953,121.66615413585019,-0.07745780858287399,-0.3642514323578255,1.4367648019275503,20.84978416208493,-11.973442110850554,2.209760926461972,-0.8877938632809839,-0.5454430103543081,6.5890236827866975,-2.1533785619845722,8.29995546096762,-0.8642458509449236,-2.032599990243898,8.101525301078793,0.03429660762021642,0.11539507351420727,3.5521304073098072,-0.045366526838877895,-0.015570853403565475,0.12582764198713692,2011-09-26 14:38:31.438754017,7.446648537
48.94344668761696,8.42034447913201,134.46215879185868,-0.13219608932259258,-0.08157480193583706,0.3155841120673155,11.16774542357831,-12.808524586746755,15.355108095978064,-0.022599964160882353,-0.09426540870744143,2.4537887394139863,7.368042685449235,9.126398897662217,0.9732611977258989,0.05959896826382893,10.058753966169403,-0.09269745764249532,0.05987128123194058,0.08237914189364096,-0.041994827401781024,0.06967812363385217,0.051196706443184255,2011-09-26 14:38:31.538866652,7.546761172
48.944504599544466,8.412894399828222,170.36302664891343,-0.06807533757586952,0.14750846942238094,2.113660904799933,-25.580295651880128,-21.523117209802823,2.8286129856484936,-0.7095725449839615,-1.4364929788469916,0.6644649096224171,1.0134254964912577,9.495733578323385,3.2595286614810384,-0.6099209367020572,9.50758052419529,0.011017403591970872,-0.00028489846260593274,-0.645484993715708,0.013697591824758326,0.09655979669796382,0.2027396939523468,2011-09-26 14:38:31.638616975,7.646511495
48.95960121044389,8.392154976387765,127.63202156342749,0.5653843664889148,0.11373775540318398,8.177074568568766,10.10312296533902,-21.523134361875602,1.6443749412527486,-0.011911880439523341,-0.6458643822505017,3.9254684777544138,-1.004581658310544,9.678718617885078,4.506726027159427,-1.0395525958908005,10.87033752965122,0.07014736971668427,0.018477985904600862,0.20406609707144,0.008268857758827783,0.07606881086354399,-0.3492437083300714,2011-09-26 14:38:31.748588728,7.756483248
48.922476439993005,8.415026246590498,138.44811805140984,0.0210691737971535,0.06682580421330131,-1.8951074719721999,1.1520383151935292,12.053720980301286,5.811409828179126,-0.049161746133017124,-1.1141051402390323,-5.292083765367503,-0.0433397914767682,17.60081168804731,0.007848250138634993,6.03567051631808,9.773855467392936,-0.0060254004414001345,-0.0550261385128112,0.2218308805977292,-0.06539922433560443,0.004535870202377695,0.3127293385190533,2011-09-26 14:38:31.848554866,7.856449386
48.94294747480549,8.411802340487712,166.74664848141958,0.13649045503609172,0.6074124170508087,1.0091554263590028,4.205645119082589,2.4530670313047507,18.422833429699196,-0.07681776209799986,0.9361402717720262,-6.131625355008189,-2.5407631046108037,10.188697005113479,-2.8978503139574316,-1.175400303519842,8.807300544550246,-0.04685857836387981,-0.08153924237841928,0.4680301717261277,-0.03806836336119856,-0.07465744009392118,-0.12475717377738658,2011-09-26 14:38:31.948475630,7.956370150
48.94468287469597,8.411432024213244,202.06539065830054,0.032676650659630144,0.016456249650096882,-1.1142326688446769,3.971619310701279,12.243906946163758,8.501452838666347,-0.12266500075612981,-1.1589493740503036,-6.4675112813759235,1.6756187962140474,10.98581698161296,1.6449667124595841,-1.1359886173525093,10.46237179940897,0.014695087579669764,-0.01472772034154132,0.23905447737575544,-0.03568001667804852,-0.06357753285848587,-0.45566827029027945,2011-09-26 14:38:32.058706929,8.066601449
48.94388207143244,8.418183582173896,134.18645944880217,-0.09917783238713022,0.124662452606483,1.9793782884515039,6.791013596074276,11.998263691659794,13.245953998030316,-0.4428759532234768,0.14129864841190204,5.024785586200054,0.4046464492411079,5.213855695791543,2.3130986167240746,1.5847056737348615,10.397420557757288,0.10429599944042223,-0.07391954293504449,0.07074757581554773,-0.39367054635302434,0.7513680582075971,-0.20124989384871117,2011-09-26 14:38:32.158355895,8.166250415
48.94113431405495,8.413652785340766,138.53871567399275,-0.1636010375882491,-0.13399050241659122,-0.7249082305765571,7.550453211940903,8.805353227858609,1.1746628885543373,-0.06770852317258244,-1.3049731472840396,3.47491715169754,-2.007826236427117,10.85545514131015,2.3458580649717122,0.18643979368902214,6.821206507886529,-0.21380891852346476,0.13300203879870037,0.2325962619735037,-0.07053855334624899,0.05468049431499053,-1.150302228388933,2011-09-26 14:38:32.258382827,8.266277347
48.94196547220761,8.361080010818975,200.90843424844732,0.1686777511814831,-0.08253496881032574,-7.945943923920906,4.457819756309092,16.68166922306975,6.1166550392488634,-0.03456387827141744,-1.0767654023239697,4.0857015187229395,2.7695657893823014,8.854077796243885,0.7811043751141262,7.346765472857251,11.067918915747843,-0.03491075499646155,0.2152613393097564,-0.8504531787728262,-0.09643012710496161,0.019709901927185518,0.18069845361393277,2011-09-26 14:38:32.368317739,8.376212259
48.94531379098057,8.413828663184319,157.39510757934534,-0.049774761342450784,0.07660414848568682,2.2660899855575867,-4.78731155529363,-11.49053137686333,12.010522551017521,-0.08723350514755515,11.44137083139137,1.2063198840675233,-0.30459961392677287,8.017395790901624,-0.855026101189579,-3.869719567217079,8.809028400087618,0.03853883412379666,0.17459890778043927,0.6402963141136886,0.12348883390270007,0.007711114797663265,-0.10027856878334956,2011-09-26 14:38:32.468279711,8.476174231
48.94243940460068,8.414075254976096,138.21324058190163,0.017577727502973435,-0.30219528506882976,-1.5977542307854098,22.941890877160898,13.063234501975883,5.798969425153917,0.05428831381733645,2.3673551809550215,0.9885656148678073,-1.3782055472071661,9.368253382940368,2.09928278263095,1.3090974629458003,9.975868548823483,0.04979728179939215,0.04390001238457825,-0.46557327154574396,0.0881101651902198,0.068312363475909,0.3010232090206186,2011-09-26 14:38:32.568336576,8.576231096
48.94294845648209,8.41536534204741,134.88533511726982,-0.05312035931416137,0.16553281875937692,5.315905119115864,18.65925754886774,13.033608692000087,0.7842424628493418,1.7867568867916688,-1.3175511773381987,-1.5972298381537322,-4.881122405192435,9.892771049433748,3.877965501695475,-0.4882694116789217,10.018922181156313,-0.12345900325141178,0.026618792301703425,-0.4416758342938428,0.576447972772799,-0.009356072216140987,-0.03279522781210286,2011-09-26 14:38:32.678176411,8.686070931
48.9399439026327,8.409228048228483,194.0203340532063,0.015933465226250127,0.1595687261589407,0.9668970776775722,8.976266131228886,15.248672610438717,10.801518120046556,-0.016411312281893235,-0.3727696923081123,0.7887991658723926,-9.995391304513227,13.562004771397797,-1.1772363291277657,0.034341028552130295,11.812852274444888,0.01086088926845961,-0.045053058839178935,0.3313706304293262,0.1283536197811422,0.48153562420136387,1.3788948980866624,2011-09-26 14:38:32.778165415,8.786059935
48.94338041322057,8.414748404224731,186.34283986919013,-0.386099220863093,0.19831591516032904,2.070488531209892,13.19765057736429,4.418992803691368,3.4424124481219183,1.9636599825624035,10.897305007469877,4.156544081618386,-1.2577016526766769,13.26304385550508,2.168602877413732,0.5922052625885519,8.215757226470748,-0.11892090905572818,0.007330507550457277,-0.499190057601158,0.5960194851046631,-0.03640412787839556,0.5746497542669735,2011-09-26 14:38:32.888073932,8.895968452
48.94322994547412,8.415360403920126,111.60585144962143,0.025402372568231843,-0.510625119250803,1.5638308195420874,8.692429487668582,7.913981283543742,0.40450486507389627,-0.03355402794333619,-0.6409287074685716,2.9614606447051766,-1.6687767543625123,10.643656614854677,-0.22722120459091721,8.371240873403263,10.3708931238272,-0.006066138287834759,0.04952074386891695,0.22118727446399544,-0.0897496605817757,-0.12208223988956028,-0.3145572345093323,2011-09-26 14:38:32.988025239,8.995919759
48.942491867047444,8.415394409811126,149.21123075984707,-0.01195678318895771,-0.09382853442638975,2.326666636015068,3.566097268025049,2.826588492390771,2.7173034728291157,0.3348186218275915,2.476026638292253,2.5182016185177782,12.457024513219666,9.96001563616164,-2.626685211921587,1.5486283058131363,9.714632377260147,-0.0823317907535456,-0.08225881557840031,-0.027920119011065773,0.44496449262591625,-0.0059447691330869745,-0.40316480833648516,2011-09-26 14:38:33.088041705,9.095936225
48.9554603665161,8.418807377448418,138.64614991477487,0.06895876846224835,-0.06884739120928064,0.29445138440198726,13.540443205413812,9.125265395088885,-27.444031944283843,0.23257267229986556,-0.4650506112635848,-1.3348386918940294,4.704114413754709,9.527693920144364,-14.08323708412351,-0.7437786393695427,15.14735682060163,-0.049808892201997135,0.04601076825425948,0.11613294617116399,-0.0199379578044626,-0.019280595781247765,1.122359976028339,2011-09-26 14:38:33.197878270,9.205772790
48.94025647329888,8.420149572789956,128.50769185132907,0.15866307443463118,0.0691740195766514,4.855642203416617,7.9491623617018154,59.394815151408174,-2.852831943826292,-0.9691502218684407,1.3705696312124023,-1.6945088618981958,2.245009567253132,9.123171781061693,0.05132677867564267,1.728437732334857,9.689894006611318,0.042992763599126335,-0.054256147425922455,0.23129784016162053,0.08247713942914268,0.15873818880649543,-0.02690960642116471,2011-09-26 14:38:33.297853356,9.305747876
48.943518954301815,8.41442760633157,105.19262464777842,0.16393628507649344,0.2794242132132929,-0.6955405367807916,6.911386070723278,45.82309522482066,14.062614823757352,0.10145246226848859,0.33846310038990685,0.8351105202281708,1.1838762485172347,9.817914740782632,1.341027703814244,2.3670711200656225,13.08104089191951,-0.1729064759464196,-0.1326106059203981,0.6420524741461244,0.007177605154122149,0.015450613007069906,-0.3595234755629618,2011-09-26 14:38:33.397890691,9.405785211
48.94327615055327,8.414823600931081,165.8113788521222,0.029115593312225605,-0.23310348275459164,0.8803510752925009,12.73418769266794,6.518821980040595,11.227665822693364,0.04388263955523079,-0.9439366803407933,0.9463469829064719,0.4067056836866387,13.775996734326247,-0.7855346922479243,-0.29049316199876773,8.936968494262036,-0.019982191873097927,-0.43265511588146965,-1.325483402025049,0.17326050336622395,0.28184400405917354,0.7979137828257129,2011-09-26 14:38:33.507812576,9.515707096
48.9417018032463,8.418036107832133,114.58128581560601,-0.12719178452214314,0.031349285040487486,-0.3893241071930543,7.792341956821223,7.492883829958749,3.7246543333353825,0.11076181883775618,-0.3121894493832784,1.7409259113312647,-0.6624897610460501,8.318017807985205,-0.89075583340295,1.4868295030838197,10.253431707560937,-0.0659878048421789,-0.056197429162942986,-0.4935020724096229,-0.08375034639804083,0.15956978460367485,-0.3231083611478147,2011-09-26 14:38:33.607793339,9.615687859
48.94350761745807,8.413420563647174,198.18547755632767,0.10512419814869431,-0.2519377509521418,0.4231233125107129,10.384115532378894,-1.9291216994153242,-3.9990883286951195,-0.20213056031820725,-0.2546799791610592,-1.7655197824737865,2.5501927626118173,11.905010922996686,3.7186114451237917,-0.0012531604962998655,10.928216671310278,-0.06199518506548267,0.12112317514683558,0.08390963396081379,-0.10929195971564917,-0.3361379151022648,0.42312728918012116,2011-09-26 14:38:33.707691277,9.715585797
48.943196425169795,8.419072159952522,166.59185703283097,-0.10344912851852164,-0.3358430190482702,1.7347574203018548,14.360849183216303,-1.7236820235645691,17.009154526630844,-0.08985272445787132,-0.9047983725829581,3.0900727260021594,-1.4075064998699724,18.09129500310663,1.2044505973846509,-1.1078030984484808,5.200997688693582,0.012764584262979876,0.10616838252319893,0.573946382597438,-0.017516026754741666,-0.08348694044339951,0.4225185637315861,2011-09-26 14:38:33.817659248,9.825553768
48.942070403783276,8.420005955828968,193.14806758602697,0.18925812919093277,0.005260634916926717,2.7931291409552843,6.726268681810805,-37.76097846075556,15.796745556756967,-0.1373990035470361,-0.812507894457622,-1.8832790950787521,0.7956995591567271,9.663557063103516,1.200534350881018,0.196280073215797,9.263479126684244,-0.03065541609131369,-0.0821804416964725,-0.43664332085245416,-0.027389289828454098,0.03169356746649296,-0.9197118707423407,2011-09-26 14:38:33.917595196,9.925489716
48.94377285270782,8.411298894698069,87.65715024913365,-0.4322088506971892,-0.20135855263644706,1.0552393338986494,1.0642486347342546,-3.9011974675827377,0.024933212393124293,-0.04888217986684003,0.040565150095815676,1.2460266868920173,-0.5245239973341385,10.075487065502488,2.642628518526077,3.9176244906912445,10.160764897872914,-0.03236414585330889,-0.010655307830538299,-0.4082768167072399,-0.02899192611106949,0.004146301865845178,1.4001292247514183,2011-09-26 14:38:34.017577183,10.025471703
48.94236123762056,8.41431430748302,97.59038432788465,0.08949447577176572,-0.17694017434324488,1.7021123803804374,9.398455952668833,11.292660738376828,-9.398212908246858,-0.10450690351115621,-0.10211348044035984,-0.6291283766403025,-0.32637937062230643,11.161943666498727,-5.849158131434833,2.970249343584535,10.43334986141121,0.4030711484127063,-0.023664273769266282,-0.3023944611850492,-0.027802784704910856,-0.12117641862213938,0.594002347963825,2011-09-26 14:38:34.127676609,10.135571129
48.946335541803286,8.404269233093467,143.00899743068715,-0.14224488286129827,-0.03445556560298643,3.9380189541075303,5.053166077206611,-1.4495165288284229,28.025395035301987,-0.17278737339188055,1.1208038027155265,2.5153596588797513,-0.3610098880444045,15.506299578751792,-1.7854050953556653,4.662959000637482,10.523987287468715,0.03150515139691065,-0.28122382189235234,0.3765784492981763,-0.03327536967155427,-0.11081505696465144,-1.1490616230224107,2011-09-26 14:38:34.227495394,10.235389914
48.93624157246324,8.410243660817848,151.49475405141325,0.06204665286058959,1.0320616147849648,1.2885383085666535,3.6208687551694507,8.646319039648379,3.6149046006875336,-0.06976385656271517,1.3605582104712852,12.420839968692514,0.6432818761478509,9.359243029532847,-2.591569662967979,-1.9300869001182124,9.86558254555074,0.21137395122364208,0.45278714243394536,1.4093106082897153,0.021796445769269826,0.07690408455678231,2.185367040368492,2011-09-26 14:38:34.327492473,10.335386993
48.94364697013231,8.412606649097844,203.11616135285948,0.106141734012657,0.16919810027816168,-2.6777109205662404,11.979183048946561,6.223353512386982,10.041842824528397,-0.21481166186869682,-7.0289602434912535,-1.7960494120291337,3.7920828341026787,11.629844825640802,-2.7641630709032277,3.055796493127703,10.646048589877582,0.11947265962885134,0.0338699669469279,-1.9588622846783874,0.12581552169095775,0.016881319153805783,-0.5681546375259284,2011-09-26 14:38:34.437375250,10.445269770
48.94230067666001,8.418823549977184,-14.410075901771108,0.02890381391339468,-0.1262062127159891,0.7792317106808551,2.067067233892078,2.608975489225234,4.697113231158605,-0.0007740189041768458,1.1654101188039796,1.6509651516911104,-3.055266973368596,8.341947949439698,-2.440300451615911,0.8457421038550113,10.566624077700558,-0.01300364767874147,0.05067284864725362,-0.6059972739527146,-0.19215966844263502,-0.010290179426020472,0.1652084929349036,2011-09-26 14:38:34.537499707,10.545394227
48.94368887536933,8.422844814871878,117.77384819061325,-0.08189851186997257,0.9925382892701046,0.053634626529025065,10.532111286063625,3.9904613334994874,20.977318111973567,-0.023096525803793413,0.5900688231197652,-0.4542275634662231,-7.55244837142865,8.677961053313178,1.7094885435322622,-1.1582831410002798,7.924182008616901,-0.08021136763610762,-0.1522728119372809,0.19013236908765432,0.011633328156307746,0.003768318227870847,0.3622133163517558,2011-09-26 14:38:34.637300665,10.645195185
48.943411178594985,8.409967488437022,148.07605066462204,-0.14054714785929845,-0.005399637450128529,1.140784117124522,39.87672448056644,10.958724247679104,-21.87583498149015,-0.06563842218976151,0.3509737829280273,-1.7595169550962069,-3.0229710720867153,12.210659629485466,2.028440472959808,3.085015118804257,10.642530154474086,0.507696295148921,-0.0606284979788229,-0.3442393266606012,0.3930018477524377,0.022627446026000846,4.09507408212688,2011-09-26 14:38:34.747230672,10.755125192
48.94396583479604,8.414976270544956,327.0819931124873,-0.35247742144606686,0.03724386730271667,-8.062310898926848,4.693253567044193,9.263641431320728,6.362104853141425,-0.37870684171863067,1.1249105944442397,-1.5016435773173764,0.07163777000451688,10.8783106064363,1.9925729832305819,-3.116428291803001,10.436120764111811,-0.11055548490479732,0.016839688466804396,0.6351904985488314,0.06485769493861546,-0.0240738064872019,0.040421300866945495,2011-09-26 14:38:34.847158090,10.855052610
48.9427938871359,8.407645505320593,150.0226994127473,-0.01034786981411745,-0.30605242904353025,3.1692022898003414,-2.0483432418372587,-4.408056922651764,3.0584544656584365,-0.3415490447961504,1.2935472465218942,5.7311450084263145,-2.6849968907688977,10.079249545779817,-0.3834684906459226,-4.447893268454004,8.83036396743508,0.03020786039172233,0.047367078911522566,-0.08225549464312332,0.13927379776026697,-0.0353045149099338,0.0013761615052471227,2011-09-26 14:38:34.957158506,10.965053026
48.95172879595453,8.42187806692194,134.58213075937857,0.42559204003372525,0.2872402933810614,2.122184745208757,5.9175546092495015,8.249716202668118,6.389494389934674,0.3029685337935167,-10.795549621135724,1.3601919157781013,0.7420488756973811,10.276851690506364,2.611921772439525,2.4694265110159277,3.6894470258100416,-0.006086695043072143,0.1315458573353591,0.11236647111906109,0.10150835504599752,-0.08164836626460234,0.020602403514423828,2011-09-26 14:38:35.057299325,11.065193845
48.944760053277314,8.417081267344996,154.18589520239394,0.488751826451079,-0.19933105875955487,-0.9165439496351065,19.861555418396364,-7.6355455433396076,3.984121820920155,0.18359789851418706,0.5651862038442651,-0.3084698061592845,0.985577450614679,9.446530441689287,0.10101434583641866,0.11006523592224882,9.773530169395295,0.07465160029969177,0.014130224074140609,0.3417723174791014,0.0325109222562721,0.9290732642533416,-0.22394189520334407,2011-09-26 14:38:35.157084372,11.164978892
48.94086247510354,8.415541038078079,140.4537867078603,-0.012684045365260119,-0.0014680371646706141,2.259269079634992,-1.1213997753617546,-5.0468136991787285,0.651037222570058,-0.04614126396822612,-1.5185556175646482,-3.194217073095317,3.502776601712593,10.267820046707714,1.925925273063201,2.276881458401959,10.452407899631167,-0.017433953603472944,0.06194199607166441,0.06591026042767215,0.05069692909603013,-0.07012089412444794,0.3899066008782618,2011-09-26 14:38:35.266984222,11.274878742
48.94003033654595,8.419047404235188,94.42754969098377,-0.07016189073432243,0.040906991342257164,-1.1717373534133064,11.479661939759623,3.7541734414064734,10.390868897615732,-0.019580797092765084,0.3010730231163645,2.790869944453381,3.4721925873540664,10.099819944905182,-1.7780594501165758,-2.3279715094877873,14.9696748694343,-0.016331991445234305,-0.04215872344370533,-0.27668171237325,-0.07910166254649263,0.3340277946940808,0.37193944139054974,2011-09-26 14:38:35.366948011,11.374842531
48.95290462956949,8.418297428618969,160.46695525651486,-0.025621218011582833,0.14454880765493464,1.2047515025650886,11.675183373549363,-1.717485801220679,15.045581699880179,0.09345710994015494,-3.1311443757209396,-1.0896411447242695,0.5104449426540565,9.119339504146378,-0.9561172946119512,6.60514842861098,17.842692929219176,-0.041202212628494585,-0.005794387231345032,0.2908921792104868,-0.12891780092201138,0.11512601592147843,0.2944826820288221,2011-09-26 14:38:35.466896786,11.474791306
48.94344363711404,8.419200613380559,281.6090837919695,-0.10317003972110063,0.3122772321972309,3.2500242225324665,9.354327663002563,6.373418997275531,12.940383185434968,-0.0734784635118116,-1.3914873289272263,-2.201953803410298,-2.649965337063608,9.491412658800794,-1.5474645718781355,-0.10385964641903928,22.5454011447556,-0.03640661224900201,-0.029890754824439533,-0.006642773161552873,-0.0863477589673473,0.035062790490129926,-0.26694671528535685,2011-09-26 14:38:35.577063641,11.584958161
48.943202335228435,8.411058997031773,157.71790483253486,0.05946940688194417,-0.0173796396781121,-0.645654791955745,9.422977078532163,-7.033646257166013,15.882812487445193,-0.10239586662825277,-5.508459946868505,-1.072038281461004,-3.090910456214263,9.278563019379275,1.6936838050199288,-3.945607477239665,10.81036437410232,0.04341380635366915,0.012227421169357183,-0.08764579331482102,0.46587274896763287,-0.22677383830443826,1.2983366988136331,2011-09-26 14:38:35.676791132,11.684685652
48.944116915778366,8.415795223295204,143.5651745105424,-0.5218094775476084,0.0061207821498437355,-0.901679651433412,8.693385903272777,7.9176138019473274,8.705666843490445,0.1099343155292394,-1.1243005238322885,11.637374552968195,-0.7215632515270881,9.112336862354216,-2.7924185638155627,-0.5003465912467452,9.912047168585428,0.12835841046242352,-0.026499369048978573,0.5769386159459577,-0.0004624950952428651,-0.02531715488994541,-0.3205307769763329,2011-09-26 14:38:35.776804943,11.784699463
48.94535380228155,8.408419974497603,170.60990686747473,-0.7920916556051695,-0.10035526169931121,0.3680755467134511,0.5050956382701735,22.977089712499676,9.92395865154151,-0.047018648539628755,-1.174951782334453,-18.531641181517834,4.029581473660963,8.805913668501885,-21.03450599631196,-1.1820549829658298,10.005164341605596,-0.06997591164559838,0.0858421219990712,-0.14147511018000247,-0.02557617331792522,-0.04538208249684435,-1.7686508967405308,2011-09-26 14:38:35.886660829,11.894555349
48.94192856466946,8.418851744591484,178.73630045494323,-0.6814080555413707,-0.0812856743404679,3.2889898650354303,5.4866726117652025,13.02405492118,9.808234551657474,-0.8596368347716329,-0.5621657155385631,-1.7816525833410708,-2.640134959918517,9.428633626215834,4.374482828507722,5.987344139986582,10.397781079943035,-0.05475781803654982,0.055204464146729776,0.20903115142148693,0.11985102625056832,-0.060641942438804754,0.24200209071246057,2011-09-26 14:38:35.986619463,11.994513983
48.94131213658577,8.41330787628364,141.72123717730844,0.3725900678253739,0.25788672414212443,1.4296872579977997,2.3459028645367104,6.58808653725517,34.321634576726396,0.07110665527557768,0.9243666062687873,7.304332853764041,0.2133770506574464,9.172891806702115,0.5335676015476041,0.7319360166760713,8.117392490430962,-0.004527528491671748,-0.10971824996898208,-0.15361277061337378,-0.0621509038762435,0.07145348419674231,0.46414708309728425,2011-09-26 14:38:36.086677362,12.094571882
48.94422402409718,8.419087475366625,95.28210465924064,-0.10910081466369209,0.33891858210181514,-0.03176011534689904,10.618349346603747,-38.59242819775171,7.484169831249154,-0.06408174350081802,0.5122855829675346,3.4861703311438523,-3.3157078507913584,10.00454147883662,1.1774444415318674,0.5734213093965395,10.458117428595495,0.2313592225361958,-0.0046917351374223155,-0.15242051210120328,0.06466955896853653,-0.08028128328256125,0.6683811740192578,2011-09-26 14:38:36.196507219,12.204401739
48.94185425399894,8.420464079174943,174.8391494959585,0.03305465245983369,-0.234078825345121,1.263294099655714,7.100283777205466,58.94011603846859,6.766761933972659,0.18392453029069478,7.735066024688164,3.9254084345595044,0.6762028865308086,10.380808815660846,1.5175556064619486,9.75383308283056,9.985367069991646,-0.02789964432299292,0.15155067739825398,0.43163374173884855,-0.02245668257486062,-0.11145850174247571,-0.2227546201052596,2011-09-26 14:38:36.296469181,12.304363701
48.943423273987925,8.413457104372974,189.9685587495401,0.11511770099038504,-0.07273034011064233,0.43063088790075316,-0.018318856337677047,-86.816449197838,36.847814916073006,0.34184565609646106,1.2679059408425306,-10.876695199961748,12.999646491874477,11.09683738141027,2.3570349415531147,-2.204264501379851,9.07583083704898,0.014653803941577071,-0.05034708696011164,0.03032366986076565,-0.11476912031843083,0.018256681810152192,0.7570234888545999,2011-09-26 14:38:36.396474684,12.404369204
48.94324066789543,8.41403081106501,136.49273853633292,-0.3593597196098097,-0.08089577500865582,6.311321299067483,3.8086949561435826,-58.89341814630119,7.366705534311434,-0.1940542420910642,-0.28212416497325177,-1.6776550196793634,-1.0562655026773822,9.390239639728296,2.0313733510910055,-0.6975212744482725,7.9121124135922285,0.3845837516800227,-0.008384484514288464,-0.5802970607890005,0.011104005250739677,-0.015027141013215763,-2.7070039377891546,2011-09-26 14:38:36.506374887,12.514269407
