lat,lon,alt,roll,pitch,yaw,vn,ve,vf,vl,vu,ax,ay,az,af,al,au,wx,wy,wz,wf,wl,wu,timestamp,rel_time
49.012877894419894,8.436601481354383,115.78949116134143,-0.03298410413237721,0.02004177036840114,1.4655421258928287,1.8896568815200103,-13.73516842543404,12.501057756202176,-0.03654234623848385,-0.053899677701986795,-1.7312357249308428,-1.855686342866821,9.976678779548154,-1.5394713307819174,-2.5491580610377333,11.056197133463755,0.15005439365223935,0.031596466815475635,0.34117550966447313,0.026071597872792698,0.09436532569883656,-0.4669835906769392,2011-09-26 13:11:15.406628381,0.000000000
49.0158172944799,8.43458563831042,116.29177985912469,0.028246545400486777,0.019912326713237262,1.9088099495367066,2.7059714161172748,-6.589315601738248,2.62677592903435,-0.049925862864350065,-0.5915234709455898,-0.6853040243946069,-2.2187227463060855,11.373265884557414,-1.3455398107270904,-5.1491895923830375,8.532509043985078,-0.23843114550758032,0.05748833804922807,-0.2937529081177582,-0.09215007281742758,0.04945953687441797,-0.5980749723775816,2011-09-26 13:11:15.506624025,0.099995644
49.011058890353176,8.43570687379901,116.09626986451681,-0.035807734378165965,0.010527997491473238,1.1684216965617185,-23.83779618371434,-24.154305409165577,12.242063360316703,0.005109234139168417,0.12815168670140725,-3.1317154262271947,0.612127933187165,13.69455719532899,0.9536525066059602,-2.3320983758270515,9.505347037188821,-0.01505656024580991,-0.0026744410037441886,0.9429900662149523,-0.01244775911463794,0.006320553953809437,0.37788769042823195,2011-09-26 13:11:15.616597602,0.209969221
49.01459218885432,8.435160214195651,117.57097744005966,0.019920803437612836,-0.025216880419269155,1.9506726114472182,3.3324172770117793,-9.078625963597105,12.053489781908134,-0.007057153148931586,-0.0429071302459765,-1.39146419777199,4.808950977148618,8.81334554704773,-1.109781410036267,-2.920059460766722,10.21142634555195,-0.0005650504975230702,-0.009808700228901294,-0.44749242227659575,0.6284415784898431,0.07884650237849666,-0.0734793149092632,2011-09-26 13:11:15.716822294,0.310193913
49.01690332154618,8.440001703540103,109.11345120891836,0.0009788121163013565,0.021394839178482526,1.972852183270763,2.7791386497940214,-75.9448523358497,18.91067232326168,-0.6562417386295907,0.22201378868396623,-2.8045459341870274,1.0486255939869613,9.163477379605203,-2.281605836959058,3.0302618844692972,9.625758037393013,0.013091151013815732,-0.015269459291073682,0.05506275910040773,-0.09045721876835751,0.7784366928509869,-0.4197003091821063,2011-09-26 13:11:15.816616174,0.409987793
49.01807479754848,8.437152361483184,116.63157289008086,0.00302766679950108,0.03914351411612791,3.2516982556983822,4.175061200565004,-1.5507424533539589,7.236167140111705,-0.18666407250663147,-0.006388945997857973,-2.5216690924283975,-4.536845991978129,8.809751092534297,-3.4896347904149105,-1.897938542756691,7.889406629110791,-0.0057647437706327895,0.10070139956087747,-0.04229984775955756,-0.014093774255326265,-0.1033217877404077,4.578474072760955,2011-09-26 13:11:15.926630554,0.520002173
49.018052447827614,8.432272399516416,115.77521215931671,0.3738868041414236,-0.06317112318758236,1.3477122042395588,38.590344793748955,33.52467285869916,-2.65865849307896,-0.13431687590428057,0.06986533924539573,-17.32378240792034,-6.662196933525324,11.672170704224897,1.728793541892523,-3.261663618327991,10.28019425142086,0.03508364662844039,0.02003329345717781,-0.21159543505536127,0.05892456829962108,0.007034730822772599,-0.8937683863826584,2011-09-26 13:11:16.026623060,0.619994679
49.01484348721859,8.435895576436113,115.38382494100213,-0.04926852743234948,0.02145288456666797,2.737304301849903,10.324495879328524,22.029005452498645,5.28007535378012,-0.3277862984349413,-0.22169001571008884,-4.111615340307139,8.122989047346449,9.662320657994842,0.8424640126043104,2.1455306144570923,9.909795556645172,-0.057360705934955944,-0.02932566892749746,-0.5255943302159413,-0.06814872881024527,0.08895815071232051,-0.26424302878958095,2011-09-26 13:11:16.126668323,0.720039942
49.016711312654344,8.433083438730247,116.33524403280542,-0.0065538217998254295,0.041771513893979775,1.6867425113846104,2.9878201181844974,14.734527281105006,14.548136974249925,-0.11222677691784241,0.017375629967938053,1.8795493301189197,-2.6013011652432567,10.24373101930354,-3.899866007282811,-2.490572802290558,12.001363279934015,-0.02453023071258196,-0.06141669510898268,-0.13244274223521196,-0.12694873900872328,0.26617772872579537,-0.662536939703971,2011-09-26 13:11:16.236722946,0.830094565
49.01641443607901,8.431623506413318,116.45618631180925,-0.06001198266653863,0.026940236677717846,2.344656918751387,2.196347826651055,-0.9049701801222452,-7.353865595510874,-0.5571469888143582,0.11448127479045228,-14.16709591795557,-7.035891407108357,9.620509180981513,2.0824401819407496,-2.8110106661219842,13.670390191027884,0.06312752562741303,-0.026496593927836404,0.7709267487909582,0.018024609932160367,-0.05971577836321022,-0.18796481125560954,2011-09-26 13:11:16.336628571,0.930000190
49.01698658258387,8.436426761330129,115.94097064944553,-0.06408250857243865,0.010739295771094103,2.148100152321015,4.825919927802765,6.970019646855299,16.15854046766127,0.5717632885048867,0.8396614728471872,-0.3725974795222018,-0.8446962522263385,9.468737715052047,-2.936083948690719,-1.8567265562396864,8.927016779389795,0.040102123246156245,-0.09072026325491712,0.176042311530989,-0.1130402025735802,-0.11946188840600808,-1.7110005732652687,2011-09-26 13:11:16.436667179,1.030038798
49.01262552404757,8.442367085524493,117.08987131623152,-0.042252658055063876,0.012104903331887313,0.4124350316070102,5.517101513804268,-95.61754543817214,15.963032977890492,1.0483605794708453,0.13257296665634466,-0.8710694149764279,-10.261357885366493,16.59691609690751,-1.4290661519092058,-1.98020709754859,10.766227872850118,0.07555100736763913,0.008037036628256854,-0.06561948591105873,-0.12502610573116285,-0.10135330014180127,-1.54216774239813,2011-09-26 13:11:16.546650957,1.140022576
49.0166062130788,8.419794685898049,115.54541099135055,0.018474142230533314,0.00036137814437581933,2.1328331805405254,13.14183933323731,99.75495416311043,10.248485476876347,-0.15271465388476954,-0.031027862548554358,-2.4805479769921384,1.418851851012331,8.806570511463828,-0.7404356288847578,2.1535795293714655,8.748545125848501,0.014518891504511949,-0.05105773289329518,-0.5371609882503225,-0.023321252418384366,-0.03834455930483041,-1.042329553897868,2011-09-26 13:11:16.646687706,1.240059325
49.01652716505771,8.432395462490204,115.88633894211014,-0.002683517046770622,0.08679535090743348,-3.3788572821687133,13.217936631068637,-16.798671272481695,17.514577711138166,-0.1593821495388469,-0.10034999165188895,2.1812416815170454,-4.3297236810189705,15.231188259600717,-0.6046048394714574,-2.925670109548758,4.0466543819931,-0.02060186086916092,-0.021765476194681194,-0.7507646905162028,-0.024097629229941544,-0.010116592672634164,1.0029667036098315,2011-09-26 13:11:16.756693122,1.350064741
49.030901652476174,8.43804198460708,114.56701397976737,-0.0441451617929472,-0.02272755630515442,2.5317317843534703,13.408756577628164,-5.4066387745840405,-2.8057761966501564,-0.5084633225045604,-0.7670443538910038,0.30508858139971223,1.9983750268453417,10.912647419769419,6.597501995105526,-3.2204321735152623,8.320299230841469,-0.06255834453472238,-0.09545645112403617,-0.298552807922691,-0.08828635924189154,0.006642052529064163,-0.06734448663678394,2011-09-26 13:11:16.856679739,1.450051358
49.014784905120145,8.440440331796006,117.71346541381925,-0.0124954611071932,0.0029003549190121268,3.4735669647374436,-1.1246959929394302,7.796615998619737,-42.87369596353383,0.12552882857470765,0.08501673964801475,-17.161610391536353,-3.4830201207459135,9.709679731707684,-0.4086041128548555,-1.9834007569910068,9.716933688465259,-0.14351263622810398,-0.11417075812232523,1.4829479843823334,-0.015842874183708847,-0.03259696052579998,0.7544215688771445,2011-09-26 13:11:16.956699894,1.550071513
49.01699821761129,8.438598825025277,118.79703362763036,-0.03465805008781179,0.020406118253826582,1.7621923136974469,8.72617398916693,-3.3905133469666886,-24.162885589953227,-0.22734148101951113,0.1323378155133604,-1.789467210813702,-4.822347136882053,10.573682804173556,-0.49195430849607186,-2.695595345937939,9.191148348879727,0.07678106813735619,-0.10962344681341216,-2.503664490209662,0.22213971341931005,0.013743999560101111,0.19232375621665337,2011-09-26 13:11:17.066719394,1.660091013
49.014376325095405,8.432142788849571,115.01858009540213,-0.014050773228975764,-0.01600844354430527,1.0379281391170827,7.740517437191839,-0.15876094559047882,7.523811648684143,-0.10987847887607859,0.5147052902992004,-8.204673594370608,-2.323094310414831,9.84630633695986,6.4856553405438335,-1.2831555693237209,9.633686087102769,-0.10139762807509388,-0.12437491137834297,-0.14096061566463958,-0.09847808746834985,-0.043742566562124566,-0.5178938267821283,2011-09-26 13:11:17.166680706,1.760052325
49.01168054924207,8.439576886761024,115.57098064878035,-0.23667207901032064,0.02860136763432579,1.7082504150920963,-12.08970153561889,11.12253619499054,28.992848230300762,-0.2868616818905796,0.16585421931899547,-12.549597408649198,-6.526238448227874,9.418325788466985,-0.8202019083384589,-0.8972930998955582,9.893104231960018,0.25102113837348344,0.37540575158523615,-0.7416611969417988,-0.28250577472255034,0.010773077077543457,-0.37849350905688156,2011-09-26 13:11:17.266701079,1.860072698
49.018379721421056,8.437118930407012,115.93598585432213,0.2978782190546175,0.042385256357037965,1.6353136926516727,4.700273789968419,15.450364130390426,10.264749879836689,-0.31970748591952525,-1.1351190823626331,0.13351910986896465,3.7132793080668014,10.727245391073032,-1.7133034176479975,-4.9203817820828775,9.723996033854702,-0.10318542901524345,0.019799229925062927,0.17175698959100882,0.023532306791665035,0.006779921373910448,-0.21210889615493544,2011-09-26 13:11:17.376674167,1.970045786
49.01624075966358,8.429483665910118,115.21528163010235,0.038624863506149125,-0.01376855889148786,3.642746978340809,11.493407313735382,2.505839773476856,47.973391902914386,-0.09905549595346254,0.00757139359117838,0.1879983683516872,-5.019688580250628,11.207881866122339,-1.4702535139911157,7.481312803259772,9.1339731684814,0.01804525177454081,-0.034044319237765866,-0.2576506902595673,0.14060939604142417,0.0035809411472466956,0.3238734521932722,2011-09-26 13:11:17.476652265,2.070023884
49.01504351813393,8.423619193771883,114.60220019230752,0.03679918138882668,0.002789824915512148,1.5537259110707062,5.609923375878685,8.803005078597755,18.054392124061486,-0.25956650334640713,0.5306566432438166,-0.6907652020605141,-1.3490422155978448,12.286010138876705,0.10001332284833105,2.8955762464211094,10.684574254947977,-0.023477290729618284,-0.3320923264962553,-0.20039176449435905,-0.03305626533372253,-0.008234004557168552,1.8710812781219177,2011-09-26 13:11:17.586709621,2.180081240
49.01411798939242,8.438043081774087,114.38142528396929,0.040129765150580976,-0.1175343047935956,0.7297866654681261,14.76027537369201,8.897261441456656,18.030679812685197,-0.12482702420010824,-0.09644364683481832,0.863990782249079,-1.2346530135120894,10.01657080557864,0.8698917298206633,-4.698301520565051,10.734457441947152,-0.016085857888202083,-0.007155227048845098,-0.3931268397138197,0.03019337536574349,0.06750894711793638,-0.14984945035995745,2011-09-26 13:11:17.686822197,2.280193816
49.016163046330455,8.432939271934462,116.01143954656965,0.06343821551594975,-0.0020437461492775148,1.416138886017356,11.28956235108573,2.293275925970762,-16.755324085519366,-0.0018557712369959567,-0.6882211610520267,3.048096863660978,-5.654623758956926,8.93458153832212,0.8448647780164316,-8.84959075904996,10.25652903205002,-0.003152132129549949,-0.1643172307047937,-0.649989384702602,-0.05207273559010239,-0.03684153818815662,0.7119149410719413,2011-09-26 13:11:17.796722103,2.390093722
49.015132739225514,8.435618387608166,115.57248444812309,0.013030153196606968,-0.010965167721569363,2.1999495261143904,-30.4763320216835,-16.326467851718032,0.6157084999758498,-0.22726432691796516,0.7996620289570826,3.286631067943255,5.337011729919267,10.686128849413722,-28.471298082973004,-1.5326206265312612,10.266807627748124,0.3468791972562286,-0.0565102196477415,-0.14710246653819553,-0.0038983924675654036,-0.036425224421091154,-0.20595531647260842,2011-09-26 13:11:17.896691258,2.490062877
49.01807049018996,8.434454328327288,117.07318202866011,-0.1405186394669795,0.012577324358855934,2.374738048586579,0.835047447095679,-29.975967416496445,14.968635790163415,-0.273132261004088,0.461589316735476,2.752949857997658,1.6197348442456843,12.087049259934975,-2.279210173332769,-5.933905519537003,7.411476208292483,-0.22882856423735862,-0.062323973169078624,0.21974671713416505,0.03451770932434935,-0.029335948717209046,0.32805592435356845,2011-09-26 13:11:17.996732175,2.590103794
49.00408159734032,8.442030324954837,115.96423273535041,0.011933628027644146,-0.039410959020531475,1.5380157328034976,15.164225370322498,-1.074459059779141,1.3538498140446524,-0.6013472872655263,0.04987856075580775,-0.25498921061405155,-1.6600353711851643,9.159136831668517,19.118200673443248,-3.555831694622446,12.927385353110603,0.014120669934443525,0.04478898250258334,-0.7245093294545459,-0.028707068231471948,0.03726872271480066,-0.49338021329624193,2011-09-26 13:11:18.096735198,2.690106817
49.0177255396891,8.43845262465479,116.11054699986092,-0.043459663909830706,-0.02638008572713822,7.240597046779201,13.917025014364345,-7.083273579897853,-68.07209356101583,-0.07690455074831025,0.11210550805166453,-0.6389517545399409,15.254590706215367,8.24183276086216,2.612896122938716,-6.14563134273659,8.703406440971017,0.38398287929063313,-0.03869609242475129,-1.0043110642091346,-0.09559178934906004,-0.029634631776100352,-0.036908306703408,2011-09-26 13:11:18.206914919,2.800286538
49.01852663143435,8.442017463054642,116.62991253899655,-0.03318611055469706,0.0019043397522679499,1.420755848528946,11.624421919620204,5.26562190454322,-28.337182557058544,0.011448870372961134,-0.15115706814708432,0.27001628474695427,0.4263053750597252,8.679276803810993,1.7265939463292852,-0.8130837059981082,7.467905460116922,0.005572961071969536,-0.0952401152290763,-0.47613930932557913,-0.0015927402161367496,-0.004015374850547974,-0.5695992240069148,2011-09-26 13:11:18.306756521,2.900128140
49.01679690981237,8.429937043019255,116.39675017129544,0.032229548624964126,0.0017651181557912902,0.8640220284633944,9.830669824669933,16.40930615092865,8.09035033678846,-0.2118351453675976,0.05202417942581679,-1.2724791859665756,-5.216379635959246,11.126932418122946,2.316433086700814,-2.9539829960134587,12.487865683222973,-0.010937061021284066,-0.0842635837105893,-0.014393041406896179,-0.01977371660333605,-0.03935016419648732,-0.9741572801217071,2011-09-26 13:11:18.416720613,3.010092232
49.01469014189259,8.436123193059032,115.30419477442116,0.16513792939964111,0.04302559984485482,-0.9891189375835807,-1.1290786181348063,18.52794952546992,-5.616189819445531,-0.18783973978868249,-0.25269263328486957,2.0729571365200523,0.2992505081650565,8.135874481131614,-0.27282621717447986,5.5970341240866635,9.010094044657375,-0.04796479116161044,0.09104952004011571,-0.9394905461455844,-0.06227657931267897,-0.06430754050759274,-0.6666051729412958,2011-09-26 13:11:18.516713679,3.110085298
49.01623633000489,8.434600416174014,115.65414786024613,0.013889583300052645,-0.004547843548756722,-1.4209950425820423,19.464282113044185,-2.1087383372886177,-10.725381898048177,-0.1379855444120015,-0.19231571286307317,0.09712666565084571,0.3716137214767725,9.86391660412497,4.172490789314461,-1.944409492917331,9.586930157688883,0.09201693182287184,-0.0578260483049394,-0.3004775713072194,-0.1235436489060005,0.059736196826725686,-0.0998572252788183,2011-09-26 13:11:18.616715676,3.210087295
49.01468340231303,8.432176721239319,114.9861734929663,-0.02667050066935609,0.021134039127990466,1.967708328532738,14.503571851409209,2.1196576861903385,20.38617640665052,-0.12398617714336321,0.8514578264677324,1.2182269468176863,1.0152528514454864,10.677998403916183,-2.0211780086862374,-3.3531740759794006,9.551117071753662,0.05307600481675837,0.14155399962944387,-0.27761700570021197,0.04711210270102567,-0.020163197395883015,-1.794439605358247,2011-09-26 13:11:18.716856373,3.310227992
49.01708197130441,8.438981096285008,115.34106108673214,-0.008357027988278252,-0.017347305115135013,2.377443255463022,14.505722437266185,16.528551414994933,17.46544826543142,-0.2935668833356303,0.38271719408625604,-0.26489714123387365,-18.822459051260452,10.360627811170263,-1.4249329037110996,3.2316650320369757,10.213463406225893,0.02193173759029449,0.07619867026575029,-0.2700145097275438,-0.005662777412401907,-0.07856154561917199,-0.8703176939176953,2011-09-26 13:11:18.826721793,3.420093412
49.009841678035656,8.421141469253737,116.22881158422085,-0.029347622227261113,-0.022247614203647778,5.698775008945827,-20.572403195029,-20.934233275311083,14.30910226334544,-0.06211927363739857,-0.020077564663193232,0.1850188760499123,-5.355953056534927,1.9243711402922887,-0.2308443352247983,-3.6429612070355764,10.002151739463379,0.13559922319171427,-0.011395605226245806,-0.2162699188700125,0.004172481927726245,-0.6014366308252559,-1.912903822660891,2011-09-26 13:11:18.926749305,3.520120924
49.0024936006485,8.438738845865924,114.79748323982763,-0.020854522328879084,0.002674874940505359,0.9687145994912839,6.694901218724714,-8.928983917911292,30.072982479189367,-0.1135898681481339,1.05886029351822,6.940687301159787,-3.9511884794715804,8.354431716483758,1.740623928129283,-17.850072712744804,9.829475358082815,-0.02735027290519116,0.02168594379369702,-0.35220214971988845,0.050228356164822116,-0.11267050365582308,-0.5220894252203809,2011-09-26 13:11:19.036734727,3.630106346
49.0150384307825,8.432473660409086,116.61895803624286,-0.0055565969877930865,-0.007272977026922969,-0.3325966265395287,22.92310962730135,-33.68697861126818,-1.960432883278286,-0.19317174781879198,0.4195660550107589,-1.614685215525228,-2.676228257357809,10.952607761187362,-9.717873219556054,3.0217587246102524,7.840183376320418,0.030767878443922477,0.006188185589365038,-0.2114895285578193,-0.0436370808643183,-0.003293506619352255,-1.1232315375582755,2011-09-26 13:11:19.136771527,3.730143146
49.01759894012766,8.437837789103622,115.61188806710295,0.04642973581017505,-0.009073010963781481,0.019216377963181763,6.4239650415500495,18.78834484787649,7.367473601485763,0.17952314741805958,-0.020051219945668913,-7.503255125551202,-8.094534704833505,8.579975405545365,0.5834223572195992,-2.3899814068928453,10.047119793769934,0.004670936599696571,0.10127812255257827,-0.259057134743635,-0.04766951598345478,-0.04723031242766728,0.3149745094825837,2011-09-26 13:11:19.236901143,3.830272762
49.01725148003883,8.412821133224314,109.85288896278763,0.2349740668855549,-0.0020398939241209036,-5.032455374864247,3.418845247786387,4.5165056762648765,10.003015098967975,0.8731433121131899,0.08453653177498123,3.1390967826080765,-8.760146044810993,6.8210586058895695,4.162113170992139,-5.5433808194903005,10.609069510419332,-0.054248664508954804,-0.018166126986392615,-0.20958198076645326,-0.0053914710606938684,-0.02793219162673418,0.041890758625254654,2011-09-26 13:11:19.346778579,3.940150198
49.015219684057634,8.45019605944902,116.32612758322746,0.030041801291534966,-0.04866553664111528,2.256386990319892,5.504885087788559,13.968892892255553,17.344495276827498,-0.0851330493343625,0.5426947235024477,-0.28249888662368483,-0.25437626049067164,6.054119914275146,-1.6167424116789058,-1.5353334071535578,9.60131764600268,-0.012394687476662596,0.08323930302849301,-0.7451813526260131,0.059530712058825014,0.09525604884163118,-0.3920337365741933,2011-09-26 13:11:19.446799303,4.040170922
49.01795803257825,8.395047472802254,114.32776917260135,0.048841110594896466,-0.002908048953978191,-0.48479385063674174,-1.13068887732459,21.204594857691685,18.553520912435697,1.3324891241428358,0.006916226752988181,-2.614233850971469,-5.243364814232422,11.44229556334041,2.659429096996537,-4.692372039823383,10.567551378095072,0.2935556484737426,-0.08661384822592648,0.6598010554486652,-0.10348535922193015,0.044102764850329976,-1.0422367170713651,2011-09-26 13:11:19.546777509,4.140149128
49.0173799876088,8.404971774699755,115.0052972444785,-0.005032920204377282,0.02966216395733054,0.43578485484570356,7.038226319721495,0.7228404460397178,-25.019291210330113,0.017604861924656524,0.017565511075761583,0.37856220318883116,-3.3282256373132117,12.132039493670922,0.8057886437147105,-0.7239159120629179,7.726746981242658,0.05693477043335429,-0.008687153093242308,-0.510723882598158,-0.048612317601153865,0.0017150005467348381,-0.12894947753943153,2011-09-26 13:11:19.656780167,4.250151786
49.01590735500664,8.433395946362326,116.25168112229582,0.03253130983310371,-0.03500754547172727,0.4074733594509482,-9.745302202212763,4.0828945068046405,5.935008742470637,0.18617916938900247,-0.018224840810555434,12.599653842239682,2.777425852086857,17.687064794940845,-1.89547703544578,-0.3422678777011352,7.499418840731924,0.09281220338798092,-0.0466372262837576,0.25884094522393875,0.0408911827563867,0.019037305461624354,2.58617363971614,2011-09-26 13:11:19.756813482,4.350185101
49.0182762181206,8.433582509777834,115.56650112639592,0.1461912941284004,-0.01865525202305783,-2.9002915759714174,6.253843020295572,1.866549634819327,-31.74402862320011,-0.11471658489505047,0.12662662123602444,6.03709279102819,-0.212676357846306,11.199435268115542,1.4073123992574115,0.19572766067151626,11.34096340898459,-0.009485785567928694,-0.01966838761353342,-0.13428745230571307,-0.006972660129097197,-0.03996686457249629,-0.4637836189154034,2011-09-26 13:11:19.856788448,4.450160067
49.01399146684021,8.437823127183247,115.49431151116583,0.056575468807563534,-0.017093635324806154,1.3656406932777583,1.1403473197951328,13.969080816713916,57.66691689264574,-0.08813510110248238,0.035706556861362246,9.32045532137509,-9.503052383355211,9.223730731236653,5.9512872402434045,-1.8394696731380968,8.721625340797596,0.04096645969833007,-0.16168707093902895,1.7251543026343152,-0.04508060044198932,-0.07756943455444965,0.20296688956196535,2011-09-26 13:11:19.976774831,4.570146450
49.01292594842562,8.441235424205548,117.16247287246246,-0.021495367987243278,-0.04207054833451528,0.36196203865846566,-3.161584536958406,16.31272716566808,-31.425315407019085,-0.19528383161385524,-0.004166201760826833,2.5435136640125835,-1.0029804360275423,7.774113176163314,-14.402999917998455,-1.8300649510910003,10.271257419607169,0.03500110724530056,-0.0026119786399649413,-0.07155341096919152,-0.056949446768642484,-0.07506552384654337,5.523279215109971,2011-09-26 13:11:20.066809304,4.660180923
49.00527279889047,8.444966670792526,116.00684661509781,0.039506644898946425,0.07696839289733043,1.106771957918314,10.513176058549526,-7.673063522634372,17.187920309770544,-0.08875421667536382,0.19618351398455872,1.63399015926156,-1.401104475754787,9.111834755308173,0.5593894015136431,-2.9363147982028166,10.589405774336491,-0.07387608752718011,-0.1175739772433102,-0.8018416043405403,-0.021388554532615234,0.05646387663445637,0.10770896407468421,2011-09-26 13:11:20.166817915,4.760189534
49.0150493554851,8.43766790381164,114.72994327372149,0.07731419617026736,-0.009742960719166083,0.9231208933715345,5.631367695169595,13.764136716951167,5.347036755797269,-0.08315966707261868,-0.23845992789199597,1.2204649506408507,0.2524115347024485,15.749255906198886,5.919496119644412,1.399293961949338,12.167121044002204,0.006127844476668566,0.06765010525269546,-0.3560320824786785,0.025556565677074053,0.01962183484900232,-0.47983960429414274,2011-09-26 13:11:20.266851974,4.860223593
49.01492518870648,8.43425323972954,116.30944948884321,0.06433953367913739,0.02275244204272631,2.6253652771782323,2.688199006117883,2.3939859997619557,6.203237533941473,-0.10944762374988928,0.22917705116370635,2.2831596810388897,1.1109431724876386,10.608419511753779,-1.5941191998124622,-4.430573340023927,9.720012133800333,0.013819149191431157,0.037792778710417294,0.15424752472879738,0.0051324268145934715,-0.4179899177851383,0.10076305507730267,2011-09-26 13:11:20.376877673,4.970249292
49.01546889429459,8.43362683711316,115.46039203699111,0.03369890164144376,0.023243529250303343,0.296591442264611,2.660822858847105,-2.6620813632062106,4.492990442910657,-0.059140443935394124,-0.14251537870510492,4.127717701756491,2.4413860641123852,8.72796085033591,3.9533775991674345,0.05582451736606525,10.813701190290583,-0.055135496642631565,-0.07037925749789005,0.4322583474897316,0.004071501417838184,0.2442325390893525,-0.0942709788333993,2011-09-26 13:11:20.476832011,5.070203630
49.016411700429096,8.443124283922138,115.84973537067208,0.05305956922310405,-0.03652571512151417,1.5266138822807178,1.6675887967716587,-101.24611013095699,5.712298587240599,-0.09332543516395328,0.08304217081141434,-0.7621408943813563,5.490719829167423,10.828425114927157,-0.3313661165624904,2.998918482375941,9.872682230995682,-0.12618800325599552,0.36989664307358333,-0.34804983795517397,-0.038236242211895095,-0.005588455996323269,-0.5923446020797366,2011-09-26 13:11:20.576903505,5.170275124
49.01631275262644,8.433373762865541,115.04042270981459,0.03714934033693779,0.010509132652255029,2.7324871972509452,10.518978214898928,14.807747593932385,2.105882912545219,0.024245658828029447,-0.17239325477989412,3.4177038794427332,0.31344509787910135,9.62489735651388,2.8760372797254257,-3.8789803840975092,7.986185758125545,-0.2320004954309907,0.05916413000909444,0.18266323097630463,0.009822414065266304,-0.08353971938339394,-2.3845078901100796,2011-09-26 13:11:20.686936057,5.280307676
49.018092617246296,8.44390424367664,117.33745714943213,0.041547957430041846,0.00036960740181909415,0.6804040174750886,3.6494704393495225,2.307073255042538,-0.3358554867826804,-0.01147856219118486,0.02098311549509261,8.06403111783704,3.5620495247955537,11.128543627597914,-0.2761548115482362,5.928257786159874,9.376996198515332,-0.004974394048915615,0.019626999201682545,-0.322842067850711,0.05936613179112997,-0.018664564019571363,-0.5962129354831593,2011-09-26 13:11:20.786911163,5.380282782
49.01576590859686,8.437027833443599,115.86371826226517,-0.26925537125800014,-0.05017141920891641,1.189830826830367,-0.1340246446345441,-2.619471552676803,13.927285143046973,-0.15771428728851886,0.09637883549758466,-3.0612825734657694,3.6740891578985897,11.33620345511003,-1.5929079844179426,5.207269980209171,10.378408089794071,-0.08763677518656061,0.024889211710890265,-0.45951320345769137,0.07322999076052718,0.11441413570732839,1.7281984992946136,2011-09-26 13:11:20.886885946,5.480257565
49.01211589171924,8.433695584570472,115.5611842427668,0.03804604678009682,-0.033806610206459836,0.9873513833026631,16.48171210321697,6.970550560225021,31.348320581044725,-0.08324781541302671,0.037187545446767584,-1.0461345091741412,-0.2884348326372792,10.005166194896468,2.67123042463293,-6.515092638907679,9.002751642512672,-0.008586072341275074,0.0497034064031701,-0.06600480208216916,0.014419200625786706,0.10752727973568546,-1.867579330760209,2011-09-26 13:11:20.996873954,5.590245573
49.01638113930314,8.435609938420013,115.80690622855624,0.031210479836378598,-0.028181668154120803,14.472069275548572,-4.841038667187068,-1.3826379261198092,12.942541867814647,-0.09203163202660715,-0.03591821249540092,3.7225887305290564,1.0451922352220575,13.522858317615777,2.5464845051807377,-8.21599227462599,8.803904505607337,-0.026015663975126,0.057281636466700155,-0.10601170047238456,0.05999338140141097,0.0835486511928215,0.07006454905194384,2011-09-26 13:11:21.096923900,5.690295519
49.01823151645353,8.42979964737944,115.26450043191004,0.05677730665780513,-0.0017504138498661583,-0.1415005637279123,-3.0857241207224044,28.443994067708594,5.725564459974784,-0.04994839233995067,0.09622216555982857,1.2997116314345698,-2.269650257725057,9.18777385750341,-1.4754482069157164,-3.2520806601714916,9.660204650797573,-0.013968925178118964,-0.0199350567758938,-0.19284492435902187,-0.0060526457326207555,-0.07430427300204663,-0.29645146673173745,2011-09-26 13:11:21.197096641,5.790468260
49.01381969689548,8.447686123189108,116.32644153335423,-0.0033689241816515746,-0.014203658534618916,-0.40921489815504797,8.075545879533045,26.90309351862426,4.551316435944628,-0.09332831337549884,0.20270003818848714,0.7734929332798343,-1.7796311432440182,13.719713046443623,-1.225568173463034,-17.415650871509015,7.021935617869506,0.040823905642225995,0.02647209302484568,0.2541883461970664,-0.14173340550619878,-0.07364554211181237,0.6830236579007454,2011-09-26 13:11:21.306873501,5.900245120
49.016849842602866,8.432829763440473,113.67703965649895,-0.06974967160796029,0.01903197402171139,-0.4044125092186277,8.959147933367522,28.370940286204846,18.34939515063287,-0.1356733709998733,-0.13843816716402718,2.0106850961810503,18.67919226126216,1.4437984036135632,0.15768323560702235,7.331228680948904,12.108520297649383,-0.025302384565397667,0.001024795263939662,-0.12658861993549303,-0.1167754408155004,-0.020070247333059284,-0.22921821390518574,2011-09-26 13:11:21.406934840,6.000306459
49.00268477377073,8.445651259041604,115.32825078349644,0.0008797395412863118,-0.003618841644487008,0.5950551254846577,7.608881932910382,28.82662942019638,22.148566101881737,-0.09823241862422602,0.0029837404575010287,-0.022044713275483407,-0.03159096659500771,8.255753489060599,0.4016249506069811,-3.0030681279545237,9.26983889495544,0.00494959817419326,0.005618908341925058,0.2458056355951538,0.03604359213353406,0.05005005680795789,0.6552478392203327,2011-09-26 13:11:21.516878213,6.110249832
49.01638222426065,8.442349030937544,114.06452871952006,0.0348131451386285,0.027561309950781716,-0.004923700525616859,13.945838859969705,-6.683777688093377,12.717804912222656,-0.01924865449495382,-0.20085560681753617,2.056426323627329,-10.90648048967693,10.031878368472968,2.2104333991560297,20.954702542000373,9.401244701515974,-0.009490746904548326,-0.027332440073439847,-2.1910356296978115,0.014704151389145385,0.09675731729623038,-0.08138855927654425,2011-09-26 13:11:21.616881381,6.210253000
49.02107475175372,8.439250005375515,115.76955673131303,0.03843018064168892,-0.028560634196446586,0.30495310384220503,5.523499720848158,17.20513415814584,2.158207346646707,-0.31127676484474154,0.06293863099829436,3.513679802948472,-0.5296879773411831,14.406986251216878,3.6443405077533333,3.085478809227423,10.201674271432687,-0.0698621450828939,0.11360589651773312,0.5788928725516956,-0.410906017998306,0.014760576063477316,-0.26708594695649585,2011-09-26 13:11:21.717174213,6.310545832
49.016811724555474,8.460857505370225,116.5861325666462,0.047793443782398214,0.008514495027197465,0.04723810153141528,-24.279358492294108,-4.1605987353141085,-21.62889267752063,0.1299117674573418,-0.08994379994907883,1.647569244975398,1.8932291436609807,-0.5291975941620972,-2.3360735092885765,3.426347585544088,9.411300315118428,-0.024328054024319985,0.050624282226762365,0.09491133573600749,0.14767616297839697,-0.04975987423567109,-0.6757881357700612,2011-09-26 13:11:21.826931673,6.420303292
49.01762447717735,8.42841667223193,115.22603161654426,0.02353094888277528,-0.0022218221557551284,2.384256200602506,1.1159055410867875,23.631070597788977,6.324223891131905,0.12799395087453763,0.20433239495360211,-14.222208366629086,-1.3479694192102132,4.424474507330468,5.087966560299299,-0.9003887547777091,9.583220128360546,0.02727007323322954,0.004100375348427452,-0.5662423730863714,0.10414160804683474,-0.18741582357655423,0.5413532119073805,2011-09-26 13:11:21.926931846,6.520303465
49.0157628061786,8.430422579054822,114.69692702656313,-0.04258308183226117,0.1433102883084148,0.4309183696857104,8.595690076995094,12.107528614806581,11.56804083751852,0.2057886485291645,-0.05883700145871983,-0.8927860373002587,-0.09782790521154039,12.38947091272057,1.7201699696601103,1.1678956997581418,9.929985689727614,0.0527126486108704,-0.02802108959419211,-0.598594689551429,0.007693184401855733,-0.035238039084290046,0.4474002516449135,2011-09-26 13:11:22.026939148,6.620310767
49.01514297831105,8.439357195819642,115.16848644997309,0.12430066406119122,0.0018208862671053418,0.18603513320034876,5.145803776388271,107.75129779017357,6.199918560245165,-0.1896798603101894,-0.21041534476720547,-0.9574874632436265,1.8997249825815434,9.340469054804274,0.3552623204101896,3.8108296243807063,9.804701827246033,0.11132821272687875,-0.04181716208197423,-2.2179964344140166,0.07177082291456034,-0.0610296761138079,0.3518585448004568,2011-09-26 13:11:22.136944955,6.730316574
49.017608072703226,8.459279343662683,114.43350331734545,0.032320143276914265,0.02399605543372541,-1.1143440537203673,-4.909296249006209,12.427457586652833,9.576316899813373,0.09117812438020786,-0.14832275635396658,0.9002907463906537,8.229849790562001,9.396991670729532,2.924724090472558,-1.3691294025148397,9.405691011509376,0.049593104799733556,-0.05693518762735648,-0.5038938627825452,-0.06989682723797802,0.08138451737477237,0.4798221871597649,2011-09-26 13:11:22.237165051,6.830536670
49.01639149002502,8.437407417744168,115.82674873392152,0.0705857285551829,-0.00518521282475622,1.5592444287875156,7.68535310311375,25.695742194648112,6.141639535626827,-0.14207049099232819,-0.1436597850504048,1.1368680600367214,-7.821006596950407,8.673664350017315,1.2967775694796764,-0.33334484019364974,10.816062802964215,-0.020054982556303228,-0.02740413311002435,0.290793646705181,-0.006226149336687118,0.10586973430550689,0.20664501880810535,2011-09-26 13:11:22.336929431,6.930301050
49.017887472693666,8.438030873327024,114.69143805444865,-0.02422417134285952,0.16144617971379968,-0.6201244590337965,-2.317005694719957,-52.34607878881245,15.643929381387348,-0.030843158178991914,0.06679757917896824,0.3923566343843979,2.041600410124301,9.883523155859182,-1.5172441589870167,-12.270329342482292,9.2897962362852,-0.32816418308378187,0.15282256477606074,0.4468152521687905,0.08870877601288744,-0.2144544851560017,1.2740837969954097,2011-09-26 13:11:22.446958562,7.040330181
49.01739117635642,8.43578275083984,108.45488735052326,0.13158367598003035,0.04174542343059993,0.6242709123042322,-0.21647968771866566,81.57554187878493,-2.090965669133615,-0.6802764039682043,0.1625024272137966,2.2349311737053785,-0.8481868150997605,8.789753709295535,2.078908727410282,0.5206651457822807,9.033156960680497,-0.055445911104589726,0.12991853141597975,0.3398135848897303,-0.0056047385135636705,0.08870331762484807,0.8323686741321236,2011-09-26 13:11:22.546946739,7.140318358
49.01738095119688,8.43225051512881,116.24834759162576,0.0009594976966155813,0.03192891425121072,-0.2419960918595152,8.680197975820837,31.616456899181237,8.523169692506588,-0.10427313676776596,0.2086172410270959,-1.2574822379262265,0.3695358511919983,7.392777767479458,-0.3094171747129285,0.9700972100864972,8.130258695422167,0.04333187544469201,0.18065334075168687,0.3040883941296756,0.076237436080762,-0.13643908386821377,0.38017136257825224,2011-09-26 13:11:22.646968816,7.240340435
49.0213819002767,8.44089492077128,114.84832919918607,0.024302024559174448,0.007080413767876152,-0.8181446622136683,-0.6311957200195257,33.87257086708249,11.694591455169821,-0.09427330603921515,-0.3390262028058402,-2.9379263216347864,2.1450360304201523,9.495667948583923,4.297619188939898,-2.8891454841765554,8.228819874283646,-0.0019486171720406835,-0.11149748510675897,0.9851032954391133,-0.005460958974111034,-0.08421578904232997,0.7756600642015744,2011-09-26 13:11:22.757019692,7.350391311
49.01242360558536,8.434055437891608,116.36262153282696,0.07302799471018426,-0.019966710136356796,9.584398973855018,5.329569700264112,16.96660727517201,12.219739233001729,-0.19355702639426767,-0.08205076799919209,-16.525775802369893,3.3442006696507747,9.580514555385783,0.9016889241949503,2.441428357307214,9.621317389886245,0.06773332303549623,-0.058459496989586315,0.19609509748068657,0.014366433295939238,-0.06116833726824249,-0.4201144905588801,2011-09-26 13:11:22.856964993,7.450336612
49.01997628591803,8.459093813459797,116.7603003488731,0.28733381524297086,0.002460133856854286,0.3206598557010237,6.351519868379984,-2.3060522550689626,10.419920631963677,0.10988738821724857,-0.06922568583635738,-0.06785635177694066,-2.648858710488649,10.31287947467738,-0.5701560549057116,-14.323098505868382,10.481663600217667,-0.01658398993426978,-0.04148500402546648,-1.0583854704476412,-0.019098798553054797,-0.40608866598746435,-0.1340384888872436,2011-09-26 13:11:22.966984474,7.560356093
49.013181154007164,8.438522305767508,115.46218872145072,0.010434067280659973,-0.025418633180451525,2.0439071836472795,1.7018452967032758,8.506701213947268,-0.31840567359525096,0.1583442530982714,-0.09076548337739643,2.4768563228247857,1.632993871476255,21.509888757321676,-1.4859806755534157,0.09578424723327869,6.304124500282546,-0.00976013127119503,0.020058080808284317,-0.8106872211025706,0.003981974931831322,0.0004727186514950736,-0.26489164892393713,2011-09-26 13:11:23.066992304,7.660363923
49.01515727719226,8.441610131789663,114.43224372235176,-0.11576804984552672,-0.027675147098821976,0.15177468559838703,7.607957198330449,14.612832799276857,4.120116059648344,-0.08625141416631388,0.043740401993109176,9.451022646978616,-2.169149661251543,8.065665891610108,1.9753433670000098,-1.07766395192402,10.362795907599766,0.11600963488992522,-0.10879216379103758,0.10476052454564186,-0.018473061304933452,-0.019837780419789838,-0.16789001729509737,2011-09-26 13:11:23.166972757,7.760344376
49.01450485383242,8.434522609440732,114.36194459033628,0.004273772477333734,0.05919021529018578,-0.1033351691922989,8.288502278059784,21.853849177950817,10.78804084357361,-0.0824715160308773,-0.19538500390950614,1.8783972768250765,-0.3878580869276802,9.482021285754644,4.2284176613167475,0.18421843304016403,8.015918517839275,-0.022110966957730575,-0.04973565832674804,0.80888013510122,-0.020629235439086884,-0.002703357079221458,0.04911862670907861,2011-09-26 13:11:23.277003780,7.870375399
49.01642075474851,8.43676866948717,116.55504211456703,-0.036571452813939156,0.0038131810808163065,0.8579834317262872,-34.90069877753578,-36.28604320890212,15.39915069179819,0.20472037010289865,-0.03937865009420364,0.05788760310600094,-2.1310621984989906,9.558955077511683,0.9172956466833011,-1.7958208171418983,9.214808705896155,0.047293809089086265,0.00027362453052484203,0.09389310126377992,-0.00531656146964919,0.043746977140404354,-0.046106756374617044,2011-09-26 13:11:23.376959182,7.970330801
49.015187388366655,8.438210286378558,115.77288796088332,0.02078659102372231,0.015278562799573316,0.30106084965905694,15.18195627739329,14.84556291067219,9.427515228190554,-0.0365044891753801,-0.10988312821679426,0.025735607755497325,4.462388621999798,9.13197224243176,-1.5560393551538674,-1.210166840510843,15.281133862783864,-0.041846679859771765,-0.024975649097935364,0.8546817466322707,-0.02769865963403198,0.005727691562529941,-0.2988308314856128,2011-09-26 13:11:23.476966537,8.070338156
49.01709168856177,8.433818692485122,115.69734105939779,0.06302598588728113,0.02100729799004685,6.274049786194302,7.841922267683373,15.595894990051939,26.638872270708312,-0.01053642521461603,0.21329599133278476,0.3206074284619181,6.04189671909896,0.29524457793862524,3.16478937069818,0.2806126328353297,11.195738417073285,-0.20523790147623686,0.09211094941447649,0.03844266760336199,-0.01769269033955631,0.5322305884480705,-0.005644845533298867,2011-09-26 13:11:23.586994923,8.180366542
49.01675231969764,8.445616210413267,116.80793997693537,0.04444216420553922,-0.008580214694133996,1.6344599798957549,-39.61233395571305,21.180573819709544,-0.653845410069751,0.1085385496585122,-0.0849883998222869,2.5026023557647163,0.06665312664268763,9.374856529835318,0.7458412431172086,-4.014229287982048,9.857270363811175,0.12777705942670906,0.11089323616331181,-0.291907166577482,0.015044562418671657,-0.0015748154054836339,-0.11343655285959131,2011-09-26 13:11:23.687130641,8.280502260
49.015037699915176,8.443821213723705,114.60339699949392,-0.05402059163192017,-0.023116853757159595,1.0380157344045042,2.764695140808282,7.039718456256233,14.007800142233489,0.03519382709416331,0.08350018136203936,-4.925181892807955,-2.4052920233693773,10.580106357782071,2.5431869458568994,-4.239512369441479,10.492732419307085,0.07554035551552783,0.02182027458557662,-1.1748439192807094,0.15666474763379074,0.08142215261134686,-0.2337160094142953,2011-09-26 13:11:23.787050409,8.380422028
49.03115220299068,8.441497288903516,115.25473322964002,0.05637154239219892,0.00941703152708791,-0.5981811396609867,0.2921903206638987,-3.001580219557214,-31.264892234369693,0.07163428455186298,-0.1609096266419909,1.3362010090909977,-0.44638059964001764,8.254712622264503,5.347648706592281,0.32901887153094395,10.399977568915201,0.20700857826685706,0.10198115588124342,-0.14995217666514582,0.12199962316698634,0.04677980408215528,0.45235981843609596,2011-09-26 13:11:23.897014646,8.490386265
49.01458406084172,8.44289715307533,108.99071601265234,0.011480629137292864,0.1502901979811729,1.3935442889809553,9.953140789047069,33.672386229302795,13.610791612052868,0.03397785480590865,-0.17825560349975628,4.7300384363955565,-1.9086326786039396,8.572999100692627,0.3997218361911606,-5.348887566339733,7.851893722206324,-0.22926226930944502,0.049822938538698805,0.5939153903387205,0.1013739680706657,0.2864520763894027,0.5774327654516948,2011-09-26 13:11:23.997014377,8.590385996
49.01463736169423,8.437831110188867,114.08187438145103,0.08139911375076778,0.0378493849892403,2.316616098285732,0.44045442085140607,-5.533425381543573,9.933415601188608,0.1500748737872046,1.516661974101021,3.2085961889031536,6.9405387453943,9.10789392300012,0.5530196691865873,-4.413364089330363,9.979041798000114,0.028377161368253648,-0.06267820937147979,0.17944461664870298,-0.04822856330732749,0.034322807361595944,0.25137515495304585,2011-09-26 13:11:24.096978951,8.690350570
49.03388528671135,8.433619991745983,115.33585915205579,0.016508292679109457,0.026396952655432654,0.7580389456870636,10.838482228957146,11.774353584998792,-23.374083219863962,0.18771667496478808,-0.22151380265618792,0.6721935309348751,1.6232856774721431,10.419216576968786,3.127398303903073,-3.1397188683963395,9.47773945763925,0.030124145321383893,0.0023326521668513844,-0.38150892221044136,0.0074369005118849925,-0.03246573965072987,-0.4497968034566509,2011-09-26 13:11:24.207105671,8.800477290
49.011634019633036,8.431285235509414,114.77625037944125,0.10476673033876661,0.016932828976155875,1.1350597224075196,13.698545740354694,-3.6806408277144342,23.473305461598567,-0.0917812161093685,-0.13547914460707242,0.24029664262118727,-16.617804791254994,5.4553456499893755,0.8823362162584709,0.1662052733246873,9.442156773540777,0.10255449529110035,0.0723458847417196,0.8603994628856274,-0.05080240518869875,-0.005322203598988329,0.3608840181121842,2011-09-26 13:11:24.307028494,8.900400113
49.016880513700855,8.434071220139009,115.00176620649272,0.028425530629506653,0.11302059600508585,0.7978879758558006,7.189834245959878,5.970019465662141,26.577136731631672,-0.05913505492431525,0.2762225735178736,-3.7155346635526154,-0.02606474716631202,-3.4314271041996953,4.185279074779524,0.5606898061112935,9.941778575944415,-0.18178135108270785,0.003795493356649457,0.02689348644477266,0.01821790079659613,-0.059805257736678864,-0.02602408560029195,2011-09-26 13:11:24.417025357,9.010396976
49.01780014780696,8.429221835268416,114.67755244401195,0.07027728485741325,0.022453994333461874,1.0344360796133871,13.448185628160516,14.063534278520198,23.18915278853647,-0.184622285205016,-0.36389561172496393,2.3512321489081147,17.090973001059698,10.86847822625774,0.048874306692068936,2.6523162064222863,10.030105626902255,-0.15838401741125321,-0.09427145840904316,0.1007083870571005,-0.3659880824997809,-0.04651533483181887,0.6525921112281924,2011-09-26 13:11:24.516986198,9.110357817
49.01855998275747,8.435849008445985,114.7034872630654,0.06356048273046595,-0.04046885378667386,1.183873644951269,10.824805455203572,8.8063296707897,13.44608800883871,0.02298854257004137,-0.06372867580242572,5.945986586594292,0.6947338407113939,10.851862596383096,1.9757158577176233,5.397865859907226,9.658991113696247,-0.013389512308845547,0.4406169422125348,0.17666657547279402,-0.3872692049577541,-0.12794409163666942,-0.3958255667643077,2011-09-26 13:11:24.617007603,9.210379222
49.014631376958555,8.440883215085194,112.52882465768636,-0.017888663716898304,0.02713587650302753,1.1186051810914481,8.313063590997995,12.377788488683974,19.106844780250473,-0.10036766747398104,-0.2907904737549424,2.6744998292326225,1.6619529861005056,11.286392629801963,1.4763397904287985,-2.573458071320716,10.45796976505055,-0.0228852095616151,-0.03743395880441806,0.7335693148584999,-0.12999966123156514,-0.036804033366377206,-0.07672038617134813,2011-09-26 13:11:24.727297675,9.320669294
49.018044314295324,8.44764326637801,114.03503224107251,0.02946927729524975,0.02911614051689794,-3.489977982824525,-2.2799326045504573,14.672538231669147,45.49926856730174,1.1303879163632575,0.06781107543467486,-0.10184959503258384,3.4066407800798197,9.379244597282572,1.8920058570910083,-9.839157392306262,9.756131710670571,0.03718741152654043,-0.0636744711553539,0.3669189534499259,-0.005808918208232731,0.02397868147626242,-0.5158510723936002,2011-09-26 13:11:24.827037575,9.420409194
49.0138063544043,8.440710214079237,112.98272339670025,0.04283894210539721,0.01667804709906183,-0.3165570422744963,29.875411448211416,7.444690686779905,20.20913808092196,-0.14097298574534728,-0.0689996381440233,0.6508716622864827,8.352863216018237,10.183385220040856,13.496352642199678,-14.303311588626032,9.292707243808332,0.08024214785682852,-0.017586256705938236,-1.277094964194432,0.0048273016248158935,0.09354978481152529,0.6857804444659739,2011-09-26 13:11:24.927068183,9.520439802
49.01710075058028,8.43390991058506,115.65208445737255,0.008425376447995327,-0.0058136325229084795,-2.179959562535605,-54.74129876620618,-5.090228300030747,6.386780950108914,-0.3166642465999761,0.10573445608323745,-0.3804993221191989,3.30387729714863,10.477441735944831,0.4411077586427556,-20.31938370966624,9.832357013922865,-0.3309727433417323,-0.08749379582943254,-0.5326164522748015,0.05832080190319004,-0.03646485454406931,-0.28695702605313744,2011-09-26 13:11:25.037007004,9.630378623
49.027320129953466,8.411763678492392,116.70388274846623,0.007288002902788783,-0.12360848439294594,2.544588927712042,7.3880382705501555,23.84704809941837,0.15975991443971083,0.8515135577069037,-0.022594827899945366,-0.7329913991674548,-2.113915706246796,10.452024042915394,13.974432178081164,-3.832082420913698,10.147812506859244,0.11328455497871362,-0.04126324596514344,-1.3809103236836797,-0.04404201000365037,0.10252488217776537,0.7105957931056008,2011-09-26 13:11:25.137090507,9.730462126
49.02074626670034,8.44616559759125,116.72314583819501,0.044874997889263385,-0.050186796664070506,-0.0379993728517527,11.594977481252357,-4.082007599246534,4.1884279987647925,0.710215532457766,-0.8108931584649306,2.5368344313370996,4.703239190469856,10.231521537218766,-4.211828523954947,0.8710914027361568,10.173828022664653,0.03028922973226174,-0.08564865379202687,-0.34683273758453825,-0.12180465376450347,0.027933561491058606,0.2593333324305752,2011-09-26 13:11:25.237218425,9.830590044
49.01518785116085,8.43969234572897,110.48445373452843,-0.018836876564695494,0.021843766825756564,1.6113235619181367,18.337995043943558,25.03893738400012,3.314853913074444,0.3248812858249525,0.4566865305585375,-1.0431289037482223,-1.765001673863615,7.893561254375417,1.2099582993197613,1.5198174622158356,11.155897292001654,0.009494009213217719,0.08393471535081996,-0.410612381865914,-0.0840980870640653,0.45104061275196045,1.1346435991390347,2011-09-26 13:11:25.347096196,9.940467815
49.02143559868315,8.43343318545437,119.74421671743283,0.0756225550704922,0.04177150658271853,-0.7797515556917584,1.18803105625046,13.925021179031273,65.90237034978286,-1.672188177248215,0.2695142546157635,1.2133305219081025,1.9377122765975816,8.800015753129502,-0.11814377512284213,-17.303960078552024,9.869794519295807,-0.049185802526294446,0.3186178016070646,4.653186690004525,-0.09339551550858141,-0.0322460455816338,0.6887569997204196,2011-09-26 13:11:25.447095360,10.040466979
49.01427595829265,8.4314682465645,116.46846812740986,0.026360962475422037,0.02680583339300231,-0.875676972023754,1.2209016002891087,-19.452244893921204,4.045160823504119,-0.03731709191358773,0.2938797031400363,2.5173301497631018,-0.42551011703061725,9.436874119093007,-2.737130997396214,0.09422156308710582,11.57902718518932,0.06246118139341727,0.03388499435592498,-0.10699644057811189,-0.013484785499020891,0.10001974578054304,0.2798587526226584,2011-09-26 13:11:25.547118146,10.140489765
49.015479507564585,8.438101610226594,115.54093297681878,0.19935192561210557,-0.002093246016556288,0.1016589663575379,5.8643898189627235,-55.88393570066434,9.151390986086238,-0.012875116242743824,0.06016452439569861,5.939423799951312,-0.8232951334670513,11.817319067941876,2.9263604781275,1.4724926426365812,10.693728194935375,-0.006528834018199526,0.07683149302743417,0.5807563077547694,-0.020913998515468973,-0.39179458750011265,-0.11644780808397336,2011-09-26 13:11:25.657062669,10.250434288
49.01356933991134,8.483204213986339,113.4762480149108,0.016886336356094985,0.020843015279417954,6.3753610964924246,9.093765142007362,30.09328843897933,3.0447805423822167,-0.08301402465974536,0.008961662791465218,-17.980972362685584,0.2987671026389337,10.275527094162726,-7.166622116059128,-1.3031326503782248,8.321584487927165,0.013891450008878222,0.174265514994088,-0.17113747868890059,0.035039301009965614,-0.018709014831204625,-0.5903574491974263,2011-09-26 13:11:25.757108184,10.350479803
49.01583603257674,8.438410683795327,115.15131919360289,0.02650305819965325,-0.004267188636780347,-0.37518107260464784,10.648887063023402,-15.848795340947756,-42.65876743842705,0.10079870371404634,1.1791434640105845,2.1386484481004935,0.7377199054790755,6.136918762761328,3.4637012424378875,-2.552312009992169,9.21420634844045,0.04243428069356439,0.07994068914570747,1.0159444229245778,0.01511353115900392,-0.19784201829269413,0.5373799786212394,2011-09-26 13:11:25.857092311,10.450463930
49.01752900033424,8.441407648278703,113.91778340994152,-0.19632080500422694,0.006047552702586853,0.602498464067867,8.941654710394488,-17.2865782826608,3.355230764777568,-0.15312816245996066,0.04647651626696715,-9.081132469904297,2.1468618370591237,9.729490440937731,-1.7875459700487633,2.0923410319109936,9.082177710858488,0.016593569283806633,-0.03987405570983917,0.27268480870205675,-0.08058585614187097,0.013744459461731775,0.3530272804533086,2011-09-26 13:11:25.967138011,10.560509630
49.0188200152118,8.435818120069559,115.10645938397509,0.05709476378213467,0.014217740677545925,0.9580687936824953,6.313728906270182,-13.043762401938437,-26.33640383490785,-0.21049399095327198,-0.09376063754834144,1.798953482597294,-0.6785402989406548,8.956202496876934,2.383070549141079,2.4174876536336565,8.711740798577358,-0.05061488689670325,-0.10203915238760379,-0.3459830772097816,-0.03376715900969045,0.06745336443144057,-0.24615121514334096,2011-09-26 13:11:26.067131821,10.660503440
49.0179822076178,8.436301888498242,115.67744891382883,0.05340647180370997,0.008571716081754277,6.944572321218203,13.653347692694398,10.26351185301237,20.51679179150033,-0.13358024591411413,0.11583848972979785,2.232671941248734,0.38202164934364974,10.346879950572712,3.1091626150096907,-0.4944463793308549,9.11832259488869,-0.2961003601417281,-0.007235336418906423,-0.113552629136223,0.007729475886861434,0.27959015766651685,0.1974899440424471,2011-09-26 13:11:26.177286056,10.770657675
49.01633391685731,8.432869150499366,115.91747121355893,0.02467178251881507,-0.016470367109523775,0.22874131601415187,5.66753125794135,-5.091907790282368,22.418378542781063,0.5639444888127597,-0.9354845744556386,2.1042680296676695,-2.612819960154757,7.293882298784956,0.19798494701004157,1.0016996081453047,9.050292253210355,0.11486317215522873,0.04367126826039196,-0.6690407862254315,-0.02449788094529299,-0.02943222323717276,-1.1600863862116728,2011-09-26 13:11:26.277139690,10.870511309
49.016550906769425,8.419977583941279,111.38214122610091,0.011090385704417345,0.0161605296262159,0.4283147499969247,2.9383849094157144,33.741261167550824,-29.733123870256506,0.6090964312003316,0.203957556479284,-0.5189295786624487,3.0983216545844625,10.090929196306712,0.49987915014201756,0.5615703431413821,9.268672716165266,-0.06848731415371445,0.038763516524979405,-0.13905778013821973,-0.025521854167419433,0.008943107936316608,0.2637633128031442,2011-09-26 13:11:26.377090803,10.970462422
49.00712932526827,8.441169248886707,115.89430761786546,0.048526047300046234,0.024269072981680944,-4.024154395947226,9.136338499314043,87.83215988037372,10.601551993363294,-0.03894032542575199,-0.05279456609835567,-0.8900719941670592,2.5649152124375036,9.60123656727208,1.3075531208552411,-3.582121536029645,8.987646092081206,0.1215808907271316,-0.013496203865609298,0.7823355818038328,0.06211462275570383,0.023738189199359466,0.013742289222386,2011-09-26 13:11:26.487355275,11.080726894
49.01728895990393,8.441640402815894,121.85438305253405,0.07419891920927482,-0.012121527363113954,0.5768502188266736,-11.293310802763173,18.65939575213234,21.98879707528434,0.1597694588565703,0.19588162626527728,-10.116267148451918,-0.8483465240095256,7.494908414523459,0.3309188114033587,-0.9220948138403563,10.911487736300021,0.005817136398723508,0.070649901374162,0.45938338133254014,-0.09276787422431224,-0.2193268311469477,-0.041794258630093256,2011-09-26 13:11:26.587135616,11.180507235
49.01717835710625,8.441898335265956,115.21585756554612,0.05869886553418632,0.006603403574496727,1.0361701942604131,16.405806729981748,-6.5545799665313424,13.852258467185807,-0.1799365158810708,-0.11879856684056708,0.8630524884985479,3.480595463169241,8.447038007626333,0.22017190412727294,-1.2858795389244795,8.889457849383234,0.011921957419492845,0.12931336983354852,0.047860052778742446,0.05788696140295977,0.07273189382082212,-0.10956876352234816,2011-09-26 13:11:26.687369188,11.280740807
49.01718136107442,8.438229983162042,114.78120459938151,0.054111701266122386,0.004209237657026228,1.5287822586475897,-6.1148045430372235,108.41706007791952,8.248945771336793,-0.14829802582082285,0.07346594426685205,-8.575774018537652,5.362057295839547,10.182899322137425,1.1600597115378617,-4.469567120696866,9.865411869442923,-0.0008177491999005575,-0.07193922008743459,3.0397782922741143,-0.038940953420725496,0.10129095974146037,0.4043506409384222,2011-09-26 13:11:26.797142748,11.390514367
49.01180813238059,8.438394533868777,116.78675113410604,0.21658588080691032,0.006690869034744299,8.090913331330162,1.6531163537709448,-12.655533824958905,21.69426581371387,0.02032597324611609,-0.18482478944253938,-0.6289869002280729,-27.7001817960557,11.810667266813223,0.9769572332630205,0.2683832058289334,8.920775711690903,-0.0029828594987204218,-0.024518877292221027,-0.2709560685867253,0.04204472326567402,0.0021004523305296237,0.4270099320692769,2011-09-26 13:11:26.897137128,11.490508747
49.01487412893066,8.44242883968291,115.9511850545141,0.14452523364676137,0.0023697478336644085,-0.9875827619405474,10.880636751554013,21.69199419457006,15.032716874133984,0.17492373835207353,0.03355647474746633,-0.9930005269804427,1.8824621042390453,8.81232145178269,-1.5590177785628327,2.945952156017696,12.420747389751197,-0.025507300673847516,0.027094641602256598,-0.3614468056349075,0.029645633991219437,-0.014372630468127296,-1.6363390506034894,2011-09-26 13:11:26.997132054,11.590503673
49.015876933484314,8.435351865499523,115.43841448551107,0.07340338260707172,0.03129257305844852,1.1547627195724428,3.7585414828083703,21.169363395920513,7.0260784384133,-0.12276249352544333,0.09784326689546721,-3.002137649424699,-3.296217316059491,10.099830563857397,3.8456550187100267,-0.032187562856011695,8.963378229851914,-0.25042024471183355,-0.03674506822378712,0.20673722380680745,-0.03670663469474582,-0.058462897257339504,0.2368633623588811,2011-09-26 13:11:27.107124759,11.700496378
49.01919036415834,8.438771337199242,115.2423761899925,0.028032540008764976,0.0006613326271618786,-0.8416803600405806,42.04252919545181,41.604612864368974,3.525758522602901,0.3151612275538138,0.019480582874605384,-2.88466378692559,0.10499086156701093,11.220741112828929,4.063809311613749,-1.4732040618408384,13.85430828849692,-0.2185467842216212,-0.008688488324717423,-0.07426511728561425,0.025145637766270608,-0.04710912682710261,-0.2538974577692945,2011-09-26 13:11:27.207302926,11.800674545
49.01413384771954,8.44345178652258,117.12914060473346,0.012788935274189998,-0.001510531411143894,0.6858672976175407,7.466394503159805,29.424958965362933,-9.170836969128404,0.06617276451554312,-0.4629698213090516,4.4311409373705954,-3.2293330387658417,9.737221262179071,0.38661387393152286,-0.07423499109673103,10.177300213976213,-0.10599345984283981,-0.07497737403279964,0.2602152336913335,0.0014542120497056943,0.0651371210306004,-0.4755823317760176,2011-09-26 13:11:27.307160168,11.900531787
49.01852928309656,8.437173095711634,109.08119258993275,-0.03212383220444168,0.0009618244266788294,0.38797739002043874,11.044230058971532,6.590380624135173,64.6774417478247,0.0007389832113386084,1.5582037242735367,3.1910887107901846,-0.895668990934715,9.70527305589313,4.213840244023002,-0.8983991932418347,9.7903963158701,0.10488937426472329,0.06608808246324405,-0.036590331844131414,0.5888991235422134,-0.13045033624124974,-0.662905630232205,2011-09-26 13:11:27.417143562,12.010515181
49.01823671851673,8.436869908242578,114.33036183052405,0.0839320590932394,0.001672970121337448,0.22709797283169925,-25.060204344644525,97.54378991979229,-1.7391452398783667,-0.12725836795938344,0.17777917945896876,1.40422258768937,1.8278667561993678,9.98148839649245,-5.370265010217629,-0.8770155743572361,10.042758143408332,0.05818376580402264,0.020092053476809178,0.422679394665923,-0.004731562002914497,0.07918487923259483,-0.9587072722371003,2011-09-26 13:11:27.517163169,12.110534788
49.01459789625901,8.440656618681906,114.09250994549004,0.04428809270722906,-0.01133522106461464,1.7832650405320367,4.539061735627618,20.700915972094247,25.36597136396734,-0.02131747210400992,-0.1143219043937432,3.3185375017851126,-0.7783675582447066,10.881125411200513,-0.4923220856695246,-4.128258728176894,9.962963448130061,-0.03332793523291802,0.09765568969275432,0.18185781333653764,-0.014416133839778182,0.35402562041274466,-0.1532185569751509,2011-09-26 13:11:27.617209959,12.210581578
49.01510616682064,8.440771126465869,108.89692239645254,0.02412046795469938,-0.004051440933519163,-0.3999461037483134,2.4413963928582563,5.415322857135064,31.86007650057381,-0.285047666337279,-0.022300366312841047,-3.8044036652440996,-1.5299220033338805,10.665075075988419,-3.1206023355843513,7.469913007821448,10.126313438992765,0.09946879580446755,-0.041308584160140265,3.7349976061301713,-0.06085854048283003,0.03145985258913724,0.20098814103029886,2011-09-26 13:11:27.727289588,12.320661207
49.01268352466267,8.435303812299786,114.03736192523849,0.05090982348956229,-0.013059379026834426,-0.16920128916955357,-15.87187911158819,-53.436947363412784,11.336653211799607,-0.06840472408596042,0.2650739975795585,-0.3583048238927524,0.3871021782638432,9.748556923352355,1.0901727130416323,-0.26689535810178583,10.97667834855671,-0.016156101794488262,0.00645945067746293,-0.45685263037102725,-0.2817312453790618,-0.0851150502374579,0.06408813322550025,2011-09-26 13:11:27.827166684,12.420538303
