lat,lon,alt,roll,pitch,yaw,vn,ve,vf,vl,vu,ax,ay,az,af,al,au,wx,wy,wz,wf,wl,wu,timestamp,rel_time
49.013853279386375,8.437787179576302,116.25474900421656,0.10593314102119877,0.007601587248754836,0.6853336905811749,11.833493259218862,10.912474994159492,12.619729090498936,-0.11335074213121196,0.12102171950118942,-5.124905931537476,0.13564126856209646,7.7008839466393475,-1.4250532416718722,-0.5700758154734547,9.337464797793768,0.008976376442588793,0.028750348802117617,-0.2943723627659407,-0.042711307624507894,0.18428023325706802,-0.37662445972713143,2011-09-26 13:11:15.406628381,0.000000000
48.99996270338935,8.433430886444446,117.80383387620437,0.028751150701189766,0.005740483509345792,-2.515311483688015,17.53389251834878,-2.9325899425274,48.06179289239017,-0.43875986728746613,0.17856833278391507,-2.030087522708783,-1.7243253673229884,10.679355526602599,1.7157291007967939,1.0696369884650938,8.84459041178449,0.09221563185837696,0.01462388897260172,0.4560510248997422,0.02595018172588008,-0.06136491579270416,0.29930785724608755,2011-09-26 13:11:15.506624025,0.099995644
49.02527981290163,8.433293475131194,116.38882153904756,0.04651562417662647,0.006434249452813696,1.7718359827376111,2.3906921985816307,-56.51133023511656,16.58965570105889,0.007522527670778489,-0.0342515519196504,-2.1252181449265937,-0.818011908975719,10.78562125039084,-0.8570268476967345,-2.3920779847978224,8.917953663451994,-0.0015620734586519096,0.03478734893447029,-1.2150396286241387,-0.020900678894050943,-0.05946504752239664,0.12348533103342169,2011-09-26 13:11:15.616597602,0.209969221
49.01665584203136,8.441560418108983,114.97251070847173,0.06437386715597992,-0.007231774123502139,2.0192258038936437,0.052479464104923323,21.64087071097828,-45.61631093613235,0.06395519228470951,0.12484751421953656,-4.582819697508839,-0.020009807543057923,8.75336626932009,-1.689984229823423,-1.1625289832842234,7.512695288377007,-0.00010754329409989665,0.07143776752164166,0.5225538973026658,-0.0003616623019274657,-0.18647952094825676,-1.6482331181480872,2011-09-26 13:11:15.716822294,0.310193913
49.015881063963114,8.460304585424826,114.82024451502696,0.02901944363058325,0.03327655773628816,1.8501822885798416,1.5798755605593975,-8.130233271427024,15.50463115039937,0.06700028682345123,-0.07823972172972363,-4.62449140905234,4.732437908855978,13.22797438057898,-1.7432090654078127,3.7677837940138352,10.065625255337768,-0.05328516781371358,0.36232673297752604,-0.9211791226905488,-0.05990043335808286,0.15979567935251074,2.5022785650069777,2011-09-26 13:11:15.816616174,0.409987793
49.01921130298256,8.437386686382284,114.42789296928045,0.05155406874723535,0.04951870746056569,2.0591402030850987,2.435317835233219,93.19872097374022,10.30267433561769,-0.12205168363425405,0.09635143463138551,-3.0319298687313987,-1.3950757426127098,10.87159985449829,-4.2291715515799515,-0.8189217908715776,8.850157644801582,-0.040488512231047866,0.08660364157537774,0.14453762776179208,-0.2026309801618477,0.001968930896533347,3.4728944952926857,2011-09-26 13:11:15.926630554,0.520002173
49.01666050822801,8.442214219789994,115.64572203871896,0.05152510652117191,0.00041465325393744146,4.829525493750518,7.874015368111176,-2.2164210536628772,5.416601091479114,-0.8085058228016822,-0.038083847329116315,-3.0102100325391854,4.192540704705592,4.158143662635914,-5.008986132375281,-3.003870846314057,8.474869344522752,-0.032578529264916625,0.035638889967040635,0.2312528630786248,-0.10982029818208511,0.07748515349258515,-0.0946317606943756,2011-09-26 13:11:16.026623060,0.619994679
49.01700721422556,8.437731124647852,118.7263841430557,-0.009926930075894205,0.04436610110425053,2.671165195419088,4.081299828067374,2.8835846269543173,12.830095140280456,-0.07899784360750714,-0.20460271820640463,-1.0622789909243786,2.78336723445618,9.888724712838947,-4.912823590034486,2.677820256830648,8.930695674174398,0.0036275563723787716,-0.11691243719550257,0.25798692716262184,-0.09261247367835625,-0.03600279831502766,-1.1645754237213932,2011-09-26 13:11:16.126668323,0.720039942
49.017014299259976,8.439690208573039,116.28197603550392,-0.12878224477513572,0.05871994544025478,0.01843314945816732,11.232645135884074,3.5760326191150154,20.249916955841382,-0.2758337169664071,-0.09661765512398712,-0.6237529048940387,0.6719516440885818,12.901576588328393,-3.7818141838994173,3.0472789839505876,10.137107610154828,-0.20791609023980162,-0.05086670493441947,0.015175077564174272,0.04008386177264676,-0.028702510062874068,0.2654557581290877,2011-09-26 13:11:16.236722946,0.830094565
49.01325517548773,8.436963974255928,115.92288420277583,0.026246217822092584,0.014788285303444492,2.467691564403453,6.202840150558917,-24.87690317275734,-12.128259342011177,-0.41794519703873156,0.4509794551377281,0.9446219485852663,1.0196672728456653,17.163914897918374,-3.7759639635319635,17.27892488533745,10.750054792899324,-0.042563292744073,-0.5593298079835575,-0.7050155614976873,-0.022025302846577454,-0.04376090821334984,-0.21069672425906896,2011-09-26 13:11:16.336628571,0.930000190
49.01233542882091,8.445798853983913,114.7071259818392,-0.11509826887984517,0.019826772767500417,1.9314082925421139,1.0040311900286367,-6.917455884499675,67.79994238633515,-0.070242802846104,-0.1359233172938597,8.188627069199283,-10.573771238975894,10.258661766549256,-3.1714998527755647,6.265505798369023,10.419917093786678,-0.01735017380748024,0.0061194569134879456,-2.138359803751159,-0.09779483811480998,-0.025048015924544066,-0.8277897828688415,2011-09-26 13:11:16.436667179,1.030038798
49.01441288186919,8.399709466169272,116.30525299432243,-0.025718277274080742,0.0005601363910844696,1.8449237204973985,2.54575940070379,16.800962743641723,7.579318428401688,-0.06735071254200924,-0.13317727976170152,0.564915433147043,-1.1683122453125485,12.624480380751109,-1.2191004562284122,-1.6484520549300608,8.641101496461246,0.032788484509695306,-0.7129293883114007,0.13364938447492314,-0.005890564597230098,0.28698084988266553,-0.2223419507228173,2011-09-26 13:11:16.546650957,1.140022576
49.01802311350899,8.4656035326735,115.07205134432004,0.26861230552016274,0.03445103331037849,4.239862963105103,-6.873841612714491,-5.36469825677186,5.053465624583556,-0.03112713845397709,-0.026720202643819017,2.7266807728891735,-1.0498492369677703,8.69819188414933,-0.9344493330279953,7.418929785489265,7.393286325212864,-0.010964686192806628,0.08594622453000295,-0.4832535468815594,0.05668976910264795,-0.14165705936074421,0.6122236842549842,2011-09-26 13:11:16.646687706,1.240059325
49.011275368297866,8.435002438874797,118.54713374657733,0.025561766065465764,0.019392489861739498,0.7976399350766558,11.67467436192506,-2.5835195381709113,18.046297358629783,-0.06035874753693174,-1.3912729512124082,-3.762007710130328,-3.1974930585694294,8.756916533581268,-0.8193861820349209,-4.597657208151908,7.000181413317439,-0.07605420084650151,0.11621202534597619,-0.38574587746491046,0.01090511364274253,-0.04586984345064792,-4.474561625432033,2011-09-26 13:11:16.756693122,1.350064741
49.01693564840908,8.434523497307655,116.52424044998773,0.006457409616298028,0.026374000611463562,-1.7910708795016548,-30.330890982541945,8.845699895334905,17.261044856818646,1.2267346589872314,0.008130900491066094,3.5759818079262087,-1.118449368450141,9.262558494882887,-1.35269487133673,0.7912516881818452,24.741069893060946,0.05875604170663236,-0.09575550636353072,-0.28174998105287363,0.025732868679470867,-0.003968971356339869,-1.984469515429803,2011-09-26 13:11:16.856679739,1.450051358
49.015334983828765,8.431034173911907,115.8727532143653,-0.029561595446848256,-0.06398552282618757,0.5775470496266006,8.810271132893064,0.7686533869918868,1.8570596017889116,-0.1171447194719588,-0.2388712761718252,0.9478829945699128,2.201823373757883,10.30072553405521,8.718990819961505,-1.3229227282894567,9.522309251355164,0.20653541790634183,-0.05183631935257701,-0.8106711301732693,-0.071063703210339,-0.07643625884455997,-0.8865430253876494,2011-09-26 13:11:16.956699894,1.550071513
49.01671111179585,8.436000485243758,115.90553376019649,-0.001587740068862243,-0.012045811321837118,1.8239481980160082,9.547169653009016,2.379829236278836,1.4252063000152626,-0.01422437121186021,0.09268184933291497,0.08094087809940609,0.29000955143194185,9.50812567349377,-2.6256172468520154,-0.025085521214031736,10.639242234416605,0.06189304638618257,0.04144212856272717,-0.600342972626098,-0.38273978179139845,0.6133392730427034,-0.31851994295162633,2011-09-26 13:11:17.066719394,1.660091013
49.010594795630496,8.46670957760272,115.1432853780153,-0.0558079878074381,-0.02158181199884124,-6.3875127987746,2.0190363129877285,-2.2880820622448215,13.768257162626313,-0.2289173561988863,-0.19589649705780843,-1.8133764680840607,-4.634355990041033,10.834328848809765,-0.6314949105049648,-3.599678323085043,10.66395013003163,-0.04832690442826047,-0.22729754993389722,-0.45932640850348255,-0.025331567910430206,-0.7813315776465983,-0.37096062104132593,2011-09-26 13:11:17.166680706,1.760052325
49.01507875613151,8.441199054643569,114.98265854294073,0.11763538517538691,-0.015153284441761655,1.6954573730393774,13.668462539501228,-7.775154234748047,2.381340314440789,-0.24486496091794008,0.13175148999969016,-1.9206547371770764,-3.7217162705673745,9.856027423310346,-2.1161787841493944,-0.15264027532628122,7.248831135691859,-0.014617302508012624,-0.057704603344495314,-0.8330803388470533,0.003186872901248596,0.07334904737228763,-0.9587248247045391,2011-09-26 13:11:17.266701079,1.860072698
49.01635330263487,8.436272593254204,113.48231644880562,0.05808141969200703,-0.023480039985412097,2.188569784475328,11.63908637986762,-1.8898798414964046,12.106217287901263,-0.18776684542188246,0.05449523139110203,2.237606203466164,-4.821654057114567,6.634857227068407,1.3650073818453397,-2.7837063900397503,9.979082329608797,-0.17965880026547498,-0.006323508534684249,0.5942694517486273,0.028652837341409648,0.47265203518935467,-0.06635998584754249,2011-09-26 13:11:17.376674167,1.970045786
49.013706133490864,8.441183214006763,116.75328261516857,-0.1013139098766378,-0.013973282990428135,0.3154388747715575,43.26614147456691,18.587092406957197,3.249230009163819,-0.5646373546882125,0.1405353810573838,-3.8293897398963583,-2.389524114705288,11.037153509786052,3.6924241519007746,-1.6410930364316256,7.596817076670385,0.02581784038887152,-0.10800161450064469,-0.22414431340437277,-0.3855302913081219,0.04731289074762376,0.09603473015006309,2011-09-26 13:11:17.476652265,2.070023884
49.01306132340655,8.430352697462917,114.9071469545006,0.01218033132111039,0.03273389967524279,1.2957919569444003,-6.835216583726962,56.72389920197199,5.994010687834849,-0.1377820689473543,-0.14842343742132968,-1.8808558872238161,-3.829014591812506,9.551759185278017,0.8941726995190715,-2.804531738590567,5.842751385500483,0.05585178128675494,0.018236262737865647,-0.16663954250593618,0.032652631209615736,-0.04439472408089117,-0.6701175998231494,2011-09-26 13:11:17.586709621,2.180081240
49.01559055428884,8.431612264836826,115.75485812152597,-0.04340002215162856,0.020252669391511127,-0.3952808414649809,10.394411814192157,-2.20602173902528,92.02113846446989,0.27580396865905266,-0.10092694761337498,6.40465216330101,-4.178383299751182,13.892852389766615,2.064664911521908,-1.630674831453387,9.724335105790814,0.00842746227504769,-0.07128334152551552,-0.4629771938135673,0.07472352992888086,-0.0565148993454396,0.09665878954452928,2011-09-26 13:11:17.686822197,2.280193816
49.01296813622421,8.433102393778848,115.41108266538261,0.04014156001431321,0.04627029716715168,1.6792371170756972,2.760964571507698,-6.679189532241862,1.284411461078129,-0.5406693785664147,0.9702805747109553,-10.54135676876966,0.7099829314471133,8.775339587669492,-1.384324573563328,-3.901471197153463,16.132021748479307,-0.009784973578906928,-0.043441177835906425,0.3511131027100736,0.01742115542460633,0.11959035442643952,2.032643280350275,2011-09-26 13:11:17.796722103,2.390093722
49.0161662319695,8.437321034247528,115.36031967797095,-0.031091218244870607,0.005357923282614645,3.107746922305335,5.887033633682136,-21.639212692815242,18.007193754622037,-0.21662065680146386,0.18539154844767347,-1.0524168798357159,-1.9922559158656856,10.541807207995783,0.8749092826578047,-2.58239644266712,9.174222227601234,-0.013619310340156995,-0.0171206352513021,-1.099508028729239,-0.11197201237542587,-0.07469540946246046,-0.9049934856486013,2011-09-26 13:11:17.896691258,2.490062877
49.018865110446214,8.432568144367702,114.62237628668333,-0.011073533074728782,-0.012050934068215688,0.5619812921723452,12.413925522248427,-5.964207585484592,79.30271164363631,0.014379709738369717,0.19833551445472744,-2.6793670551155984,-1.0337679655228593,11.30165482994718,1.504231947244914,-9.252226658983213,10.06603997414301,-0.07612676425105325,0.07521418007880801,-0.343038770611243,-0.10002680788827223,-0.05283755417355311,-0.7796274538587192,2011-09-26 13:11:17.996732175,2.590103794
49.019063190910785,8.440745561216232,116.66733160077357,-0.02278669409774528,0.021262162948194385,0.9411871661429388,7.426489525448202,-11.807297815649667,6.0209928863240405,-0.2557650704702821,0.25369087140252145,-1.5114488367067294,-11.430870003103012,9.016588814999462,18.33172469926447,-0.3693508334599396,9.72809606370617,-0.02264670502675608,-0.020779149528091283,-0.5747399347917297,-0.04336665688192566,0.07817094921885175,-0.7164083821799911,2011-09-26 13:11:18.096735198,2.690106817
49.01413025509203,8.43125950854191,116.29499629108363,0.015033288427123544,-0.00522288595092257,-0.3087598189056173,1.729669475397099,12.352345942332349,-7.580046274095986,-0.16602351869973186,-0.2499064548442017,0.6475732554435872,-2.9880213101517588,7.903374380975053,0.0468709876716904,2.9624725172762005,6.765941009995705,-0.018655366706377553,-0.018224461584241534,-4.726140742044364,0.0425469466090345,0.007785753959627603,-1.0643305345478251,2011-09-26 13:11:18.206914919,2.800286538
49.01719902522476,8.424919456192846,116.18174112600441,0.03182493683941239,0.015153584019825056,2.747204924181185,-1.4263880812967384,-1.7408635394925724,11.437496662344731,-0.3984515693901414,0.10948831111004735,0.8504421170450972,-5.256361786761163,12.350387027028749,-0.8209554824199834,-14.540020148236414,8.525161396067993,-0.00560137021599553,0.09444052123564492,0.11472779176413894,0.01457075839742522,-0.08654153704621088,-0.4416355008225037,2011-09-26 13:11:18.306756521,2.900128140
49.01574116249464,8.434826656063283,116.20729601876994,-0.02822819173707452,0.03706917637515033,0.9102390917543788,13.779030800433038,1.8312693512102234,0.28268869798625307,-0.396116221562172,-0.07648091317004402,2.560367726325577,19.698439763045204,9.251539242768867,11.550226870992526,-3.575734642867189,8.342902054958104,-0.08159877822735505,0.016146219472994838,-0.3314355107986373,-0.0722078035485457,0.2334710093513288,-0.20676298078448035,2011-09-26 13:11:18.416720613,3.010092232
49.017592854916785,8.432476321128686,115.82902522699617,0.05718207433922365,0.03437485118977539,1.3704808600672056,-2.8971450989349297,12.291726917706855,-8.33273406450305,-0.09035587254215233,0.278353567481181,-1.016898355823503,-3.8144898057033965,10.540315362795955,-0.8302121170696437,-3.3119497710738743,24.423402768460967,-0.0023635912318545164,0.09766458423159391,-0.3074572660769095,-0.010524475505383341,0.006785906297906142,-1.5220971981485834,2011-09-26 13:11:18.516713679,3.110085298
49.01473714666355,8.437666907824008,115.0365376677923,0.007532700261922931,0.016563409263569223,-0.490441631211577,-7.12618802404549,9.971815590179142,11.689072380570742,0.00658500760398581,0.18731382512256847,1.8770849053782566,-4.5313568424118555,9.854420549429848,4.542629899002495,0.4449092417252234,9.767063833995577,-0.04261491544990333,-0.20326878124349745,0.5274774206408137,-0.021153914868362468,0.037077620147306145,-0.8435395529935221,2011-09-26 13:11:18.616715676,3.210087295
49.01661023226774,8.433505187123997,115.561791750748,-0.0016570096719554144,0.02065746845305095,0.13010592361105855,1.6650264353169995,0.24883630690375425,7.945816990937511,-0.30509656968250093,-0.057044971118617116,-0.25461185015613963,2.7177163971412015,7.105302586023533,0.833460586313819,-1.9016282360820445,9.402287200410166,0.12542713854206616,-0.2918571672039983,-0.8464774123379122,0.4728265366195635,0.04619652573572061,-0.38216743961338795,2011-09-26 13:11:18.716856373,3.310227992
49.01625813831142,8.452478219993647,117.0013159292594,-0.017621023339873424,0.005509743570067671,-0.5258371667611016,0.726849975813062,8.294554680478011,-1.6656641377254386,-0.2219505411676076,0.165644093858195,1.619479400265398,-3.097128019050985,19.92588664152909,-6.989015315576263,-0.05029345691882181,9.147478237478545,-0.010325742195889654,-0.048217439673930544,0.14464921405111475,0.021244713306838425,-0.03206649320807364,-0.2797854172745198,2011-09-26 13:11:18.826721793,3.420093412
49.01482690074922,8.433063266426124,116.02050214343191,0.012081103863137755,0.022698849157731862,2.001479816799164,-11.247549917164473,30.279201688791858,14.786374073732823,-0.045901194482725866,0.12192220819978597,2.0383418557619164,-3.9315367905313625,8.87825859804459,-2.4030083149562036,-4.1251678173088955,8.891918719347892,0.0053794973597435045,0.04823058097092345,-0.4017352877938897,0.13030459223313562,-0.06996378699093944,-0.6745494506977696,2011-09-26 13:11:18.926749305,3.520120924
49.014153213191,8.434201021598948,115.43172082802269,0.029415397465460617,0.006505393302418694,-0.43179533225048194,-0.1713703323301905,26.344608717428034,91.97472186810815,-0.17679181978135966,-0.15435257408324063,-0.8186831432329492,0.41570029785530815,11.32174234941459,1.7612348117987109,-4.9969880823016215,9.946375877962632,0.09779473710808692,0.026729449531949237,-0.1453451097645792,0.026073204435126576,0.40778791114967056,-0.012783758006606749,2011-09-26 13:11:19.036734727,3.630106346
49.01531772682061,8.43529074637357,115.28380858692975,0.013788540914591904,-0.012928737754640172,0.2884228622716131,10.284589090783546,6.842478589688437,-12.944967961301362,0.18920409203667124,1.1607501232027246,3.5327168706257295,-6.208090495397872,7.758700232995303,1.1686786126681592,-3.9106918996762023,9.216597109186756,0.009303202216146075,0.010342406375171056,-0.06092761410950931,0.0414953070030763,0.05507536188110014,-0.7937622700153169,2011-09-26 13:11:19.136771527,3.730143146
49.01480197478962,8.432406234364462,114.02725913551691,0.046615099212716435,-0.0156626239590607,1.2576126216233785,8.762708307399784,9.246857687875334,7.314548571126557,-0.04338797634222628,1.242476720311002,-0.8666252263864811,-1.8827241944557112,10.031455141717794,0.27541348450338843,-6.295677558068894,7.324663350222519,0.0810866423961917,-0.6554736327358504,-0.3247317335024522,-0.047886019481311555,0.12140485087984325,1.8937847777075367,2011-09-26 13:11:19.236901143,3.830272762
49.016243651508255,8.414254880343291,115.26425112454923,-0.017376399594472527,0.019697996716368973,1.1802767685551296,1.9791509641437708,16.506198978961457,7.635946215876325,-0.021780323913383505,-0.06468486906920809,-2.8785464177419056,-1.5553923166115542,8.744367925864406,0.8724894687194824,-3.172470951811605,8.640483193948203,0.08646963173898095,-0.03512001798699052,-0.581512004126481,-0.07067121051573783,-0.04103866516669455,1.0069616213749213,2011-09-26 13:11:19.346778579,3.940150198
49.00685082811799,8.431641808139316,115.816717000276,0.04555222364172129,-0.011405705520756038,0.7943722925402696,0.32195495740261526,-5.247347965156709,-22.01086490679256,-0.12395729781554962,1.5727778840671545,4.308003265032529,-0.01989545475313581,7.387103173044686,-0.5063516106910204,-2.7901126788282915,9.123753095035728,-0.1930018751272976,0.024162413017071213,-0.41518443821601214,0.10325353502630209,-0.07531845877667666,0.26741312978042286,2011-09-26 13:11:19.446799303,4.040170922
49.02261314580013,8.439123172338608,113.6419573825854,0.04374708476822785,0.026985377752344355,1.1570467499676447,-2.968236577465074,40.312675079262554,16.87337562542647,-0.023826556279560013,0.12905716444361345,0.7038028795633156,12.504400481279719,11.627345261020997,-0.18253113456965964,-2.2829671366584106,9.926520833518776,0.008785746847939417,0.0230035667314158,-0.10495947711776646,-0.003925606625286684,-0.07668723519216371,0.370741410063932,2011-09-26 13:11:19.546777509,4.140149128
49.0182345825603,8.42787523109144,114.72018386479384,0.054202185451515505,0.08127793331741279,-0.9152762801628446,-23.601494117925057,7.210228675245192,9.751749183800735,-1.3310846487688441,-0.15181558591923444,1.588072227260892,0.6359772309597385,8.423192726171704,-0.031545900026417106,-0.9185127852628955,24.045941814722656,0.03356239647632901,0.2914011260310416,0.4153861984802958,-0.24948566199054528,-0.0571044474367873,-0.3801180950437729,2011-09-26 13:11:19.656780167,4.250151786
49.01457104582879,8.477166451230156,117.46210566585808,0.03918107689572933,-0.02659709965773897,1.7081068365813348,-1.1380942675739085,2.390193611598396,-19.723087630347216,0.04140638300124531,1.854264866249345,-8.628730188162283,-0.7905989093419056,9.352165598552958,1.56578933739753,-1.5535113474806834,10.270971321123785,0.01179873661886424,-0.007791381061591277,0.22523534831489106,-0.029911711832722225,-0.004346429203183083,0.43305473140138695,2011-09-26 13:11:19.756813482,4.350185101
49.017188668862154,8.435290356649217,116.24976474838346,0.0564583590421978,0.0161641879418854,0.6635388490015146,-1.7952604487494472,0.3842184294001356,14.595963825128754,-0.016488174418463054,-0.17384823777558253,3.956053716513565,2.3309880218332957,10.681795531525374,4.4449040520778995,-9.079236038676761,9.854979387813362,0.013317177634225501,-0.08239018778807235,-5.147747480207826,-0.01116144544531008,-0.6552872964751035,-4.113679188237876,2011-09-26 13:11:19.856788448,4.450160067
49.01861781220594,8.425485555324535,117.0746226664278,0.04931198862511624,0.006080642224744156,-0.7154359741100913,7.629670106616745,37.89679676447394,2.7485893267264645,-0.1860411828072103,-0.1370553269782046,0.9258015485804616,3.2371267793874425,3.165683165514209,2.359793071572335,-3.8116071388050674,10.936754002278251,0.009581257270891857,0.042358104990910445,-0.19624712085785656,0.028668508419626086,0.05407023785048638,-0.4658097163168658,2011-09-26 13:11:19.976774831,4.570146450
49.01782288703469,8.433489044087992,111.75877552132425,0.03178011924656452,0.014565181877097256,-1.1254709236146105,10.037572250963162,-4.639946043306918,5.238931688629132,-0.18143610828865953,0.17472435821765758,2.8894333862780988,1.7446643295737534,10.606706453413237,3.0760838979595633,-0.2794438884374261,10.959826344423064,-0.026996686390189446,0.01103999770994319,0.39442135178046916,0.09342497008638155,0.06854345852927018,-0.7617838395600333,2011-09-26 13:11:20.066809304,4.660180923
49.01773951895396,8.442952054934356,115.75270073326455,0.01254936402864162,0.0038105504750871304,1.4846579040286274,13.123689776774347,20.427257274247104,86.58136296594374,-0.16704135362712008,0.3195193045355857,1.021422916968524,0.13113593272493412,10.344441722997878,1.9785166953700564,-0.2579302536151691,10.94996096886092,0.012307924347193326,-0.11914146551619628,0.07024459292203514,0.01860262298884507,-0.0935153038311128,-0.07295025283029695,2011-09-26 13:11:20.166817915,4.760189534
49.01461788172769,8.437433904082079,116.3568267531608,0.01939134708314076,0.000258335435659714,0.2430151815923623,4.636825084084201,13.922358134452868,-0.4208917774065988,-0.058100009975464356,-0.17958913079144428,-0.6475262238465616,2.190765880076003,8.563987218637243,-0.12074878177266113,-2.882374571264792,9.197172488117863,-0.011796554571928347,0.02560757651385238,0.1100651679043716,-0.02714772727968101,-0.024553631942773966,0.3051319921005967,2011-09-26 13:11:20.266851974,4.860223593
49.01602684421974,8.462890600814893,117.12468018267519,0.049221027137196435,-0.023843008138994117,1.4869297140118358,62.569295154313856,9.183454295929964,12.732527379521226,0.17904924705465414,0.4499530278307275,2.8674665708607536,-3.7156683995516264,8.932999604143323,-0.26372819765229893,-5.717996033598451,10.51507104394005,0.0011530455490489384,-0.026853385292472137,0.028208429695631275,0.4668486086923007,-0.0003717478229036241,-0.2821454728941264,2011-09-26 13:11:20.376877673,4.970249292
49.01493864581625,8.425741098525595,115.58019328761506,-0.05907418585191061,0.013387127789360503,0.6986906555918133,8.356734072028603,23.229563493416414,17.538889602749016,-0.030209924845826627,0.11955035310740987,1.4783193422164247,-25.613916702802484,9.88878561940078,3.203535328283891,3.278299652320301,10.597645918713706,-0.47982381140482633,0.014762411784583332,0.058100226790782694,0.05030517762370214,0.07035530749994089,1.0795940528710382,2011-09-26 13:11:20.476832011,5.070203630
49.0256158161184,8.445275045987703,117.35457726144637,0.0009302590444251781,0.012555040696310374,0.37994578230623977,0.8843582383585278,3.2810538860281966,14.365324691060245,0.15491760713577277,-0.011159963883314044,17.941214025164292,-2.0460556710858113,9.75083569301273,2.4298819949300894,8.30636224503687,16.021961408248544,0.03544029555545456,0.017909696449530232,-0.5358126025441807,0.05431228911335467,0.1132360067992613,0.8441829628946123,2011-09-26 13:11:20.576903505,5.170275124
49.01352973071256,8.442111247239358,115.34317805490832,0.03318752899556714,-0.010991530502692757,2.01221301812081,14.63818274681473,13.143881724338215,20.558354653923324,-0.5466442266289688,0.1414937473338884,2.142636890672563,0.6890597371264764,8.486381402875335,2.0055533022439826,2.368096934663185,8.656711570990517,0.11136017642018377,-0.15113927648664674,0.3111466937275602,-0.04429146997884158,0.08327316684795616,0.11273190800899179,2011-09-26 13:11:20.686936057,5.280307676
49.02099240509845,8.430919800446054,116.02188935712898,0.1848323455969758,0.0009086980977123006,-0.4704445917961213,1.8076170898901895,11.551755696488009,-6.125311278464395,-0.1953550019741885,-0.1038130056928307,-4.506486184247873,1.4017497234659486,10.697317968466411,0.8819235383146281,3.7338082395068346,10.04108182012606,0.014903164845160757,-0.06571884783536233,-0.12938658727952485,0.06104467407883238,0.058317871792207786,0.9947614264402471,2011-09-26 13:11:20.786911163,5.380282782
49.016033845749384,8.431445366995476,116.76209748999882,0.07256758983145592,-0.006979872966979071,0.930395301569907,5.045351931060189,16.14428509899385,-11.101471550401257,0.9419665780342542,-0.4724001506228769,0.4283793815298691,16.08102624448469,8.982215571268808,1.879247232244579,1.547557095613799,11.992874112532967,0.04302472585787399,0.12858898076230552,-0.13150829981876452,0.03276966306066125,0.025577255920237796,-0.6861592602238712,2011-09-26 13:11:20.886885946,5.480257565
49.01526694718245,8.430876869415837,110.42202079699457,0.053432266335420656,-0.0006023789925556234,1.6811541447075773,3.8614151618022126,3.317249470188224,22.42841735652508,-0.02692008636923721,-0.02174028816162188,2.4298744272236728,2.064623936060406,8.703823580971585,3.7253476294890717,1.2569467029784358,9.030996802473119,0.049733067637343885,-0.027411475884624763,-2.177905593047336,-0.0004504376674944171,-0.06254113971769287,0.06172156579344586,2011-09-26 13:11:20.996873954,5.590245573
49.011933242710974,8.435206049254068,116.11290798958835,0.030120341072332874,0.020576791979312233,0.5373639754456054,10.723541719762945,3.924650915216594,28.320533206211078,-0.05161295626446635,0.13612115247446308,-2.093104443138377,3.704232562111478,8.189448420605528,2.0992503548826495,29.96782987943968,8.722035418203747,0.1458108517530524,0.053710620436293946,0.3213689282549703,0.030643547255649963,-0.06865140450005872,-0.08238063317377842,2011-09-26 13:11:21.096923900,5.690295519
49.0142047278263,8.46994222112966,118.77150934308992,0.07903614928984311,0.012112855803834104,1.7852783320595549,11.662201587597593,6.934870958616325,14.915377998258169,-0.024293520740136874,0.15493460982720952,3.1597094305675366,6.530751517344343,19.3318083434785,1.8871711683597834,-1.1975383355411628,12.60163297268565,0.018511439646229418,0.025085574328579097,2.8215676428277687,0.07800476212106086,0.043431170304300895,0.05957719835398048,2011-09-26 13:11:21.197096641,5.790468260
49.01790204811635,8.434392129784753,114.70829795750652,0.18548511079710936,-0.028931493008189244,-0.02006891140049516,9.35052825870352,13.686454723300598,11.655490004164264,0.03387252912530915,0.19902079683198448,2.092521844565036,0.17289902862432827,9.262443277145797,2.8126898058257854,0.33242189007866296,7.737652306639663,-0.005409370967954052,-0.013056364753315782,-0.3963593845697479,-0.028438262991419903,-0.02207508548525274,0.6104703086704035,2011-09-26 13:11:21.306873501,5.900245120
49.015615571887835,8.433848881514232,114.76438366896411,-0.1095066970560165,-0.042035359855401064,0.12543867979170087,1.3395009070960144,6.795369067444313,-24.781449010091848,0.014756438684978355,-0.11557079839996386,-1.591126367866452,3.7245187838015186,10.2191898803814,1.8149662258045272,5.759481012583175,10.141968117494887,-0.020662899051466302,0.051245711441516566,0.09452245431059338,-0.10890407142828845,-0.014444988187953768,-0.23769951068615927,2011-09-26 13:11:21.406934840,6.000306459
49.01726390596122,8.435539199166948,109.65722623809634,0.054830364658200695,-0.07004644323298136,-0.7296273519160807,0.292108069356547,8.798851929837694,55.34222661931108,0.07505317181232207,-0.02835395564749029,2.9773154790608425,0.8305494674027525,8.726797499707574,8.479509176872858,-2.6065298759617703,4.566641098063668,-0.02464243208664589,0.0999500565642791,0.4752957350556397,-0.02483628346814899,-0.06946548087136675,-0.4334342313441338,2011-09-26 13:11:21.516878213,6.110249832
49.01327112366638,8.434312677306217,114.28882311035827,0.010658594810150301,0.035662429020340544,0.9348888165453098,11.034283200691252,19.442370609703033,63.47353155566991,-0.17371811823241806,0.14874193083489806,-0.5629950211507789,1.816349602011326,3.1093678316609195,2.5266069189996463,1.4731633559560935,10.305034190306369,0.005780599767310855,-0.06607685943883151,0.2802841627356531,-0.04342465976268935,-0.010560015804401982,0.5813403970146013,2011-09-26 13:11:21.616881381,6.210253000
49.01529040915685,8.436351323154256,115.11850745284131,0.03988609794836944,-0.00299363582289902,1.4798687362980594,-0.16633038144501988,9.08054436224064,25.424636461398585,0.17283315655017634,0.05046467835567038,-2.36839674296734,-0.5989850754931179,9.889305615160373,-0.11526600206501358,2.839575360384524,4.308912528495429,0.02525068790897521,-0.037096229398403235,-0.009476963652136065,0.001327247734105275,-0.1662221648781126,0.28693123553508065,2011-09-26 13:11:21.717174213,6.310545832
49.01669241355234,8.428696732277738,115.45241424544689,0.03510225623613236,0.011058264472703173,0.9535800478108332,42.41908072901655,40.46748921057108,53.350046026177836,0.04027146714370371,0.03673491900435633,-2.0182362508491583,-2.7219145996905088,8.984388990476948,0.7907768589928851,-2.009374593855898,9.103197730177092,-0.052626665421550346,0.005243873290546451,1.391750415221482,0.0334246652333238,0.03407224496633793,0.13330021477153764,2011-09-26 13:11:21.826931673,6.420303292
49.01504591120637,8.427559336008656,116.27121780145211,0.0718035730077286,-0.05462612217110905,0.7060628438297792,5.6212230821869715,15.168668348082935,3.740557595869168,0.006994979505471943,-0.004888802634025906,-1.1374998383544632,-7.27507134740613,8.798755394332085,2.528487596692084,15.767418847487605,8.540422434663554,-0.015840295111911314,-0.037380573563623815,-0.3056505340847019,-0.09219868161683205,-0.11158670578135922,0.009476173002566167,2011-09-26 13:11:21.926931846,6.520303465
49.01928455146589,8.437722693534367,112.99311386739208,-0.10200949396861678,-0.12045469887000218,1.3866566995726246,-59.678424082051954,19.457991867787854,4.22345637465629,0.10513188340068978,0.16800078345127845,-18.118031369179246,-7.652385304856335,7.419367570383705,2.096224190343679,1.9899080297851046,8.89253294928043,-0.029718137386700545,-0.028287321193810434,0.24178738308445138,0.33192005694671445,-0.08229932880273777,0.5407853550827215,2011-09-26 13:11:22.026939148,6.620310767
49.01719914357656,8.434557754315362,116.16446531942225,0.01710700936241738,0.10556018682073957,1.8736435817359254,-2.55475865950638,3.172751519877581,-11.589506998680623,-1.0621588881686062,-0.31121203553799814,-0.8699309827021753,-1.351617473096629,11.112748633876928,12.417524099707066,0.39929671173887915,9.076840954006896,-0.08579442487637542,-0.07568824076833097,-0.46135132836806525,0.046535167305979556,0.09295977304330899,-0.7288563953781263,2011-09-26 13:11:22.136944955,6.730316574
49.01938067551195,8.434174252731632,115.42728282866209,0.05523909163082127,0.0022745944614275047,0.7506300427812516,6.230464621805355,12.097924368789885,13.356427141291324,0.9447119245217158,-0.11481438975888503,2.9168194346122465,0.9442797529870363,9.611492288871412,-1.3048204281217957,-3.207203618953822,10.487434036062336,-0.014218620638901305,-0.022437469926164057,1.9486100195872833,-0.01617244090375383,-0.12268160706001291,-0.17224113410297862,2011-09-26 13:11:22.237165051,6.830536670
49.01623981297144,8.436748262491395,115.3601395731232,-0.03431132164170779,-0.026702096782229696,0.5205393218221349,29.92673272430955,16.486445750770066,18.270740904687035,-0.6362371024035888,0.06397902227075179,1.955894360785633,0.5293638535225602,9.489696948871662,1.3880819455266697,2.43135673079329,11.030778437958569,-0.18199860570432372,-0.0190694771597554,0.6908057022986238,-0.19444515741030827,0.01057432751536069,2.8534203367530653,2011-09-26 13:11:22.336929431,6.930301050
49.00641613259943,8.437848597808527,115.63090207209666,0.0886450931387164,0.05142493737389896,10.408422808871688,8.435455619146023,19.529418174658062,24.485010025256386,0.1610155165186711,0.26236637932305695,0.6441483353361499,3.014261381103644,9.624260698750886,-9.793999861556346,6.4211968758969755,10.8763844602007,0.025014846565993624,0.22434308853258175,-0.6927427688284375,0.010830942662238321,0.08916806677071545,0.26592971006223165,2011-09-26 13:11:22.446958562,7.040330181
49.01797105473973,8.437780066148068,115.5997065496812,0.04307529531311494,0.010159570020875818,0.30258938215033776,4.468967769854867,121.39668312217499,34.804452692691534,-0.17317423541301613,0.18738953132876468,3.1289055339197653,2.538319101812453,9.5213310545361,-1.3869358243076828,-10.51199748949421,10.075511217594869,0.0227567142489448,-0.000567911975859238,0.47071355391497544,0.045811405273484075,0.15111750883637534,-0.24238831494524038,2011-09-26 13:11:22.546946739,7.140318358
49.017174632998376,8.43808148979821,113.28208612728082,0.01613123773617749,0.014824027498868854,1.086712448407468,-0.20171749491260726,11.637965720898187,5.06251619167726,-0.004090393169519391,0.20333477214384127,-5.4425642320892855,-9.54265968250988,9.771467152146618,-0.9303718247246889,-0.9584142755124586,6.935179703245673,-0.061093649245683015,0.0058204101881545595,-0.1537234575311073,0.0358241801651889,0.026359625614669056,2.2614462262425463,2011-09-26 13:11:22.646968816,7.240340435
49.018320858022456,8.420098785762736,115.33827705899367,-0.005911241637771236,0.0005075371754999771,-3.9006611684625048,2.4588529361259654,17.864779928202132,7.598659546037993,0.000246795110896678,-0.02067520094249732,1.0964594203093934,5.069939491086659,12.388234248136492,3.8675874849491505,-4.806123985444371,9.535474832494408,0.25821108994496317,-0.17888891681616814,0.3744579295644815,-0.0012764485546234217,-0.07873716932640282,-0.09675818391956899,2011-09-26 13:11:22.757019692,7.350391311
49.0115207876974,8.435926829903519,116.22895633131085,0.042115986658007094,0.09967232302515697,-1.627956808997908,-35.58771120381122,12.081066615516454,14.351143308687282,-0.09601992498968125,-0.16190065517474012,-0.512148221563874,14.444061784176846,10.928464887341473,3.2969405487164556,0.5002541384548554,10.842724139471816,0.01488680217360488,0.048859557098239706,0.39732183770953206,-0.023042458221428253,0.048998956836303106,0.25117581478303386,2011-09-26 13:11:22.856964993,7.450336612
49.015570428463874,8.44745887980817,116.45185981397847,0.01475698351756128,0.01249907254102764,1.520668111289932,3.6111629211174727,0.7617190364611428,9.739683071920062,-0.22424826488890062,0.9288871131108309,-2.329178546472447,7.833606351825408,10.223839307213803,-0.0733331728818517,0.5676957228176723,8.681128875116588,-0.0121586822533731,-0.008224696744187986,-0.160854882533931,0.022857960149144114,0.1343819460553041,-1.945941952823847,2011-09-26 13:11:22.966984474,7.560356093
49.01699894673811,8.433333848580283,115.182532898385,-0.026556615478684306,0.0902703937535205,0.8004571451078275,7.664496880734777,10.268149853550863,7.8422564852089165,-0.03246491758281437,-0.024345620931463918,1.225999857804727,-3.062104553464741,9.902685820420828,4.5344017788604285,-2.0312194245975737,10.67490705949757,0.01630639717027745,-0.6652776953877171,-0.10075658745909115,-0.030430885232802088,0.05475562295498708,-0.1860529090295793,2011-09-26 13:11:23.066992304,7.660363923
49.00479306062706,8.43212307432361,115.93271976848973,0.03814825460824768,0.002486356680945933,1.735952267013955,0.7055311210539505,-12.554507540783808,91.53413253501651,-0.08149980707597416,-0.16258543196644784,-2.2296438907919347,-16.429850174986747,9.909821575860542,0.5242088107978479,-2.8581414985022056,10.433717757894703,-0.007987693485368342,0.042964718639367586,0.5886762785558042,-0.034055473512537834,0.017991708382936112,-0.9128541633978366,2011-09-26 13:11:23.166972757,7.760344376
49.02691334895659,8.435750111983818,115.17157767666355,0.08179310286753487,-0.03735850276800241,8.242498514393093,14.600014239039695,12.464372921606605,-61.210254258493755,-0.8210003785283957,-0.04523846678037074,-1.232072515603108,-5.639836176925721,8.84144244848761,4.075903558496832,0.7285092677829706,8.803433783781347,-0.045862917731672906,-0.10108133247546953,0.008346467588373024,-0.038669065104594745,0.0872951486009234,0.0013410646725588544,2011-09-26 13:11:23.277003780,7.870375399
49.01909401160207,8.437799035848137,119.14959686664963,0.020795548792296913,0.02825224170195104,0.6001513469106663,14.914124406759704,-31.780493143447607,7.8798994826460245,-0.014622974099913057,-0.11012456284341264,1.9796254950992058,0.18762191770855147,10.83646980230551,4.644072357100161,-0.43714611136702064,10.234788561888758,-0.031697666560932126,-0.7401737553744456,2.1780255566876208,-0.03574833785602129,0.005481733330565748,0.2633371438027962,2011-09-26 13:11:23.376959182,7.970330801
49.014893643059054,8.444450260598838,116.13052891907645,-0.03952454220952856,-0.08579560693921796,0.6669328583316372,13.76676771299376,10.215550087325308,13.034439046189041,0.01687094850489226,0.12399806032037394,-4.8082667329902735,-3.6454871150465364,8.021882500964013,3.567506944587227,0.2400913852401696,11.250456706587592,-0.05274050807357727,0.029647335570602916,3.7913814641210504,0.09117018452501373,-0.031119755292325295,-0.04171595376466668,2011-09-26 13:11:23.476966537,8.070338156
49.01569005591763,8.437310245989964,116.42367713762711,0.11336300137831223,-0.009129634848263736,0.5719899521770835,2.658414294656844,18.62631513287441,23.996950147176207,0.14563582453864762,0.11879229927687601,-0.27298045082126665,3.1930473782440587,8.809906884008898,4.660164315380396,2.7410396423164167,8.977851140623077,-0.6252364516603168,-0.008759139976681605,-2.6992837382784733,0.061307295546009825,0.09283230877879164,-0.2626468056047727,2011-09-26 13:11:23.586994923,8.180366542
49.01784100546234,8.438287370442639,116.92288172632105,-0.07081695445609046,-0.01321913639558384,0.523689168973408,1.3674742871051908,-6.497288805900482,8.25264640468582,0.026400940228984704,0.029399833555800902,0.2296648176271785,-0.6496653799226773,9.112902153539432,-1.2736671550367824,-2.1839141740506536,9.028805859175186,-0.06893366100249741,0.014154525308436458,-0.16979270917212325,0.02168986691166788,-0.006568498760023599,0.07323477493744615,2011-09-26 13:11:23.687130641,8.280502260
49.01614667898899,8.432432762871008,115.04264323681384,0.045565030879872945,0.04477590516753782,0.8055261855627384,8.601210457666937,13.153348808429557,12.867615023053775,-0.07452283137840426,0.15690277201991037,1.5938325141905443,2.620868596591528,4.252475800074498,-4.348040300791841,-0.9902385937424575,10.583309630628085,0.05566286453996497,0.014239495825821267,-0.21839930006639569,0.03437476300263559,0.05624907739935022,4.072019094891716,2011-09-26 13:11:23.787050409,8.380422028
49.01363826006712,8.429995500816313,112.82293424721576,-0.004537644178895663,0.020427050626050977,1.347999196241991,-9.580430737870394,50.26619826333543,22.25864658209065,0.19521960313731046,0.10629115664063613,1.9824302122502726,0.05482179756632072,6.988284237388171,1.3759646115700173,-1.2006282361284026,8.646127258739996,0.005589617281646756,0.02603942506552113,0.4333011423510467,0.03506086983153947,0.03299395707141027,-0.304782713262686,2011-09-26 13:11:23.897014646,8.490386265
49.01365250684646,8.458562873150209,116.1979006669522,0.04911421371031001,-0.026781280054955857,-1.8753062753355443,42.93452120630486,28.776317970860145,11.386643251305758,0.2790943083723018,-0.9600847992622361,0.2826874106602353,-3.376773096176093,8.843835689318267,-0.09524122683330116,-2.5548042199718908,7.981591094831739,0.08709827756173241,-0.5200103281264534,-1.2093986500864202,0.10824127732985261,0.11250720172085804,-0.6179264427856094,2011-09-26 13:11:23.997014377,8.590385996
49.01823978469524,8.447626056193233,112.39550041938631,0.015521226497354698,0.02237301802634562,1.544010131906028,1.8199557111554823,14.672094422524129,16.72195935313502,0.08975833572441565,-0.05921173406882302,1.469127261509998,-1.9335886504727307,9.49585613915841,0.00804436577352885,-1.606307361847211,10.858502098013297,0.08054784149258704,0.018754926275413832,4.399257416615224,0.0031578720487830322,0.026127464395967897,-0.5377356301362535,2011-09-26 13:11:24.096978951,8.690350570
49.01183176423329,8.435100217183184,113.56044561513367,-0.006409576347656903,-0.05812865851997177,-0.5470043214239999,7.094388757745257,27.91565572030022,18.083981628970342,0.007501938153896392,-0.18020729918126854,13.316367894841036,17.715513995844617,-0.6900898369583306,2.047482186673755,-1.2793198593890391,10.146386808839356,0.02125027681471339,-0.13704336074041423,0.1800813589082396,0.03282527745960629,-0.012704284865951623,0.27857246401084446,2011-09-26 13:11:24.207105671,8.800477290
49.018675728389944,8.440347135111995,115.73489658948883,0.011424806398293144,0.08968449941863127,1.2686213041595216,12.531879661301268,-33.969897764162006,-69.680737863487,0.009849343881056818,-0.10025470424202007,0.5468186548784529,-0.9713477683062174,11.261816745852133,-0.02740476185224161,-1.4798220082551152,12.451026052940783,0.00793256940840864,-0.006319013449427251,2.1556547038247245,0.05007396846671422,-0.06979913174553948,-4.8688680866303065,2011-09-26 13:11:24.307028494,8.900400113
49.01559626977128,8.441482632292582,115.58715014333947,0.085737344642212,0.08978124670076601,1.1216890549624696,9.451997533810506,21.249777497141046,-2.9820933405297776,0.37883435762333373,0.02499441087667284,1.6842127570125691,4.3260467286583175,10.133632104611184,-8.639766829765351,-0.6606988194067128,10.076533574530405,0.006655553276004972,0.04993382391642267,-0.8037486390991874,-0.06710909221515826,0.04615201913660509,0.17169656541163475,2011-09-26 13:11:24.417025357,9.010396976
49.01611300464525,8.44187330695928,114.72607033494837,0.0190255187125461,-0.01907641561952911,-0.19265651278552498,3.7037985005731087,40.91247394805504,28.703781555460324,0.22807893572076454,-0.09023803221930228,0.07779930515895372,-18.215613456370292,8.924741070191722,-1.540715218090753,-0.1674833168229173,10.751980750521495,-0.256099633315036,-0.025988078509584105,-0.1496408500184832,-0.004676721840367475,0.27523270996417565,0.05184700476632367,2011-09-26 13:11:24.516986198,9.110357817
49.01473094292219,8.435027274721426,114.96788105240192,0.04083547810562405,0.005780067937218997,-0.6794470935102397,-12.82961091127394,15.763810582557946,27.966039206061833,-0.11182629624006084,0.10567204133672432,2.103124144628076,11.581315642307048,8.57148279445757,-0.30941258656378456,1.2969865495952604,13.863339265829763,0.06327308584887795,0.15342547788556657,0.00974107536573106,-0.039827704979539906,-0.11689258526105512,-0.044217185408029006,2011-09-26 13:11:24.617007603,9.210379222
49.01742094243893,8.472760161860414,114.964669866697,0.07753033683913625,0.018410213622544712,4.728079096915994,8.15448368915739,5.701037088557971,16.00017749085994,-0.11425423556286532,0.19183382654256695,-8.10525444805993,4.2881763213246,11.752976458939438,1.30930616244533,0.9380279001867372,10.35767662284964,0.07565425841722045,0.10297380113279934,0.010575898212113478,-0.0029242009637493356,0.807201337777002,-3.216819796949024,2011-09-26 13:11:24.727297675,9.320669294
49.0206807492624,8.435495121472618,115.63276984992434,0.02018335390448174,0.006906050400356977,-0.08593129951118605,-1.9241724067757753,14.79016532794327,8.38586882152402,-0.008117133056865023,0.046540570365131984,4.065354835723001,1.1046856943815542,9.262852317339103,2.3394463866919093,-19.259046948493314,10.858177386230249,-0.052348114293354335,0.02300799651992996,-0.1711922808482737,-0.0013050698344022789,0.006519255555784275,0.37645045652117454,2011-09-26 13:11:24.827037575,9.420409194
49.01674863606023,8.433193646819564,111.47185847677521,0.044378409498387075,-0.015654862093522466,-9.20566003802022,12.825958557603947,5.393322165708974,13.985669819993277,0.4983302046946206,0.1123891793477554,2.4461851023331698,0.07397729484785395,7.284436551090126,-1.215221182199756,1.3610811721560507,10.011370356989342,-0.05502004502803438,0.16639714999796948,-0.14239288870775701,-0.0349351416030958,0.07199633323846114,-0.3673744842966479,2011-09-26 13:11:24.927068183,9.520439802
49.01672956027059,8.433615232965519,114.24288870734391,0.02822938991290321,0.03951154101918523,2.206558643887825,11.936873833690267,14.596932093907599,-30.91170305915056,0.08110410653399312,0.055282767602456886,2.2321495732498384,6.5154758069985625,4.581772878531111,-0.7708760303323453,1.6492024523474977,7.708651424698336,-0.046758717711689345,-0.1407916977038742,-0.21885234007281767,0.6384053619695071,0.12119316003467616,-0.48252771549274426,2011-09-26 13:11:25.037007004,9.630378623
49.018795066953444,8.439666803341604,114.2001428923198,0.03422951893565314,0.030819004880320515,5.986649148046608,15.914552089150988,3.783741982022634,7.204407452225898,0.16980439658099414,-0.20639112031478152,-0.19259821486545703,-1.590855612203315,3.5675306740546064,-0.13834980796025986,-2.2067694366199544,8.831926296928476,0.007773123038215901,-0.01450829031844513,-1.4361013967022438,-0.002507622743254287,0.03288966292460506,0.8046014164835111,2011-09-26 13:11:25.137090507,9.730462126
49.01386625080545,8.436697003589343,115.83407492341989,-0.004909599119307738,-0.04333793748884182,-0.5248563436302038,5.685754497071346,22.736415701442553,8.12157874071227,0.6868127066324524,0.2261483646888719,1.454461972036841,2.365888400158778,10.14020861219742,2.582028645413925,-2.285039865980589,16.51663512644718,0.05929153670390204,-0.007254934337870266,1.1128827804383472,-0.030947490547102975,-0.04609003931261026,0.5696457253600009,2011-09-26 13:11:25.237218425,9.830590044
48.986870827396814,8.436291911593194,117.85711388417626,0.03809442744626432,-0.03639127014135574,0.15362569591211,14.915089277298172,42.319501465754584,-20.996638574660146,-0.042667864404686145,0.41523761076599097,0.12477733737957941,1.7192926526518395,9.031322977039144,-1.308977676471859,0.9167468258156823,7.01151268102166,-0.06862542213503785,0.06077303513159009,-0.2230353756729085,-0.033381387948573635,0.050848050974424054,0.23888038684431637,2011-09-26 13:11:25.347096196,9.940467815
49.01310823119319,8.435562291744697,115.31790201716322,0.06604863820658516,0.026351603583859802,-0.5252651997353545,40.63507816091638,38.80027934718024,17.947433559192312,-0.4004540219829482,-0.009102543359779697,-1.0447215120905686,-0.043406444204883377,11.409376554337017,0.20842182932715403,10.946906089462232,11.068261624180844,0.17178858693309815,0.16844772941559202,0.19429333692335765,-0.02939766332658076,0.04619839652029095,-0.7074154543500651,2011-09-26 13:11:25.447095360,10.040466979
49.01709274870198,8.437303204267607,114.92503020171874,0.06143988119353051,-0.1054701713518294,-0.13946834066938063,8.96034402144167,-0.9349672427127107,12.666448158324691,0.10156819199557285,0.20017230641207018,2.848367505497003,0.4631494121784741,8.294925673222885,-4.3254660153515605,12.192163638967099,16.758974973891124,-0.0008997004527416565,0.012846759520760066,2.683350530320065,0.08411877655154448,0.02850727516513136,-0.4609171124498569,2011-09-26 13:11:25.547118146,10.140489765
49.006763358008016,8.43998298663631,108.67810799214564,0.0009724361263181991,0.00841530347033093,0.7099886649973809,2.5057401141395097,27.772646130206766,-2.4246387536472422,-0.19262937178537498,-0.020623021828075783,-15.262587918729011,-0.9683580971752939,11.04514786830057,-1.238883373727046,-0.4715929790446982,11.472296773372195,0.048980746355774714,0.052171982246853044,0.06042731347579754,0.013020323362906329,0.5549855197694756,0.17208046836472998,2011-09-26 13:11:25.657062669,10.250434288
49.0169244551988,8.444838316974975,115.14923528544041,0.02741928874552184,0.025669272088171314,0.9751893761561151,5.898812918015366,15.43554333526134,14.718185254686503,0.27643446449485026,1.2710352542909384,1.5984047756161048,1.934930692711358,9.0789655490419,-1.0826590657960917,1.780836534111443,8.52936564316136,0.08642489157491626,0.619716105294947,0.4257122101686068,0.008183719728465016,0.07701504391838038,-0.1881861145842638,2011-09-26 13:11:25.757108184,10.350479803
49.01373446436545,8.46688202496622,116.90876747782266,0.0676452384804848,0.008415658181961692,-0.40201475060672265,16.579025521617606,2.494962435914056,2.3811026061905203,-0.11693528750881618,-0.0979546584352285,11.989286011976672,-0.6452424096050098,9.289751032371953,0.18403079582344845,-1.0200436202018297,8.734656072679151,0.018234778865483643,-0.08931149993206278,0.5372490664633974,0.12480776279122388,-0.020434073085231534,-0.13408295824437327,2011-09-26 13:11:25.857092311,10.450463930
49.01811087218495,8.436133309824537,116.08135150477491,-0.012094585973336874,0.13892289840982625,0.6309216027904987,34.83908144662447,-1.2336835197833924,-5.532099456665085,-0.08688531084522194,1.0424291088593791,1.9977953527701138,1.5594267208194887,4.3038206830610655,2.338099187268296,2.132523186681155,10.275917139955826,-0.6201235901844406,0.018946825351145627,0.7288787535807582,-0.011156447646115921,0.007588072961266547,0.5233059321253455,2011-09-26 13:11:25.967138011,10.560509630
49.00813375565926,8.440470156556415,115.8678069535678,0.12064638547739678,0.014727998289406944,-0.7675218738227523,-41.41833776663076,10.441533076674983,16.034742540853518,-0.10597750698817977,-0.03811957904340936,1.5666918696725507,4.014404732528577,9.549431897276934,3.9799562884759445,0.4133405307834368,8.90891111846684,-0.1318205693875684,-0.11580903710604776,-0.11931765394256602,0.0756499873035196,-0.003904400149019585,-0.0361468365372459,2011-09-26 13:11:26.067131821,10.660503440
49.018172967329065,8.440373807232929,114.24030164620407,0.08649097222282848,0.011471527338654829,1.14109099007345,7.508106837640129,-3.489976160625254,15.792697646063715,0.09481858984702868,-0.45028194912444514,0.3302997434800774,-0.9750020087007862,-2.3147767592232675,0.1676828558833527,-1.2788221293121558,7.7233680855273334,0.0009210151193370358,-0.04437019597300373,-0.5813364608231023,-0.01803456990094314,-0.10435293648313447,-0.2666650338586065,2011-09-26 13:11:26.177286056,10.770657675
49.015813454789075,8.433529024547271,115.32672247416767,0.09774624719248579,0.017430698960683666,-1.5867099138558816,-34.2874223267997,11.51848018821223,1.5204867635140857,0.15940415509619796,0.5816365681967105,-3.0511061478032775,1.9060785035365462,15.544223958434861,1.542500717211896,-4.460771453448064,10.259477533626841,0.06917992222021949,0.08097957797461064,0.8321604028467481,0.03766634857332823,0.0795777196082321,0.21466890517007642,2011-09-26 13:11:26.277139690,10.870511309
49.01774557177312,8.432931306214574,115.5198055952626,0.03782486307603104,0.042229821830306644,-0.3600471210417501,6.947473224000435,2.970882025484827,17.398586884883088,-0.01617499187441202,0.12583006066401728,0.8980966237648405,2.5783987127757113,0.20054139575955254,1.4924858786299824,-0.07560943186257502,9.915550134304233,-0.0074233613173749855,0.07830502583679874,0.1788536310297381,-0.007627279434507769,-0.2513696317065534,0.4695437644711951,2011-09-26 13:11:26.377090803,10.970462422
49.01726167020845,8.438951719073664,115.3718854600256,0.008374133713497212,0.0002949066806137938,1.5586274403325273,5.413171005857537,-9.429393632799862,16.72628769207858,-0.42816979577817066,0.08784391682303111,-1.6999119531411129,1.587136734504643,9.884317167925772,-1.0608246159552681,-0.3385660774013044,8.776580907114244,-0.009109994565573789,0.0010319906947097585,0.6117451206085938,-0.044587302866156614,-0.024352416808768273,-1.0690495223094754,2011-09-26 13:11:26.487355275,11.080726894
49.016095003257874,8.442810582411733,108.38777491722055,0.02900112467170813,-0.010186892636832435,-4.056618862983089,2.0991605127427464,5.714635935601966,26.49472804109056,0.04043809971280941,-0.17426530015993208,1.6597944321520197,2.4207453336495592,10.813732928862478,-10.150066963936753,-0.555527322544967,10.962002885733778,0.05316040083097903,-0.03896883577079939,-0.05069152926759543,0.12966484374957588,-0.07759918950573377,2.014782492388915,2011-09-26 13:11:26.587135616,11.180507235
49.0167360137249,8.441864038703088,115.31905507633068,0.23514461999697947,0.026272607481004066,-7.620505068521836,2.1550220443079855,59.33875425576336,23.712027350090473,0.08063610104363961,-0.295837858084647,2.5381055410095943,-5.546368138749689,9.355924462012979,-0.18428726518229985,0.26337358881645634,7.504800637432297,0.0886877728722233,0.08598310523433797,1.268026281241113,0.013438666946587977,0.20675951404547602,1.35839919556049,2011-09-26 13:11:26.687369188,11.280740807
49.01498487320942,8.427141788154552,115.14815305967049,0.017836274274475917,-0.014811337781715311,0.12067311460832092,7.083053031369309,14.804931232372745,8.017820357189365,-0.12662143991960453,-0.2329351329896307,2.280574852421286,5.138469660436076,8.827510046786154,-2.8286618841180484,0.8329069460809575,8.534146707494797,-0.02891866352363548,-0.08897546285202045,-0.201631041328694,-0.06142694804537336,-0.04803090516376697,-1.1066175410658796,2011-09-26 13:11:26.797142748,11.390514367
49.01757161630206,8.427563785207504,115.26704490865211,0.024740926881790703,0.02251013708230775,0.09968841887600255,-18.298090410472167,9.55825497769897,7.259041974583893,0.08182430130109335,0.054240945872321825,-2.9147450909817505,3.103977057845367,16.87111627508465,-3.3067209741339387,2.7849831226314103,9.618182626223785,0.03557095446902947,0.13047519901100743,-0.23000247948964775,-0.16833400065186704,-0.30674219537100944,-0.031150957173516458,2011-09-26 13:11:26.897137128,11.490508747
49.01811511024376,8.446456562462643,115.09336549259508,0.04778647449411928,-0.03131879257998971,-0.7686272452906727,11.691931101473166,-2.0158149143950226,15.571672946815303,0.13190735256123398,0.3625996927107414,1.2068731516370375,-0.28675541355349876,10.441225454057141,1.1853303725053697,-1.7682058372323994,-2.816739852272182,-0.025856966400621947,0.0023922642930926524,0.7394180934631115,-0.03491808184614281,0.04567205821492011,0.508162004938117,2011-09-26 13:11:26.997132054,11.590503673
49.00553283113837,8.436586693281114,116.09719401403893,0.07783118282909648,-0.08295157878089482,-3.451335079154438,8.94148956953844,24.68543059246391,20.07559593035767,-0.06739464777499207,0.22972330295669413,1.1145024989994836,-8.239301652886411,9.8512804337529,-9.384969636934327,8.851140471399479,11.35843810345557,0.030013172551406196,-0.046878290579549675,-0.6165145084376772,-0.03082129669232764,-0.10336000429185441,-0.39423520048098404,2011-09-26 13:11:27.107124759,11.700496378
49.0196362170435,8.433096410328444,115.03901593502263,0.10701023287606715,0.005024121792848255,1.287190766030721,56.96716477559544,22.299675822789947,-25.63412664339886,-0.19386758943763766,0.20546503934836455,0.9391751156207048,4.3061463925423995,10.001088240955033,-0.7251033096564639,-1.4561808731757597,10.368943302786397,1.1807250286314207e-05,-0.08107638873605914,-0.2882151575857594,0.009748122506977848,-0.025803827807976267,-2.662705332685226,2011-09-26 13:11:27.207302926,11.800674545
49.019352733867656,8.411031420727847,114.09122614905927,0.04156949383361738,-0.007379071734678791,-2.06328801226004,8.413719218536299,25.876396637984776,16.951532720485453,-0.19491422833542701,0.2659193716418206,0.14178765393990536,3.750604502346131,10.03483416206316,-1.6129446031363763,-1.7690094204023066,10.387447421203326,0.28624854668271965,-0.06990611888516518,-0.08065510998270359,-0.024900986667730773,-0.21178539044501143,-1.5330759051836758,2011-09-26 13:11:27.307160168,11.900531787
49.01250959288418,8.440640248342774,115.90815086826039,-0.04500055809216068,0.004367841980945726,0.4819197556717157,14.494708148618829,1.4195371860485633,32.956595155649524,-0.022334148877905937,-0.09675711950963548,-0.9815813015579413,0.12396256452150584,9.004040575141254,2.684892510983897,1.2677443536772437,9.443706813344873,-0.07449825961418576,-0.05069761274790883,-0.19053648437672294,-0.04866351463001896,0.10391913461238567,-0.4731514758340089,2011-09-26 13:11:27.417143562,12.010515181
49.01563161652105,8.4436797224876,114.69518383366368,-0.01130210430921276,-0.006221057140431074,0.8258763202521735,5.65119050018486,24.74835034967603,13.484615786699894,-0.16265023685200714,-0.19123767708812553,-2.725161664147513,0.3193203213438527,8.173774895804415,-1.1794330379560511,-1.4113948958688307,10.687965086262519,0.22956702588805622,0.08717339783662009,-0.30110245798722457,0.08430306202849583,-0.05310116393458559,-0.989494845740505,2011-09-26 13:11:27.517163169,12.110534788
49.0167291287914,8.439203661322772,114.15677247448797,0.004283604820623899,0.01932379487039529,0.3455789633104919,28.56021007505637,10.725191596193959,15.412382172529094,-0.18362687723794444,0.16197443060464628,0.9642925149859471,0.4812974400883942,9.151369330237776,-0.4886433651523491,3.2304553341641684,8.692002299768035,-0.08274307799411106,0.4193745693500109,-0.10971564859776396,0.0353033074547955,0.5380693529612023,-0.03020455791702492,2011-09-26 13:11:27.617209959,12.210581578
49.01072173457484,8.432899425584475,114.89827772902149,0.019637395414646052,0.021874597225747645,1.083822382973958,4.581710243627642,16.008878134080145,27.667138687779946,-0.08904831570921308,0.10764557464777348,9.763926650409186,1.7433153623868174,9.4411109761044,1.5549246631155733,-0.011342664631381345,8.17101050691846,-0.01603855999360776,-0.05510274889489816,0.27127420827451765,-0.07198771185986853,0.08137361247697394,-0.03841150055998249,2011-09-26 13:11:27.727289588,12.320661207
49.01910987480449,8.443162725745758,115.97934855559139,0.058184760909469835,-0.09238053731502523,-0.020805430139533287,33.08537566977147,9.774357448789525,28.14637882837679,-0.24155590211024808,-0.47696168209072226,1.2914961742678301,0.9414459934776028,9.42960575948982,-0.90764323956126,2.056436724373654,10.602073207492978,0.034411384625624944,-0.09889844970048998,0.19086193136001584,0.05441941994833932,-0.09232935343854715,0.1464091714371577,2011-09-26 13:11:27.827166684,12.420538303
49.01254021159027,8.433514888009777,115.2298447837825,0.19574070686286876,-0.0056866531312102205,0.47823210584952647,7.978905387859584,2.321152842244338,3.0861701176581526,0.09645815012964289,1.1685374569774196,-1.3532609244968692,0.7911264607132975,8.681973014910563,-2.4617342901333403,1.2676588488694955,7.1302420833867295,0.07846087477326763,-0.10611303494098338,-0.5750934280583846,-0.24006297571651164,0.0511600082057327,0.5317336476917438,2011-09-26 13:11:27.937183984,12.530555603
