lat,lon,alt,roll,pitch,yaw,vn,ve,vf,vl,vu,ax,ay,az,af,al,au,wx,wy,wz,wf,wl,wu,timestamp,rel_time
49.00154582847416,8.4904993874372,163.10156230284767,0.1115868270848374,-0.26831646521119035,-0.4189970943975445,-3.613790512129539,3.6755770048849534,-6.548705657657774,0.4610117891516703,-0.8436834512265302,0.7800471428216955,1.133931330558303,8.602088660051567,1.1298166094476796,-1.246181638876938,9.682025801546747,-0.05471446061009641,0.35341123821058484,-0.43535012709565174,-0.18040037973093304,-0.05482387213259053,0.9812439208389645,2011-09-26 15:05:33.492908832,0.000000000
48.998667681005614,8.48682125563943,168.27354921673623,0.14388314139546077,-0.03507415388995459,-5.352920175669252,-2.2195606045700007,-2.0770630780361627,2.8516605150939203,-0.2035136533533406,1.260880668731426,-1.4225930307029147,2.0848477089825743,0.974995982753498,-0.514348675250714,-0.8104003650658522,9.577024118368367,0.0673108566951619,0.013173822457642412,-0.01651387850481824,0.12377699747458216,0.0693923796757973,-0.5546674492976141,2011-09-26 15:05:33.593043173,0.100134341
49.01505896070435,8.483363635124542,167.94443520330293,0.08924912078182302,0.06003617259860113,-1.0898340492789305,20.521847718975717,-1.5539429765968509,0.9370810802104729,0.0969500858542917,-0.459438990360866,2.1976133660354717,2.826142084752999,7.08051481194531,1.973859596765609,0.3640418440038809,8.80297488267259,0.05603132502151195,-0.4976298580313622,0.7900493646330271,-0.054232486961428066,0.04210535096780139,-0.16272733258004954,2011-09-26 15:05:33.692969739,0.200060907
48.999377844656195,8.484763303140086,134.00860116170102,0.13762752162516573,-0.23109123025314132,-0.6001308308121056,0.7151446777632844,-2.4447729923277803,-6.549781354606008,0.1458390872417963,0.5767453183297019,7.190613272851146,-1.2142283636170363,9.175536791506286,1.8113740069391704,-9.667164561169411,8.538132630988754,0.06136340506031297,-0.12076702680758929,0.006353763940680605,-0.13919106062622089,-0.15359390161151998,-0.08710437745254329,2011-09-26 15:05:33.802939073,0.310030241
49.002277245348324,8.482863212322146,168.52951220263918,0.0763430399579718,0.03814320340846677,-1.8869082958419416,-4.416032844905294,-4.759054757254867,-7.08116594737739,-0.08877309200033752,-0.16373914203108778,0.5823589655981147,-0.2594572175311638,9.866496212752775,1.4972235258726803,0.676765678431269,7.75090205633361,-0.01938617789714882,-0.059006033145222216,-0.12969478683797064,0.03914788768396841,-0.02870965601370911,0.4422956480707971,2011-09-26 15:05:33.902915688,0.410006856
49.00121009355406,8.487506799367887,139.55231327534443,0.0703854384708554,-0.25260794978911477,-2.1278775614639773,-0.543474922133841,11.707604082008677,4.700109721617382,-0.23254327637156616,0.6173178304151016,4.20728882198652,0.024172025421605237,11.29702260144951,3.3371055997598806,4.64016865902858,15.604441097960537,0.04392997346633539,-0.3780482840897519,-0.19898046469783834,-0.024449138618499153,-0.20368315082231767,0.9350826976274699,2011-09-26 15:05:34.002934301,0.510025469
48.9962093489316,8.480439624087705,168.37801845054145,-0.034305534387801415,0.3023840512724191,-9.55634936754172,3.6193293274167275,-1.1471646237506938,10.098919787913514,0.016792753415992498,-0.1429926898030225,1.8121637321984447,0.7378509229725562,11.050959399797078,0.6896762931427117,1.5089481703616656,10.73862542635412,0.09936349849472352,0.1262882637733137,0.2079975986784564,0.021586158053314423,0.10227302019628833,-0.08895439889530736,2011-09-26 15:05:34.113043290,0.620134458
48.99726234439337,8.485182913685941,162.44206486209242,-0.08996544033515809,0.028481114060912565,-0.14013555767688501,1.4272717520392324,2.094089204552277,-15.673715438006205,-0.25730899739265856,-1.8477617186779058,1.245743701061667,1.5736230725554696,9.37448990204374,-0.15443688023876834,-1.016046773388037,11.104213736106214,-0.03221923713584894,-0.11544670761439409,0.2780696907249026,-0.009885287536318753,-0.10785169286384917,-0.4987879067959891,2011-09-26 15:05:34.212997341,0.720088509
49.00394012470688,8.479335509374206,152.45085385715123,0.19506657185514567,0.1794189320821019,-3.000009168960766,1.208331009553483,5.594111681649737,-2.0625104373933767,-0.14079789308391882,0.5045979652918574,2.4881935148831893,0.679338071023129,9.121099582023065,-5.344829955059785,0.17580040857433843,9.222795172676324,-0.039467616273139744,-0.023159083919578896,0.18557717097308085,-0.01607060514610334,-0.08197694999152493,0.15881704935992746,2011-09-26 15:05:34.312967698,0.820058866
49.00253141170975,8.482516931492247,165.56059371295518,0.21767315752630179,-0.1341485278472866,-3.4392930816464924,-0.7595212929327244,-1.3577285730942807,-40.754947289163255,-0.2431121784265487,-0.3658398462007358,0.11579589576162785,-0.1369521706073642,15.666298578245812,0.4194897286624063,-0.34204990006936875,8.178917439671444,-0.16678031796176052,0.08824429494169388,0.646035092728039,-0.2162041186603346,-0.008934450469677974,0.584824869921781,2011-09-26 15:05:34.422951111,0.930042279
48.99524597812884,8.486345382984176,146.63542286556742,0.17269111741180537,-0.23688109079614095,-7.45932356797893,-4.2439128244356,24.3519403176773,-1.0018817650639482,-0.9620557732660756,0.3069005063637547,0.1106718347850939,0.5160353429080149,9.861184804518132,3.4146456808469527,-0.42336794621266594,9.58296945828692,-0.5961518080878689,0.07812466764513004,0.643658224113239,0.029145480604046415,-0.011890933826108344,0.19992882176946358,2011-09-26 15:05:34.522966443,1.030057611
48.985699004858056,8.482363927624156,159.98320114343076,0.14521158099546,0.03899197773977439,-1.9957107034827213,-8.210201473873092,3.8848259173434663,-2.3593348788080455,0.13926784268844744,0.23329921697269265,16.350705127956438,-0.20716449644885715,9.466452916595173,2.2885104000319094,0.5011913309671189,9.392006806832658,0.012358634640073286,0.008440210941026378,0.6354579682998799,-0.16065029639025966,-0.04001958590991783,-0.19034110735004106,2011-09-26 15:05:34.623030902,1.130122070
48.99841976054356,8.48270042093317,176.85772243731992,-0.039870136551615656,-0.11192900602936895,-2.2822583709501783,-5.885242789831663,2.1865163250227027,-3.713377142823736,0.08528356428696453,0.5183405902971895,-20.128315407221933,1.4342760311829026,8.698133858770433,2.6392154427019388,5.981800735383635,11.186067552651375,0.11405461942031649,0.04906326315482623,-0.13771558910112128,-0.08898520870356139,0.02641219072132249,0.04135771553812294,2011-09-26 15:05:34.732985295,1.240076463
48.999268447979375,8.484164846808754,168.77645523614473,-0.43977584339847153,1.8308282283775368,-1.4423138464207912,1.1241779556840157,-7.385235987845149,30.408583554762927,-0.22733649146735874,-0.7211728446770634,8.113044853673125,-4.266708762526598,9.988330886091894,-1.0605172398670855,-1.6452801501105754,6.087495029716085,0.1026854091980976,-0.07061000068336569,-0.42422827443903566,-0.1272470000886511,-0.05459165823679221,-0.05619373911889574,2011-09-26 15:05:34.833014816,1.340105984
49.00008326826959,8.48102060385894,154.41198935440124,0.036942037849595794,0.26500476783438076,1.2809296026225987,-2.3158802987724734,-6.835125985418174,2.1588200731765177,-1.0436401130205593,3.631652522908212,4.2412229918324496,0.22017914034194452,21.545538989885664,13.930353706508521,1.194661476987231,11.608073588861826,0.397593829729573,0.03276000712066001,-0.19445711890087913,-0.10094305830778276,0.04314758800317447,-0.24037480402083106,2011-09-26 15:05:34.932949832,1.440041000
49.000483153570606,8.476062863783223,162.70868630878132,-0.327975111213429,0.09491813812485886,1.3290722438789369,-2.2680000100361477,17.772050745333402,-4.437930730174207,1.3564503317645955,-0.004745374027973655,1.658215942075289,-0.3455528213485438,9.956922604709641,-0.593564588454961,-1.1642918143376089,9.683090909913354,-0.1547372603529002,-0.07626665291790097,0.5658691618393117,0.09039967576033994,0.4502700070513639,0.0676243666693715,2011-09-26 15:05:35.043008550,1.550099718
49.001797696863896,8.483054689146469,153.9565066521056,0.2432936893308126,-0.07915393028380097,-3.9351479259536255,-7.992124346570417,3.8518459998237775,11.413266198267808,0.02754783511465865,0.09295456030655572,0.36109068790794563,-0.4040880334818485,10.810505446068133,1.3266219202260534,-3.3897667551800765,9.701521897861497,-0.3263434480809892,0.024438148064573267,-0.5379733164474422,-0.11608024588045165,0.007317074361246317,0.07642480270886348,2011-09-26 15:05:35.143105898,1.650197066
48.9982796847514,8.482098756246016,159.0822571914738,-0.23446760320104976,-0.16348929684016397,2.2822854407072546,-1.0242034152732562,4.872898331858413,10.85789880370197,-0.0545538318096634,0.2127498747261244,1.243916760237273,0.6577874905408881,11.819451423518704,12.107657160408715,-0.38249485269362316,9.68821286604946,0.026018803186922696,-0.20175166897410712,-0.07610362469646753,0.10115015528235874,0.03647580578261056,0.2698125324103412,2011-09-26 15:05:35.242987583,1.750078751
49.002205800108186,8.483403923893512,148.07389364047117,-0.018312433688877264,-0.20288690765200196,0.9682701511140848,-4.601339819798673,-3.727998686165119,-8.945065087172031,-0.0025437791377059815,0.021064852745754516,1.7238286165050214,-1.8776972332792907,10.165099727949045,3.2785135719480465,-0.9842366961985907,9.528291052714161,0.07760882489881031,0.30247846586420585,-0.313989550311565,0.15666968615771587,-0.04866757474761147,-0.29431796968199125,2011-09-26 15:05:35.353025668,1.860116836
49.002777551438676,8.484033831563035,156.9677239008742,-0.0773406489148843,-0.09214033778800404,0.011837766374142022,-0.38424903024142565,-17.075842328641073,7.819970639447243,-0.1348324991673737,-0.669616866671167,2.673924148563913,1.3403360871716785,11.088216622292384,0.8975107986507973,-1.4081509494669664,5.595604463946946,-0.11091509311740572,0.015854624048778482,-0.0055861859174383965,0.026739360123210213,-0.11352789010863329,-0.14219895897570206,2011-09-26 15:05:35.452997636,1.960088804
49.001263444911714,8.486839547463932,174.72206239120965,0.14528000720056228,0.18445662661605486,-2.685068670141436,-1.785058967456385,-5.488298246523378,-0.32043386810715857,-0.25372221060181754,-0.07009039939272102,4.264439777505178,1.709687631271158,11.276332590017093,2.198368291575307,-2.219392875412896,11.631442281664116,0.07646494675768692,-0.03060639963155698,-0.19993165620293263,0.06686248367139397,0.06661239535675739,-0.2433744781058534,2011-09-26 15:05:35.563017701,2.070108869
48.996719987958606,8.485069288527981,169.39873247156424,0.157137726742326,-0.3207114568816192,9.417222093052448,-5.832506935116037,-0.16936033072951717,7.40650922241914,0.0018240743486720237,2.9016128107062835,2.2336019044472937,2.2467068940367225,9.896448575673178,2.3880645159856244,0.5522741702163899,12.488766934822378,0.0006206297939910371,-0.059786392745176636,-0.24153642244237666,0.019579633708787313,0.07069369336110569,-0.3664744241151752,2011-09-26 15:05:35.663037187,2.170128355
49.00009749126521,8.483424576139464,154.66958723185263,-0.11936295757141091,-0.008684657912022078,-3.121850448716582,-2.348839882088915,2.519780806458173,3.281055921114975,-0.11917398490863451,-0.33305892443779245,3.747539190664272,1.3508491204601771,12.147485083760817,2.709614811938666,-0.8560006980664205,10.610779223825478,0.1671957974431191,0.06651893612681906,-0.36370936600512466,0.023054872678098373,0.09751569191394743,-1.1568163531449736,2011-09-26 15:05:35.763077782,2.270168950
48.999739153635375,8.485401022434235,177.23328425621787,0.03319456544597024,-0.020660316082356238,-3.48352026352177,-8.696142472399732,-4.39365717223424,1.4238769704454344,-0.13033505714736127,0.7195274907148503,0.6007136431229876,0.08315647217618587,10.098011750189922,-15.108686964003391,-2.3236412431340567,9.275747304754116,0.05165448146758541,0.018239481582839463,-0.3091525452862063,0.1378449893593744,-0.03226102463829343,-0.3989508467394428,2011-09-26 15:05:35.873032070,2.380123238
48.99710396418503,8.48353589849085,162.48924958392467,0.15597592154523104,-0.10075726324145085,-1.938939353220851,32.219808731828955,-9.116183792213246,8.782155352982379,0.08745880112600371,-0.8548169097636454,3.290158427642416,-0.18044756296860653,5.711577309723066,4.344715002024189,-0.19448550561222155,10.524334472965625,-0.08803326719960004,-0.042385748274447604,1.8174711631728189,0.6107130010004709,-0.047299654238150926,0.001364096072674098,2011-09-26 15:05:35.973063010,2.480154178
48.99803572955369,8.479839100829603,162.40002136412585,0.1254552354715281,0.14617381877755675,-0.4206571919554385,0.4681562522316165,19.499428031204772,9.532540493281527,1.061353189899382,2.5943741990389357,6.394715183823625,0.12121226723314343,11.155259353000124,2.1890217710208115,-0.4600480274825662,11.746916882279955,0.13379805886385449,-0.058754388508703966,-0.16070982806441075,0.07661396100687007,-0.04949547331327903,1.8456944211652753,2011-09-26 15:05:36.073116020,2.580207188
48.999087059062674,8.48291614473353,157.57268273217136,0.020233244591974175,-0.2947118098511952,3.4733866749438183,-26.85621318700094,22.22112958855757,6.744303719924256,-0.1713103905011554,-0.38344124775641864,-2.455540473110654,1.6697027654790941,10.042794029513317,2.3282904205542936,-0.5853869059555715,12.26632952194758,0.024135406975722914,-0.059008990651857884,-0.11773643620979442,0.3228762396265261,-0.022860074508029415,-0.5221562188332803,2011-09-26 15:05:36.183326118,2.690417286
49.001728150699314,8.483212148080694,131.19942277128283,0.15710090817829528,-0.0941829147958764,0.04432827782115112,-1.7768698063548114,45.947047699995466,-6.43173800973405,-0.167408134708537,0.1271355151896293,3.154837635772025,-0.06729082151843713,8.925005352576763,0.5044018898692357,-0.3520782660905447,9.378991996010896,0.08109344913927591,-0.09767136378286059,0.30648805549540703,0.1854966692641049,-0.04636138025749934,-2.502344145381802,2011-09-26 15:05:36.283043985,2.790135153
49.01141494972192,8.481592598291265,182.3737741419717,0.11677121333122671,-0.07503076158351225,-1.8031405023804725,2.420911980982022,-4.869450727343055,11.344816141269998,-0.27821986381809605,-0.22551469948003755,-18.280579299576292,0.7652568149550103,10.850246349551226,4.903879343097454,-0.6984633941321943,10.19234117311438,0.046442407988638856,-0.07346447153245066,-0.475375705666327,0.030474858858669043,0.01573782407773107,-0.18511639894518583,2011-09-26 15:05:36.383269088,2.890360256
49.00317585408787,8.483769871289782,158.90646740338613,-0.13557816503138032,0.7224635363748615,-5.0506104387147435,-3.076930006537474,0.023501173465459324,2.441093459513547,0.0349354363968074,0.1813316279660704,-2.704964299947088,0.652729226102145,10.752752975941839,2.7731441019225445,0.41468946214875524,20.388605045385646,-0.03396447401822941,-0.031383521233478706,0.19805394137229992,0.16024544056374504,-0.7829287589242026,-0.30873381969404634,2011-09-26 15:05:36.493076580,3.000167748
48.99553347532838,8.484209509054168,162.02267571577173,0.19935678332524048,-0.29334511407046976,-0.6765635122716736,-5.929638424424203,2.9300801706232447,24.474123374818994,0.08248163181338794,0.5428444742037166,-1.2862016359875432,1.0350823887754852,10.277435281518772,3.0811168898487313,-1.4052484314039722,10.60181447133938,-0.08590611380707752,-0.12303632210102743,-0.04306214863460895,0.0553521122729079,-0.07388433672042942,-0.4090487215605035,2011-09-26 15:05:36.593293964,3.100385132
49.00025845392091,8.498949325946127,170.68291698794596,0.12496447237616129,-0.09966115766041703,-5.260436198044202,-2.4575720549248867,-8.68601996651012,6.864709946361099,-0.19361786981145954,0.0998259716069087,11.077629678025804,-0.39117824870095164,8.855929103086641,-0.53687136439816,0.2774963725684396,12.237592759888045,-0.002479521407258765,-0.38899178216674957,-0.2570017678937659,0.07589436272801067,-0.2030125027789932,-0.1880097140672269,2011-09-26 15:05:36.693164147,3.200255315
48.99937268156488,8.483964413448193,178.80910488875224,0.2645209580571067,0.0982660916719055,-0.8874565826848764,-3.718178471287016,-1.7630209609564242,0.4352051620570325,-0.021034491067488816,0.6393952892806319,0.6520123008094538,-2.342484429122554,17.208692404369778,0.8201087889325118,-1.4309654964870402,10.001956053597796,0.009481668391217573,0.06281966658832364,-0.3727466659999451,-0.01613594520289052,-0.14314399547171164,-0.43617521164367856,2011-09-26 15:05:36.803136576,3.310227744
48.99862486124187,8.48300917153556,185.20600953078463,0.10727384067013464,-0.00436517260105708,-4.7803643999457055,-8.05509485307138,3.8520971727182296,5.33595279273245,0.21985450688948702,0.6689649374280069,3.0913279371308375,1.4666692283369018,9.698670335752535,-0.053091615449965324,0.06368727212010561,11.539120166929798,-0.12106045451952135,-0.14381651394303197,-0.6382493129847262,0.037609756102447274,-0.13276413197005416,0.03513408184378211,2011-09-26 15:05:36.903106912,3.410198080
48.99586563693487,8.486402804286117,166.7731973766991,0.00032156968496999117,-0.22708333859674673,-4.287085173144712,-2.078581179461377,35.392930576645334,15.241001304030226,0.23509708921232117,0.49507629678788195,4.033946745463839,3.998794502197585,11.318561891281522,0.6140606685281244,-0.5221607647983733,10.961937586113338,-0.010546461826783156,-0.8049263475515877,0.35581903625749634,-0.017929256184342286,-0.49867155964123777,-0.09433020781425004,2011-09-26 15:05:37.003097342,3.510188510
49.00731908813756,8.485185034722468,240.2697846799356,0.030521124125784893,0.2309430137821552,0.7491288597911834,-18.97312155144731,-6.713103160662069,17.05703828497864,-0.14892861916559427,0.42058028587480667,5.946170437110043,1.9196946877431311,8.828708221322705,-0.17268841212382258,-0.3645169744702527,9.819013690495211,-0.12721915224829183,-0.13034661429382904,-0.6321319076355936,0.19385082794547084,-0.20046246293232844,0.6207229381016737,2011-09-26 15:05:37.113199395,3.620290563
48.98271954239993,8.485833003564055,151.68214524953353,0.24566506224105894,-0.024556280291918378,-1.4992612293669783,1.4943830451326985,10.790131777662324,7.444751849764329,-0.3488167989196639,-0.15557476941281856,4.867052339008078,8.160923180906066,10.713554987621315,4.195000253285659,1.7054505049580286,21.077522479466925,-0.15667022762378324,0.338008707489518,0.1741266533253345,0.004340265901265225,-0.13887443598806892,0.7913090277852306,2011-09-26 15:05:37.213121453,3.720212621
48.99667450005068,8.480785511742097,162.13648733974765,0.33123082495250744,0.12200965147664614,-2.220149757952553,-8.102151036924148,-0.07997710236502042,14.794070839554127,-0.03362943535145053,-0.4112352361724272,-0.29096838485816834,1.3481686254384693,9.702769403203032,3.6651648978833924,-4.050213648418352,4.482681104874124,0.03160389396103089,-0.04237961581810318,0.12329069245116164,0.36565072872147875,0.10898181199155103,0.21974079467074065,2011-09-26 15:05:37.313141734,3.820232902
48.9985471755856,8.483790863947048,160.58194745072038,0.028760381190720427,-0.028865504405531983,0.7096714290258967,-19.639272804566655,-12.206504809405326,34.290803281216085,-0.01403713235908597,-0.4049953064934707,2.0016713809177054,1.7334273785459566,12.177187077253754,13.741246177175723,-7.17204139448366,11.849889214661733,-0.11919639608779267,-0.0005207304409276491,-0.17968487722283066,-0.08908848564681235,0.08147852177939112,-0.301126641663527,2011-09-26 15:05:37.423123410,3.930214578
48.99520938234844,8.483604683131835,169.2814203417354,-0.00886382911382054,0.0069440624916632665,-5.551135018755023,-10.849683918284034,-11.783020095907677,-1.5038282615926812,0.9639237457585103,1.2849417093245181,-0.3341313776732784,0.1834911957269788,10.513339878296053,-0.07020088330687435,-4.230984332719408,8.421566971414425,-0.14760530155623305,0.19921868904241755,-0.4644025515179389,-0.22544115720940927,-0.04487707360143953,-0.1691965423722673,2011-09-26 15:05:37.523142245,4.030233413
49.00239260640063,8.483463341233932,167.4171442437014,0.019752569501736664,-0.07770852682000602,-0.7740773569074257,0.15160861470217935,4.4626305494125535,-8.596324183104073,-0.2581077551228445,0.2653803023419875,-3.828590045394866,0.6585246531381228,4.718737492973951,0.1309929155706408,-0.9653457255364488,9.755157203246398,-0.023152670033043048,0.02527911495737476,-0.09216476978833649,-0.02386720721857369,0.16580438254316746,0.43825901372156995,2011-09-26 15:05:37.623336781,4.130427949
48.998155382915485,8.486975258256129,139.5025215677819,0.09536404126104225,0.008133422160205447,0.5495576313201505,-24.840990074328307,12.907440743261212,31.945654745979073,0.06667815902666274,1.6559477507347125,-1.0326070396184233,-0.6351337987263512,11.4337562168744,1.725761543955242,-0.9924162933723718,9.80558366657769,-0.019178248777196663,-0.48913405157983114,0.8206892992848459,-0.08462282222877104,-0.15640753231523002,-0.26371323152052795,2011-09-26 15:05:37.733121885,4.240213053
48.99691353488309,8.496386487533815,155.74358143589393,0.18348059581654796,-0.0059334209607491695,-7.339819766477762,-5.2667234823984685,-10.075969329709956,8.15202053574034,0.019100345888836148,0.055200257940897446,2.82273305476849,-11.070236274442719,7.010417013640108,8.07906862037679,-0.6133342100145955,9.265011947527325,-0.11356970198931418,-0.11887188440989825,-0.5383986437758108,-0.02145729654216485,-0.06439880912420913,-2.5048340293193987,2011-09-26 15:05:37.833090850,4.340182018
49.00031989461897,8.483283498736848,179.69362968852275,0.09530346632161651,-0.2218576897756109,-6.391051997884549,-4.965631373858863,-12.029557810304109,9.91391657012073,0.07087137109327789,1.0619400794529885,-2.5426910821983797,1.7859044975784304,11.140263635184386,8.44318213805565,-0.5013994860081683,9.441848349036938,-0.0640553135078295,-0.020396937743041535,0.11863483409362627,-0.1369963204763594,-0.09457952558894779,0.22252745793826365,2011-09-26 15:05:37.943146652,4.450237820
48.993570821564454,8.483752610518637,156.88568973182083,-0.45006658936079724,-0.33979009246377123,8.440008467749745,-6.299721719391354,-2.8252497338197844,-1.5615212075172495,0.08232787519005413,0.7906448470055885,0.2628923810400403,2.818083194865781,9.669442775327052,1.077308973657023,-0.4532242463046566,9.96667206487832,-0.022066887708859423,-0.0748331750198274,-0.36440134577211786,-0.08118812416882212,0.032163435270004266,0.10036807411393478,2011-09-26 15:05:38.043151030,4.550242198
49.00368551871059,8.482717300593157,190.75631898487728,0.5514488950000677,-0.14772209544233134,-3.923377363078715,-5.9680836692434145,27.490542370387498,6.292552826776743,0.0570588181258397,0.5603759773935033,0.16422427901064562,1.0275941490800111,9.745778174264919,1.362665541849653,-1.0707487122338328,10.917567155507522,-0.07311161778628561,0.11328501451361281,0.3240249031840753,0.007022240178117201,0.06673811182911367,0.021847328940535683,2011-09-26 15:05:38.143263229,4.650354397
48.999892795055885,8.483006423080665,160.88738453514412,0.17278896414571634,0.09113925963308035,-7.007028027189657,-31.743678212772622,-11.900891947241483,-1.6598004367938,0.5521500844180507,2.5546723128674413,1.3679750866281253,0.30318703019069004,8.52822635973955,-1.157338307897155,-0.8960701534747244,9.216006958731157,0.038731546100235374,0.06000627758171448,0.3931934530235572,-0.12860549259207565,0.019318496184590347,0.34735849008304426,2011-09-26 15:05:38.253140145,4.760231313
48.99974905394336,8.485395304474187,170.29334633723892,0.21359895580948576,-0.5447279028763408,-2.686773323360362,-2.1891915988169632,-4.381670678978084,4.419454837937494,1.2092271203236598,-0.40619305910598547,2.60664222090545,3.090174986676402,12.596720655415034,0.9418240371466944,0.1302496451458691,8.179148649177886,-0.11242689558853156,0.10483021085951746,-0.4750424840682008,-0.49983649469592717,0.5491324305775831,-0.08201843885286747,2011-09-26 15:05:38.353146183,4.860237351
49.0001294524302,8.490686406425175,153.98530283271552,0.14386779820894469,0.15855212257748166,-0.9936322350563551,-8.801591993100596,27.367212740990976,4.596042620716444,0.05604084695855368,1.3994818843913501,-6.971211811229273,-0.6689377196137495,10.38127701491714,0.9577104386537763,-4.246240453541927,3.9576588437121343,-0.07053668188460266,-0.08442937839391577,-0.17890646697539322,-0.029236463692510407,0.049533395763586244,0.5314822018134485,2011-09-26 15:05:38.453116457,4.960207625
49.001529192474266,8.483578219839234,164.3922637294609,-0.04975898034769784,0.05631602673621773,-3.065174862262653,5.225304504871662,2.6978382881949137,5.191021635257161,-0.624053878062059,-6.0151285978627325,-1.8433571609445594,1.3577689031461246,10.017594745677334,1.8816059420931763,0.005848260432331137,9.664372914765192,-0.13578413567311165,0.03246555871277903,0.5386481957128024,-0.060128697778751836,-0.10304657078334355,0.13399866085944617,2011-09-26 15:05:38.563155760,5.070246928
48.99974908693489,8.482869010387931,135.5690664257425,-0.05352003186462273,-0.2668701405527878,-0.1968690946233651,-1.4915377871783053,-5.1137266461905675,15.57813040984825,0.5854122117163505,1.1641889545198087,1.1328129508910347,0.6448700855798983,4.331206589343913,2.495093325236636,0.8958616100215591,8.898256228542904,-0.03860392931351314,0.0565194351775722,0.3028303632426522,-0.03194078680788399,-0.00400405118456244,-0.271175976921449,2011-09-26 15:05:38.663212821,5.170303989
49.00216719568973,8.484796117336433,147.43904251556955,-0.24385663023009196,-0.3109889682582617,1.451447290768566,1.895281320625875,-6.178385741002751,15.666118363337604,-1.4686903641110034,0.7871243202367286,3.1207321298637645,-1.6247442741455134,11.113553792586796,3.0034984078267164,-1.8308947836115437,7.5320906509267855,-0.16787265992265044,0.16248677398835232,-0.1568903867855871,-0.14005867695196209,0.021016546787642545,1.8016481843716183,2011-09-26 15:05:38.763199985,5.270291153
49.00040586027563,8.482244365249093,179.11711329919112,0.007179793464199655,0.07649262413147252,-5.316208602841008,-8.276958326540536,-4.580880839688096,-1.5903886221587733,0.15701188992105303,-1.340757406556241,4.538017878011999,-0.32567902733110315,9.481898443110083,-1.6309744052220156,0.044860820705773685,5.858054032701891,-0.4421824624478696,0.005925817567178638,-0.2139492470743136,0.023855866937667468,-0.02899939825887158,0.09668710146315362,2011-09-26 15:05:38.873203724,5.380294892
48.99942249062432,8.482948463241314,189.6740997649039,0.04906310098832205,-0.0061302991421038205,-2.6834525258075237,-4.051712341179289,-5.434237000502368,9.834392036156036,0.6373182191819744,0.7943742198928083,2.3098498190468435,0.4079108663361478,9.18150448692347,0.8369366546594295,0.34264765514913065,11.720510337416789,0.04385445478568044,-0.06293953198452609,-0.07947593250520613,0.12174825965169642,-0.13346929271006475,0.08251525781651559,2011-09-26 15:05:38.973185734,5.480276902
48.999027955985184,8.462806618096034,153.18703677442068,0.07611481265783311,-0.3419894116604798,-4.523407315192858,-9.436819222158359,-5.208012695506135,1.9283936309168404,-0.009309081238830496,0.8243319583394774,4.211997434961258,-1.770655793815168,13.81837444211913,0.7229588948232438,-0.3060726964670769,8.446433809975215,-0.08075675855633307,0.09557790110106816,0.07831120544700226,0.14552404518202208,-0.1216034752552966,-0.12690387276332377,2011-09-26 15:05:39.073238574,5.580329742
48.996765912880115,8.482139684736767,161.97699608214327,0.0912667734319535,-0.12200556962801495,2.704729319923226,-8.10777322204759,-2.8375426589205297,7.409013372864836,-0.08789273365935212,0.39894160093759096,-0.21098542787536112,-0.8179341400603557,11.476379548090325,3.59931065196516,-1.2868091992823014,13.739487622557009,0.26371682400580126,0.0805033448396713,-0.059647058133837416,0.07156743380162227,0.07150073537823898,-0.12944437911841888,2011-09-26 15:05:39.183459644,5.690550812
48.99834471482783,8.481262708308682,167.99267658733686,0.01485679612960561,0.08738270511097279,-1.6751072797506006,-4.973196929922868,-7.890673552704731,-2.2189326196468464,-0.2581698338687927,-3.1234241192666765,-2.500177355410659,-1.5632692791057534,8.371149048007695,0.6553545494750913,1.4014373768278863,8.378899485327263,-0.09390749529461012,0.021069041080886225,-1.175338348919683,0.5280791859371561,0.19680759931971853,0.20144581973733938,2011-09-26 15:05:39.283235407,5.790326575
48.99623650651711,8.485514911238754,161.08531513022388,0.04832249508031761,-0.05808119561500601,-1.7697041086654628,-8.380526560983114,-6.246647217089957,4.349303193817302,0.2854977807383276,1.1776927217418636,1.863977394856685,12.742636982172618,8.58100078330043,9.95394988341437,-0.3492155635558015,8.048299744981403,0.02979378568713738,0.050487659435667714,-0.3045201074738115,0.04000819260534509,0.11499125316177394,0.3881407514006293,2011-09-26 15:05:39.383349393,5.890440561
48.99748870489992,8.482154238253006,155.58055082310142,0.07479419746306792,-0.06421057067384289,-2.266295225126844,-8.179902212428498,8.304163785605638,5.047893009397715,0.16656778837573571,0.5066008098670436,20.53558680110965,-0.8884551989862253,10.98825828902228,0.6581879974892502,-0.174269176519206,8.551841882505451,0.10781771332646675,-0.15295759510564064,-0.22109985234912877,-0.04390579114029691,-0.0501566841421834,-0.45481044873687926,2011-09-26 15:05:39.493204809,6.000295977
48.99807531582494,8.470009470986218,177.02006114116952,0.0488766167374527,-0.19544278482368474,1.9737610398671253,9.564598247132189,-2.545624702613612,11.858817102818927,0.4318547944958207,-0.043498522422362296,-1.5398603654687912,0.3697852567940439,10.242895027329906,-0.21280110311306788,-1.7268482732262211,10.97890636106347,-0.27665025419718486,-0.0008721548549488166,0.068572775904229,-0.0393047573271447,-0.07808094084072556,0.7682650185481155,2011-09-26 15:05:39.593415419,6.100506587
49.00310377844381,8.48560304485197,165.33368744042681,0.1070768867994229,-0.03414941853342207,-1.6689910199147528,-4.112417164213313,12.613553957585715,15.864050689100072,0.02043957496372503,0.18285967729463865,-7.510471659016008,-2.2324489155340097,10.901523331768963,-0.8177073428201155,2.046579289757832,13.048462908772041,-0.04091616426165433,-0.03864615459959503,-0.26940090930065536,0.1496898408562194,0.07819764700121387,0.40142398746734376,2011-09-26 15:05:39.693224127,6.200315295
49.00361257961526,8.483711211442222,167.59067114855392,0.07441058126605975,2.243510767140061,-0.04086982941279782,-9.492001340108207,-6.217717043486614,21.95681045096986,0.22888865595924318,0.674697283395912,2.234939606814985,2.728102612970501,19.85238755045981,1.8126513344718276,0.07845325357694365,12.847194110353557,0.07786407139367796,-0.11591865598867662,0.3896585466775253,-0.03539025787980079,0.1195754446449511,-0.1697444359474206,2011-09-26 15:05:39.803249329,6.310340497
48.99962999118079,8.485712817859815,163.21190559684237,-0.04896053811056623,-0.36634518441212505,-1.6214239460697977,30.539760568204677,-14.015115807136699,6.851638364659531,0.060619475759769934,0.5668547523201718,2.2184494604876837,-1.0344041994082118,8.26372298605597,8.49898959443591,1.8593195711390018,8.719918725141657,-0.15697559314580542,0.04955686633410149,-0.15170122516237455,0.12271989526259765,-0.0586988979695564,0.16626257183071996,2011-09-26 15:05:39.903202448,6.410293616
49.00042109241948,8.484521937394954,158.08429297734938,0.12010204389261706,0.024127602811520474,-1.3010129235814911,18.08301668871581,0.8761393882133985,11.511419132771662,0.28992168532452717,0.08745712594710364,0.23452220841318638,2.1907431686464727,10.81889011896916,1.896067935826335,-2.0945500666238637,10.522449967803812,-0.07985836501565972,-0.05072115694017777,0.11380708062419774,0.0726709855750742,0.047514688287112854,0.1266962047892632,2011-09-26 15:05:40.013223127,6.520314295
48.997410973703694,8.484834615862999,167.1478629765685,-0.061375908846492536,-0.2484464278022208,-0.9625087328459876,-9.394450391646233,14.821734743469598,14.366682262186224,0.10198640662844063,0.46127392719906635,1.2572505010270225,4.56078610107369,0.6889440728072547,1.7979579530465795,-1.2775389954452214,6.994416357344438,-0.12516599211484514,-0.023664648514212995,2.330354486480727,-0.05116411560722735,0.0015418317668484671,-0.16612822100506783,2011-09-26 15:05:40.113341561,6.620432729
48.99674049052728,8.484958225378618,160.63240912246076,0.06618627453029087,0.0009244754098128305,-2.05594379480171,2.43563158028965,-2.6629207313529326,17.634442948344017,-0.1444946752337117,1.057824770465273,2.6304849440529985,1.8079084090636481,9.61718083831175,1.2220500158397565,-1.3378047255594274,8.981000753565237,-0.055794934018539494,0.04901773392687001,0.23076242640837427,-0.04740919887256547,-0.027694713251310822,-0.6784584524419636,2011-09-26 15:05:40.213214103,6.720305271
48.995011274945526,8.48396535380398,174.8624379671105,0.021073667509168982,-0.056812390704300275,-1.8170430478268416,-14.739810010175749,3.296301210586013,6.342065465107471,-0.06659116147550743,0.8655285202834151,0.887290800486202,0.7637489337770111,11.727557369541517,1.2107151469265411,-2.3454698018489126,10.356880318118481,-0.12520064958665755,-0.021128503979327192,0.15549464260503307,0.07278598697729287,0.03801842765856142,-0.2675919099070234,2011-09-26 15:05:40.323235497,6.830326665
48.99822298261897,8.482005293787605,173.03321802271716,0.41424910080037186,1.2530087296850476,-3.485695404547914,-5.457545262357811,2.5084469514620036,9.408065125690394,0.14355251679631842,0.2522629962323307,-2.8217537188019586,0.7388643090948845,9.98130051996559,-1.1659916763799723,0.24681217918040746,9.57989272205993,-0.027317053020346926,0.01948192649244332,0.08511300377652922,-0.11606497899900248,0.25667642942454566,0.004752513613321463,2011-09-26 15:05:40.423205807,6.930296975
49.00208098892426,8.482883097071655,165.6421745588915,0.08535268671928073,-0.4584887494509428,-1.0782368853463484,-2.3451558257108305,3.7488409560631206,13.038486723316748,-0.09465408890824331,0.2848006116912351,2.3131124296712455,-4.070392566946859,9.81794290699129,-2.82477689099254,2.257430488750267,10.767020867150288,-0.14960931003086742,0.03267422179111053,2.878058047094703,-0.09476062558201603,0.04864554069114255,0.07412169275163541,2011-09-26 15:05:40.523236247,7.030327415
48.99591383864805,8.484301701376316,160.6364661456186,-0.10142021326925585,0.327743765208791,4.560599092072429,16.102226683183712,-4.326445143769212,6.938600598394203,0.039938426348869065,0.3563926187497079,-7.691101775667013,0.9007968371692845,8.661213919811496,-0.4494817386850753,-0.9918651259671516,8.28052138655159,0.17999901179002795,0.020105676124075635,-0.09228775523224662,-0.12028357802194692,0.0800482781881105,0.07628672693398575,2011-09-26 15:05:40.633332381,7.140423549
48.997336342424646,8.482237384034596,179.2353740591684,0.03508163231911454,-0.11819989708388096,-3.9689551276103456,-6.969936854923668,-3.793799153259064,2.1649554655252254,0.16198158543014907,-0.8318745249725492,-3.9946391252540696,1.5804199603932467,7.421509882053201,0.9368786940342304,-0.01110298095355361,3.7082288089063447,0.7470326185050058,0.3339512681922686,-0.4155189657061551,-1.0126403537168853,-0.24625980240007778,0.11112555290608199,2011-09-26 15:05:40.733278732,7.240369900
48.99782726478734,8.483882890985813,161.26137469468156,0.0787538695861392,-0.08768964991904876,-2.513942113234653,-6.876862012108645,-2.0266260897748754,10.204372772460356,-0.08068657008067757,-0.2318563105241131,-9.681736163603528,-0.6419805340199697,0.9011023396430833,-17.00943390734397,1.9092339922103978,13.36688870176797,0.03616949117626504,-0.2158716111723395,0.10054043719016849,-0.11096737472632037,0.30446012253136023,-0.1230047652916485,2011-09-26 15:05:40.833276744,7.340367912
48.99989140699225,8.482904163718716,168.34851155952396,-0.00025264276338350655,0.03288289371081958,-2.832148874877181,-0.18073049160430266,-10.230372464726916,8.692168409748897,-1.0116180861181725,1.0615805528944264,-1.134837308838991,7.755718674607249,11.387014074726329,-0.2583472906310904,6.046990265597559,10.667415156022615,-0.09696675895869125,6.77709104524235e-05,0.09040403914140202,0.08829506136181733,0.09528796902696934,-2.4734899365961907,2011-09-26 15:05:40.943266685,7.450357853
48.99778802324856,8.48551996004187,186.16788085649446,0.07332583253827267,-0.13468783010270433,-2.830994315686497,-25.108817345704487,0.8228515619234535,17.59105606919476,-0.08460554691834747,0.9203292453150759,-1.3675816554054407,0.5877455318645434,11.749107018696815,0.16928729325230651,-0.27908013149450406,10.431547475351518,-0.07932004291831368,0.10280919353016034,-0.41682911889470053,0.050908025696857345,-0.088365706543862,-0.733496970138108,2011-09-26 15:05:41.043347559,7.550438727
49.00063236775186,8.482333403014769,166.74468397898252,-0.012265101622454727,-0.3356802477844758,0.8781876610624191,-38.75742760623191,3.1449819420961695,11.925631433791459,-0.13453154453195396,-1.5687845966768845,1.7300506910863258,0.2749086879664349,8.897152204365497,2.1030401350949948,0.06748898670511616,8.4167813582953,0.3213588288791078,-0.27873754030092995,-0.19279905549756937,-0.05458969493481457,-0.11739013688573277,0.5266014496173947,2011-09-26 15:05:41.143501508,7.650592676
48.998383412676034,8.48339622941382,159.07577433804076,0.07442905254236787,0.09108091145293538,-4.9327087963403144,-5.8378871295862895,-5.190013093758515,-1.3397753605696545,0.8526848317932808,0.532988957894761,-1.839272745393019,-1.2046110681714104,9.121890015288006,9.392623150345377,0.7758025210672637,-3.5109398340627536,-0.009284369536105525,-0.03422116599534371,-0.20595263088666108,-0.0832528253720421,-0.1284289562272087,0.3850167230172283,2011-09-26 15:05:41.253303282,7.760394450
48.99846542068529,8.492532566611407,192.57109977695745,-0.382818703331359,0.043820657111469846,-5.7979268222492735,-7.472710663005218,-11.290205304903493,25.012649835754274,-1.1389885642596551,0.8465532036177703,5.944599246211522,0.5030409431414304,13.134106412193635,0.21742408362934162,3.1467160135616963,11.137980548214777,-0.02445694729319125,0.07763136124276816,0.03309920828452774,0.028866857039005114,-0.004960296627071705,-0.3831506271926747,2011-09-26 15:05:41.353334696,7.860425864
49.00376683278658,8.474682999818118,167.24842187190092,0.08185740322293711,-0.10409956250484359,-0.5803307191297615,-4.80552351392574,12.309960854483968,4.083056062049444,0.03437053137580476,0.7255532471410036,2.6177882730085686,3.68796417883447,12.937998673071025,-1.9071679710644878,-0.5964483915700967,10.633942475063044,-0.0013481736985956165,0.17657673678036137,0.6215693452695127,0.11055258796967715,0.06345919022160142,0.043185424525798245,2011-09-26 15:05:41.453307280,7.960398448
49.000194748882556,8.482493262302487,226.26773801174298,0.10206030664752264,-0.027170626392511048,-3.294234831812462,-1.6847602889906597,-10.623058339203348,56.65108741916528,0.08385913794089833,-1.3625289005429586,-1.610922780812483,2.3167232289953117,8.93810137116194,1.9057598488681002,2.1075926195286074,8.434569530622547,0.09156215130546139,-0.08203315327743099,0.17838501461408646,-0.01954640626103911,-0.07593078776561737,-0.749940461566875,2011-09-26 15:05:41.563309537,8.070400705
48.997624348736785,8.481733931942317,179.6726045467914,-0.0706391841291727,0.004794671764575285,-0.01916433847927168,-33.46577038456306,-8.557401175224587,5.920514575385732,0.20841302348842292,0.30278972608231214,3.0728324578341484,0.6367965781691571,10.493930865530512,1.0506591768774043,-0.08526119261446839,8.224906481885132,-0.045013918586069374,0.038038163955111316,1.4252556919847177,-0.04010766662164012,0.17885440778553283,-0.033962283646279026,2011-09-26 15:05:41.663357378,8.170448546
48.99913381424239,8.482390013167565,152.35644741759225,-0.004628626773701128,0.07174010382912338,-4.004851589814965,-7.355783730506645,-21.07257097427013,14.194761672620118,0.1822997814691957,-0.32102398269680305,0.4765841090273737,0.46092542055257085,10.676797812960146,-4.431017605932985,6.622877163648465,10.12818719210531,-0.08348922586414304,0.18884052718435446,0.05950778881505554,-0.1268099229467438,-0.035916467093733286,-0.06439391305309974,2011-09-26 15:05:41.773308906,8.280400074
49.00038857257438,8.482275008862898,168.80443635630303,-0.017183029466500598,0.2323764142359491,-1.9699984737069403,2.030687631545354,-24.278629331506753,11.838687701982693,-0.1060090462219816,1.0170032388348103,0.05725066319802952,-0.6777958098946626,10.118823293082514,20.45047664013063,0.4836097653256184,11.31775901153514,-0.22112910657491752,0.12262261015183194,0.05547707833256544,0.10130175454291727,0.05645249181123893,0.38883799760621696,2011-09-26 15:05:41.873338168,8.380429336
49.00451585986362,8.48167287403475,145.27431230419478,-0.03149569813397448,-0.28189414976606536,2.4808487310547327,-4.546310124268196,-12.025444294519186,9.478868811134127,-0.030305037393492152,-0.025841560927779228,6.117284976006879,-0.025413987306880298,9.39939409984008,1.2754376935860707,2.1786920248835777,7.4919430804359095,0.08593623085709895,-0.02330207212731805,-0.4133104545818027,-0.16655097192648533,-0.09184960708448468,-0.12202996344794989,2011-09-26 15:05:41.973336837,8.480428005
48.99931099282563,8.485848606847664,70.312049196095,0.046610255104544224,0.07693100983401248,-19.246817140560264,1.5465878246596247,-14.28095597972862,11.520331622829113,-0.6897703136627127,0.21314628412389228,0.2867674804233401,6.445152812459332,10.529022743547598,8.029950565997428,1.4707160198295797,9.494233956128749,0.020909033362314654,0.15326648679283314,0.1262488958154664,0.001970831211169659,-0.08399150299870295,-0.11203878361545933,2011-09-26 15:05:42.083507339,8.590598507
48.998621385185125,8.483010360687153,169.5844458049651,0.043469977077630284,-0.1541634170329939,-8.96546134867491,-2.4259054639804076,-4.957797174098226,-0.7956814567523756,-0.11931245681828878,-1.4314531107091295,4.028963108069198,1.7998602184936001,10.839819635255072,-1.3546877563501183,-0.2555076064122024,10.961468269411276,-0.09798940295338096,-0.04745579783615493,0.4126567074352866,0.057142274925455254,0.0469825714666156,0.15383724270297466,2011-09-26 15:05:42.183376352,8.690467520
48.99944612258546,8.486521584766828,160.15210468335906,-0.06969372979343672,-0.3220622560189983,-3.472038495878163,-5.642100396805538,-11.690731515486815,4.557547320685638,0.3358314132196483,0.5729887733760731,-19.30946788070099,-0.15189150175521526,10.286553982955763,1.1556918348925622,0.9163256928782538,10.309517277930768,-0.1330000410847905,0.08452253661022285,0.19388380493540458,0.003618421537764451,-0.01514954204278357,-0.12434953164685374,2011-09-26 15:05:42.283319310,8.790410478
48.99866502062066,8.485282632034155,172.15402706447895,0.062045718411404036,0.01600359363963752,-1.4718456162892573,-10.581905496283838,-7.337488742374139,-51.82810247998323,-0.12205776087897241,0.03016465106734645,-12.896146216275156,0.2724711933475531,10.324703485320114,-2.2348533768470094,-1.524820309794102,11.503233832381136,-0.016731915796447873,-0.06757160192232138,-0.499645512193745,0.3579200271680184,-0.00913860909496926,0.29064676538201323,2011-09-26 15:05:42.393357894,8.900449062
49.00004496132443,8.48506761876743,175.4608142865705,0.0824484726179174,-0.15447410256828206,-5.933880828092105,1.2772581638390275,-1.2570395391500901,3.637841067264929,0.0845514226445899,0.5261617394795357,-2.792749004361023,1.0418422235178246,6.826919251351197,1.9553245148024978,-0.6929635702364938,11.722502524843069,-0.153829283401793,0.13852805588185665,-0.015675370996843872,0.05806527418623171,-0.03609391170772375,-1.0761407359575876,2011-09-26 15:05:42.493326877,9.000418045
48.990232180591185,8.477368387358755,222.99494059625323,-0.07717671490353552,0.18270290452925386,-0.26138722617067045,-8.20376074548052,-7.578938936093547,1.07133559914236,0.16332018229366577,-0.255312137965065,0.3354636360026764,0.1748602342503357,10.441475913683561,5.716387977332295,-0.5087895643118628,9.07261505115177,-0.03290898951470445,0.05308397333668887,0.7083038303900793,0.13109054150426555,-0.04309215823048964,-0.02877012328246084,2011-09-26 15:05:42.593416537,9.100507705
48.99533057186469,8.48470998098092,162.79132629479187,0.09614897320365248,-0.18240524757850826,-3.61111545103134,-1.873857643096601,-5.5487100647491365,6.959199670583473,-0.2247625605042423,1.201839191227458,-3.2399539061611433,0.5852187050746783,9.52851410031371,-8.48348253188724,1.4080198123577334,9.92517201664794,0.03818707499183563,-0.08504494778982684,-0.3476550852993403,0.0699700459524112,0.39204075592242266,-0.06255641974994317,2011-09-26 15:05:42.703408950,9.210500118
49.00000096506259,8.484127311779048,186.08932193089638,0.03338769580501882,0.15705593954634853,-3.2941911535984802,-7.341714722760702,-23.076314055767703,5.124642709907265,0.05030708864180179,0.7246005231294277,-1.582586848154863,-2.1153613094037547,10.028300771149674,1.1033030566445579,1.1006122461222059,9.985672274120004,-0.018783390772504772,-0.007473828380430663,-0.16791031631323194,-0.11300062661119342,0.10957953181923298,-0.4344200449026329,2011-09-26 15:05:42.803352093,9.310443261
48.99815574601109,8.48766533025387,165.29595486227788,0.014036746056806295,-0.09657202222367456,-5.9476097226889895,-7.981584809490891,-11.942768028491708,-40.155071962020784,0.07351889517777765,0.7958785777164288,1.2293014154942163,2.497297904670849,8.721232374822755,2.259685711439685,0.8130341151948214,9.795711571316742,0.0661580441494471,0.018096727829371207,0.0440099891796139,-0.023415069157108392,-0.002304175519875374,0.7552622674481693,2011-09-26 15:05:42.903340596,9.410431764
48.996878183259014,8.483474771491801,171.32949137156172,0.040393970822049034,0.11286857327786735,-2.329729501128755,-16.833560091426207,-7.939685388798621,9.983909605896756,-0.252249179141745,1.1309145537830585,-2.3853816119000686,-0.06585028959916828,21.786474750723983,0.48870232562602367,0.9254051714028498,8.35130820156325,-0.13791049623123436,-0.0836777386181225,0.2224648410150943,0.45950529593952916,-0.03209210731323007,0.26836700996865176,2011-09-26 15:05:43.013365641,9.520456809
48.99562066252235,8.46400835453307,160.47363942265417,0.0782097656012002,0.09436445278221839,-2.493119188481235,0.3191060199268767,-10.193805944227496,16.230799773138624,1.0029954594359984,-0.6290718712078466,-6.641344919492572,0.291920016437312,11.4582633481191,-2.5540429895671,0.5131935042608023,9.323526249375185,-0.09277859068297284,-0.1888703679071949,-0.13568722292467844,0.5842050225540327,0.09452457402716577,-0.22802530089354464,2011-09-26 15:05:43.113540138,9.620631306
48.99963558244457,8.481916872982234,160.17435476592064,0.0651407554806846,0.08280720751968847,-2.937655287587768,-2.785894257177695,-3.3937048228820386,-0.5339985938803187,0.17169798395935515,-0.10745822909905489,1.6547008238903989,-1.2393554916198022,7.677466454193554,0.7823059651699156,0.9114726432690181,9.38448595935013,-0.036351605930211715,0.36730706921179135,0.08053739167131574,0.04842904501453836,-0.08600728934478587,0.04751530639211145,2011-09-26 15:05:43.213460437,9.720551605
48.99794208684719,8.486566043585436,169.34418050748758,-0.049834414415310745,-0.17669690459580098,-0.15728340595780654,-6.732595954712809,-7.846828160939942,-23.616433276936167,0.05640585374734497,0.9986847047989029,1.3602775513004328,-1.9941614739563984,10.051570680391428,-1.1867260696617659,-0.13871209194470838,9.662483817563908,-0.15978851748125406,0.0004477976204933288,0.008770930749378228,-0.09751883999038204,0.010317832662562604,-0.6882660551237454,2011-09-26 15:05:43.323396925,9.830488093
49.001215546704756,8.48360444147846,161.9443045485826,0.032541258899138246,1.5545355281105153,-4.240203033716068,-11.156849043546963,5.477801789812668,9.122563920080921,-0.0898288622174719,1.0048028924601444,0.9343950265686802,-0.17281346186440888,1.489991554206652,1.4284517652827118,1.3879046259489678,10.130999817737582,0.035614942156335344,0.024749657054944058,-0.31893111370431076,0.7257102771641262,0.07706104873463937,0.2841172093072854,2011-09-26 15:05:43.423367151,9.930458319
48.99766113002448,8.472484002064359,134.88474471561247,-0.5097156406800569,-0.12217209124023502,-1.4914381864165556,-4.122461466510647,4.0554674550656795,11.89407206677054,-0.05162043657296475,0.614468072304166,-1.7085901985918361,0.8715773767763851,8.800646649337077,-1.3440356852260613,-0.04612130772722278,8.5354507716932,-0.0120238966351712,-0.09889778645102024,0.5743862935435218,-0.1635998002841384,0.09057788058485725,2.0046667757175265,2011-09-26 15:05:43.533395113,10.040486281
48.99595317540348,8.482346461254304,172.99183426421237,0.032841309641789676,-0.04853549821537808,-3.1491695788081904,-5.833848963568253,-6.684968263813971,12.923033993701956,-0.11993311755362149,0.6756868490985324,0.5126181898239865,7.098637021819528,8.628749199532269,0.32511380383539074,0.45827034635538955,9.07895266360376,0.007712007508947311,-0.7837677229051525,0.015991590790636216,-0.08846676720327859,-0.026024880818187598,0.2195935820545056,2011-09-26 15:05:43.633577138,10.140668306
48.99195949377251,8.501480563538134,183.009215452398,0.04400773172039809,1.5161055162798183,-1.1556935644551882,-13.102879648630598,-8.725826749080102,14.802617331820807,1.348158949567184,0.9732505813375628,-1.7041228100412953,0.9400530769859269,9.839208414270843,3.6501095500897147,0.7405740713898904,16.44399939628142,-0.02595470152931854,0.8019711033582271,-0.48888385659176076,-0.04149019618891483,0.16694282370765487,0.031069844435269278,2011-09-26 15:05:43.733398693,10.240489861
49.00065233092259,8.482698596786392,165.80517424140731,0.12376503680881737,0.027118219601655988,0.18952647390505106,-3.615571618705169,1.757246742260154,9.616642593586004,-0.001697991267575652,0.0037415747652747022,-2.1740326826185865,-0.378105126968666,9.86028162833847,-1.6160927369754632,0.2827284030943126,9.207789077239005,0.02767571888072439,-0.040309181537774935,0.07545472566559638,0.056650193398762635,0.009552080390497857,-0.2440313400661724,2011-09-26 15:05:43.843429752,10.350520920
48.99796640908707,8.481037438801046,256.47266826158796,-0.05148605903252751,-0.22536959861099667,-2.4672168960399627,-8.780950221228435,2.668343722999669,-2.8637269766411926,0.208279731053275,0.6800439283291413,1.3569528122711536,11.6891893011851,9.15340474546564,1.2072703510122937,-0.13475574829319542,11.092462033360444,0.23068384864676567,-0.10964380348827218,-0.15973409243173248,-0.03593551080810441,0.1089813701777827,0.10085723401909258,2011-09-26 15:05:43.943388143,10.450479311
48.998924180965375,8.481920793860956,221.87526362999554,0.25709939319762454,-0.9833795049418075,12.329527904742726,-3.3347529414648847,-8.251814360596034,0.6026106134673759,0.0872535149605922,1.123094828370268,0.028929696069488225,-3.9079248631624957,7.933594464083938,-2.8324046914058743,1.9301363671303524,9.119171404436486,0.0001315142281297088,0.05089300067962049,0.7215673851117271,0.03473537871471212,-0.07718093689151893,-0.36126944290048435,2011-09-26 15:05:44.043406003,10.550497171
49.00698387797206,8.483428844462662,171.53612230520284,0.03494761636489346,0.7507864833448323,-1.6558930658426392,-13.713124586346659,-9.24747383942092,5.9282593756668795,-0.36771876152626726,1.349339106090131,-0.8489040415647002,-1.2404465972744778,15.735888214249425,-4.7882281137029015,3.37879655076673,9.284800298952298,0.7422257474614774,-0.28982565921146825,-0.27906083412352695,-0.04783044789607419,0.03136428960843578,-0.4260956623022858,2011-09-26 15:05:44.153471122,10.660562290
48.99740967386514,8.49191404898141,171.54192481752932,0.11609735278695997,0.42832129098898547,-2.345421241946773,-25.158494220268764,-3.507012607816658,3.111843494172978,0.04185361596289322,0.5867077204003306,-2.7879568318556673,2.3548023580070976,10.381939522861279,-0.617480416954352,1.4942628725810887,10.77673876633031,0.0958007422109194,0.099048999328158,0.26948815895415074,-0.06022294274057686,0.08699058854382107,-0.17322639121733358,2011-09-26 15:05:44.253422873,10.760514041
48.99848186727245,8.471398344595245,145.57958580665968,0.14211397201405257,-0.06520363488681605,-2.4432442501680116,-6.975110883234173,-7.650589930787717,-13.36077651224381,0.0592172960590154,0.7818793567629254,-13.189831243116098,-1.069788605366047,4.746279952979529,0.30149773141049796,0.9091209582128752,11.23559287865585,0.40270728763058095,0.05606438893306908,-0.1261807494009395,0.22286913864238578,-0.0401895715826014,0.07994274838422671,2011-09-26 15:05:44.353451384,10.860542552
48.99478313655931,8.48391958882179,180.43026003504514,0.016444997917713783,0.2057563116312629,-2.4636873270554327,-12.247841365001737,-3.066539013890763,-0.4033119883196923,-0.33254429491321386,0.3854056125397449,2.8205263241929455,-0.854916239092402,9.99851813155462,2.9028665732477053,-1.0343945105073777,10.011960584642495,0.03261951937387902,0.07512719118352813,-0.262845728841726,-0.043352945339210705,-0.4067699790021254,-0.19503199227447876,2011-09-26 15:05:44.463443711,10.970534879
48.99122906652069,8.484510233863265,185.97947988610994,0.13700477881524137,0.11054080607268041,-2.5469811911397007,-8.214788362993367,2.228424132343238,-29.201822335685478,-0.10386475277191422,-1.5871013863231795,-2.066336210773004,-0.3416265627681099,10.91432571571651,-0.8617653217560497,-0.4410568280409213,10.572482178539039,0.07144225473416822,0.04201178204916697,-0.3137285483426365,0.23240417353247086,-0.01617130406839565,0.025966010157515384,2011-09-26 15:05:44.563414924,11.070506092
48.99969285026644,8.484100448336275,256.96097378000485,-0.06117318301587616,-0.22285716371111017,-3.143915749861077,-1.4592737111590668,-14.444061581952822,0.9973483341314804,-0.09727761759210836,0.8601873863867929,4.270670748452883,-1.1366235309256245,8.869264905132527,1.352246169178239,-0.6143938106089905,10.620062969932404,0.06090080326928926,0.023550964897481787,1.4875568537414396,0.18379271027863753,-0.016039283671766043,-0.06058450288922562,2011-09-26 15:05:44.673516265,11.180607433
49.001826266648045,8.48356350683423,163.13728690770708,0.14247303094711244,-0.018735623286663665,-6.694955671086667,-8.162344076557394,-2.475163470996477,6.152910537712541,0.06761702116368173,1.741500461268584,2.5825861926002984,-0.017862662147871022,10.965165690549007,3.2569209302610878,-0.04443463331536801,24.184500497576536,-0.19479003344523316,0.03008898471677262,0.021893592286927784,-0.0338958029395604,0.00025840358027666606,-0.31125029377401303,2011-09-26 15:05:44.773434348,11.280525516
49.000065512286504,8.48737760697984,152.9892673630498,0.07888508131565822,-0.21724509116531723,-3.21381984457871,-1.8162387372354796,-4.448235048034683,1.492295089065494,0.23259456148877614,-0.015451914838760794,10.368893535159671,1.3873608495035836,11.42939504125905,0.5216659456985427,0.0774183137848605,6.964422745541176,0.047099761593471415,-0.08530164498928641,0.3749520534190258,-0.025015307690148952,0.44286505005820714,-0.28166431830167504,2011-09-26 15:05:44.873449691,11.380540859
49.00070939237107,8.484213021715432,180.61781259353646,0.0690946182037698,-0.1642012115360393,-1.345063572578339,-12.850402406408893,-7.3185764983458395,4.839749837913434,0.2795307242563597,0.4790812934182561,1.7971189025610745,15.842947824281906,9.908413725283024,1.8547456020640227,1.8361907304395362,9.009681128780787,-0.214885966679752,-0.12724894509955614,-0.31546176446936125,-0.5130053750542826,0.17153727372301436,-0.5253308520382025,2011-09-26 15:05:44.973486975,11.480578143
48.99949530263487,8.497998409115093,153.60657021613346,0.05138166359335013,-0.08854758454361256,-2.080178762879933,-2.44483510980906,-4.60631895413559,23.13541048163314,0.20620707014911094,-0.3090260760470802,6.196268047971981,-0.18082738629138473,10.86553119999313,-0.12040842932226399,-3.2937830770929324,8.710701993408033,-0.083311443168507,-0.01666269184617562,0.25013457361205804,-0.0708919419486379,0.011907149024003779,0.1375508845326761,2011-09-26 15:05:45.083549876,11.590641044
48.999704291190184,8.482685659775655,195.75327204340363,0.1936302845801786,-0.047155382313915535,-2.1328399622844487,-2.892176778522892,-4.30001209336085,17.377424827130636,0.03970181170343483,1.6063349472748043,2.24971629479016,-0.2872444058854788,9.542524815513952,-2.275525699535152,0.33583720616145185,8.919358619849094,0.07227999320924214,-0.05502330407743408,-0.11639351821206913,0.10819746770138473,-0.01160430808803858,-0.6459563419381262,2011-09-26 15:05:45.183487813,11.690578981
48.99826684014615,8.483277637150364,168.6810471588414,0.37049836626826804,0.009613440688338089,-5.021349638955153,-2.3327767143123275,28.248879484266133,36.78514858949388,0.07754251098984874,-0.14517358045133794,1.9052732610857834,1.0244025499431013,10.671492016275153,-1.4412597400191924,-0.8468254100373684,15.977714730683324,0.1134423433573656,0.0007512916093666555,-0.12776209760598792,-0.10841500581269783,0.04045885853370686,-0.06945939269519473,2011-09-26 15:05:45.293463758,11.800554926
48.9889249204106,8.482421858681338,126.66797186576318,-0.0412313738955038,-0.27900256401407625,-3.8641225870293905,40.01774410842087,-7.17098221850278,3.674623045468599,-0.22175217098471947,1.2574962057271057,-2.384814120457813,-0.8846107364345173,10.386932642437534,1.3254032461780567,0.6566150824240531,9.049311354513765,0.021485949178544052,-0.08836280078200513,0.04221103379602625,-0.06150641601743827,-0.04165509015567397,0.09285909420716178,2011-09-26 15:05:45.393482242,11.900573410
49.006996553063914,8.483438067588969,180.57203069481355,0.12151511103707835,0.9079874791489364,-0.6046873965244444,-32.991310142657916,-2.381354332101624,34.2419721775805,-0.058384365409742574,4.897526642497624,1.898800517957791,-0.7965688494067746,11.762371161118418,-0.3778781804036978,1.4787276907500781,9.700418573918602,0.1128546130568023,-0.0346000020397645,-0.22975840269311137,-0.009792990718888972,0.017630674130745237,0.2621029265119267,2011-09-26 15:05:45.493464822,12.000555990
49.001721396680914,8.483187845299076,188.0616652129431,0.04230124751301843,0.02679492707442864,-0.11590757752437941,-18.825959797849407,-6.075516503388807,10.52437255418812,0.17847827617240275,-3.3481165649749047,2.640411439101138,-0.31667022493463554,10.707301617053194,-0.9727685763005708,0.7981241313895433,10.538643707618757,-0.6119081509280447,0.06424703442255715,-0.265014561045765,0.07822139343468931,0.07742246117197368,-0.21671670622813557,2011-09-26 15:05:45.603677387,12.110768555
48.994461679276,8.483291578671743,164.11139363865755,0.05889904059784857,0.008432935454438267,-1.5768975061085782,5.15047069790112,-6.057216319077925,25.41724210338998,-0.07200363822805965,0.16082281837135992,0.24770187214130046,2.1407278088204778,6.452223277024649,0.8219114315988968,1.0563851883996842,2.2547077996777602,0.07302891924556831,0.6396712930353009,0.2716507660548785,-0.1077361522819901,0.026246560516982605,-0.2002205703134042,2011-09-26 15:05:45.703505138,12.210596306
49.015476788681504,8.484134725344024,158.51933481310851,0.05479162837042428,0.07043995337457723,-1.1229609607637452,-5.465050498612225,-0.8280685915071815,4.485739563725321,-0.0475138838453549,0.4511702242469494,1.1906446881592159,3.2312333862433364,9.011194419975203,2.7541111562952336,-5.065226291166536,7.939443304673923,-0.056197037156707666,-0.005021454237754665,0.5271734899541579,-0.078696319458357,-0.03977667461554529,-0.26035958431372963,2011-09-26 15:05:45.803488762,12.310579930
48.99832162700713,8.482544445475115,172.24192622036023,0.1715398659308065,-0.19947797459807498,0.9452205543648886,-3.9738120386604363,12.866260617165771,6.0774795885471855,-0.6285905737859785,1.8641772333351925,0.5119450017531226,-0.6980433752020138,3.600245596076726,0.33003615555113797,-2.7678807929727673,10.760071264502736,-0.6476675670841656,0.016307291189640964,-0.13352213520282952,-0.014775629579950192,0.004834710673286807,0.03707323367599817,2011-09-26 15:05:45.913561071,12.420652239
48.998617969210976,8.485007581672226,123.32210784362417,-0.06120518887500752,-0.20846984179346628,-2.4706150226851618,-6.795231237215651,-4.016687356821026,-2.7188158248744045,-0.11605745910802784,0.23626494344433002,1.795469700920318,3.6309743539998345,10.199215927471863,-0.0638915340458295,0.9343822292642066,9.096361254530445,0.2156482206511423,0.011340737841369596,0.4651033889538485,0.03364075554598404,0.019184846774710336,0.05960829878328176,2011-09-26 15:05:46.013501827,12.520592995
