lat,lon,alt,roll,pitch,yaw,vn,ve,vf,vl,vu,ax,ay,az,af,al,au,wx,wy,wz,wf,wl,wu,timestamp,rel_time
48.998371696176015,8.483630952618723,174.1187820344034,0.10684897072331224,0.30466859160192905,-1.6927036681580676,2.4335966938550597,-35.7768289846332,57.938551559571756,-0.12421039482658111,0.11095349723784997,-1.723793253934227,-0.3042318346206898,9.46299146191702,-0.5321670256588578,1.7938601278193773,9.402811684258182,0.1833913793655766,-0.003319041122379014,-1.0381359513931452,0.010014033519799053,-0.6460856356939955,-0.08844570039090315,2011-09-26 15:05:33.492908832,0.000000000
48.99571706996813,8.485199701640848,212.75406496531957,0.0614564858806799,-0.04573312358498074,-0.25801207357132294,0.32627757521632317,2.0390046488469116,-33.89875573155094,0.017817994343712028,-1.235894025303202,1.2465743205387367,0.26525786067530976,7.919188226314934,-9.7896675333043,-1.7006990937834996,8.539219128119525,0.07076364080234333,-0.34327185366326873,-1.6127951369162419,-0.059649790559062735,0.029385596041990845,-0.24359707826456675,2011-09-26 15:05:33.593043173,0.100134341
48.998829083178464,8.4847753893644,171.65151815847557,0.034289516109521904,-0.05965807299657874,3.8473882893395457,-1.8770761272513852,-0.3592146698974568,4.1901255587768125,-0.13449619311136643,0.1526729357875745,-5.994367103964404,3.3774805387124456,12.17729445402424,-1.736554992323867,0.6100942862775115,8.128507671592583,0.021745866065876387,-0.3116328106408722,0.15473052997460202,-0.027944674173379355,-0.03229663414847434,0.11655247731598789,2011-09-26 15:05:33.692969739,0.200060907
48.99701943820434,8.480123857459986,171.96681059393592,0.17309595752926887,0.10305410437448456,-2.9281156536967226,1.812187690084551,29.738737933245577,-1.5669879112021428,0.529795611987021,0.05695398840860659,-0.7098209932679762,2.194344806036154,10.931827991358631,1.9589218170831804,-0.9190683585465119,10.037932072611177,0.07684668957617886,0.15190401273028326,-0.14187891369989047,0.007398269494531859,0.08369699456103229,0.17098217567401447,2011-09-26 15:05:33.802939073,0.310030241
49.00160027537245,8.486231705588285,154.5732340748539,0.15956319432562666,-0.0948043250924457,-1.094805713629424,-8.210757007202265,7.1663061260093714,4.313619742826829,0.3222035300315228,-0.7266270733480579,-1.6842955451241732,-2.280010128279589,8.38747725045,-1.3105459808098883,0.8518162037361271,10.220251034442295,0.011834618924249848,-0.07390154011103561,-0.0856886956997394,-0.09466645628074687,-0.020640397134534253,0.3904342901410111,2011-09-26 15:05:33.902915688,0.410006856
48.99857114246105,8.473337222385235,151.12100106980867,0.11876558397393794,-0.08211928949292865,0.8272942631885447,13.846319872620985,-35.90617416507958,-1.635869760657576,0.07483626913563605,-0.4645517850610142,0.5477407584176422,6.873493824156339,10.193993512469872,2.7292026351364145,-7.600634428987545,8.57338850875368,-0.1580936550476664,-0.03669465406250488,-0.34777960010490755,0.7020850633095413,0.049172847168394894,0.2784300949814632,2011-09-26 15:05:34.002934301,0.510025469
49.000350017022036,8.48544889499539,175.12660952751511,0.07275444140227869,-0.15719081514248892,-1.5165246338612532,-7.59670323344487,2.9273461892445556,5.712897594266364,-0.10008447343713817,-0.8897292951350605,2.3528961729140994,2.886715850188129,10.740921050274826,1.5998666703243554,2.6976551135778006,8.670307937250985,-0.016148465380869954,0.13448614589805782,0.8264512427884371,-0.013087098667712172,-0.2822613192528748,0.33325076717008123,2011-09-26 15:05:34.113043290,0.620134458
48.99213122534537,8.488815829973207,155.64610644081574,0.03510993553406709,0.05116955965555549,-1.9426864614296375,1.8721542423312827,-19.278272627197854,-1.8079125994280927,-0.10791617601783682,0.19310716450205861,1.5128581806766932,2.639258507753591,12.122752134334583,3.108418509735303,1.2435921386721387,10.194075710902005,-0.5643254446990822,-0.034804101970783874,0.053282677186262103,-0.2762099801679438,-0.08100495033899849,-0.27301100177970145,2011-09-26 15:05:34.212997341,0.720088509
49.014499004052134,8.486249658051506,168.27971667984468,0.02234835647002996,-0.24160927114256903,-2.7983589170304493,-1.7781206289291855,2.5794370746315396,12.39144796271327,-0.16074777193870352,1.341225996320513,-1.1018086862510261,0.25180101410522926,9.785875716887254,3.0356085743279735,-0.8592228516552943,8.685809716078928,-0.05240289136596344,0.10694803907517533,-0.04541864943660244,-0.11725579560323138,0.0349539846314273,-0.3165103849093858,2011-09-26 15:05:34.312967698,0.820058866
48.99867016578264,8.484864874685023,171.00331213924903,-0.009756324751307485,0.1366492737013505,-4.152353875193977,28.474274013795803,-13.233348874276517,-5.730339399957205,-0.4629469107492296,-0.265022897116545,15.688012243844902,2.3219275151160037,11.478249949800102,0.05435616984297309,-10.95523964074444,9.768555790164676,0.9011575863017122,0.004179847100419945,0.12024847892287685,-0.17019546575513966,0.01790646883301663,0.0749469338392247,2011-09-26 15:05:34.422951111,0.930042279
48.999569844088136,8.482422818656865,151.0613130677666,0.02800448669478113,0.2329300554342576,-8.456598545673149,-7.332356974704174,-5.040874322622681,6.015380448762922,0.058718635188116014,-0.1842196208246216,1.6387788688724048,3.921432635093717,9.229835151840753,2.6105218235010548,-0.37314018885847533,10.588171102629861,-0.0002798081550044445,-0.05038513941459558,-0.5954596503036003,-0.036211102914761435,0.15059836978099705,-0.3873686797348634,2011-09-26 15:05:34.522966443,1.030057611
48.999451360265176,8.489375308466027,176.63273084875664,-0.02061189313791717,-0.12516229897208056,-2.350255978695862,2.99843204574206,4.075082872594295,21.183704540345808,-0.13935775959742974,2.250433163215004,1.9652162294720132,2.9757178798971076,8.970163619675553,0.7009847813496859,-1.7323546425533445,8.381641979180403,0.42170160901737175,0.1902435310867992,0.2072339043881834,0.066410891536727,0.010626609069442162,-0.13691081935247773,2011-09-26 15:05:34.623030902,1.130122070
48.998540587389215,8.481145595677804,154.74698803892053,0.029489958216081157,-0.18834325779320826,3.4982927785321776,-44.36227959920281,0.0011047938526455026,-7.180402234652189,-0.2619317782672361,0.5345538750476705,2.875443743394795,-0.9961914367256481,11.141807590372672,0.546923678818338,-1.275359034343479,10.089655136771205,0.011718681277267103,0.1566549461179574,-0.2649925006057686,-0.11584361611591938,-0.0913183218864796,-0.4101532632605642,2011-09-26 15:05:34.732985295,1.240076463
48.99863519197651,8.489882032459342,149.99271777669028,-0.17588183177058142,0.6694112655525433,-3.5219624704387087,11.451972705747698,-3.039803097661727,0.7793417015936408,0.1705623066443837,-0.3503182811276144,0.6541620916672151,0.8990589182483174,10.871604924850104,-7.896060171700735,-1.3031266576564149,7.666392470418829,-0.07340884714001009,0.02081972189520895,-0.2075478773341855,-0.02641302428862869,0.10390555289607611,-0.10487520512815186,2011-09-26 15:05:34.833014816,1.340105984
48.995306421091286,8.482701007374981,157.51853123528764,-0.01956084631122948,0.11031477669432038,-1.3331333018041835,1.4558993698758307,8.73152410538491,-9.17124743735435,-0.1842456021701572,-0.36165293784233293,3.601463796830851,-0.15996697393721315,9.253232179955791,3.6810342491811916,1.0953915799780631,7.966945736225359,-0.18003395364682465,-0.0014308390420003994,-3.799848883012127,0.12957764484948306,0.18602987603939108,-0.29215797569429813,2011-09-26 15:05:34.932949832,1.440041000
49.00054908773411,8.47129953748936,154.42399697838377,0.05714846555387483,-0.18135103866571467,-1.1654619733421394,3.1088605392580666,-15.2251618255012,-3.0207202327159512,0.42888844509868024,0.3275417483989015,3.1434394651189987,-0.011574600752714215,11.408984456617976,2.142828541103097,-1.1175056899476834,11.327484944679856,0.03874859885559785,0.14263625245927225,-0.0913281106041599,-0.26330865957396676,-0.08536293204498202,0.0071054927365102605,2011-09-26 15:05:35.043008550,1.550099718
48.99541706923347,8.486119023554817,163.56781137405446,0.04714401655223954,-0.052675484774982566,1.2060883361312345,-9.828370534802865,0.6879476268161319,-29.939326346225986,0.045785570396321015,0.37863291563468326,3.0993559586830415,-0.08366190069012291,10.808463532177752,0.35946188581959704,0.3270797691181536,9.07625081669659,0.1723484123554158,0.4730624685535836,0.23784363827625096,0.010928623839333958,-0.022003717483356455,-0.5751479859582027,2011-09-26 15:05:35.143105898,1.650197066
48.988629830068994,8.496375727507997,157.50274923529219,0.22767820612062084,-0.23239419899970837,-4.735501874903505,3.4921945911791132,-4.1241550001992735,37.7526894043756,-0.36088340937231705,-0.6198156646808829,2.375425035731541,0.8828140163486503,6.421302595452134,9.982704342519279,-1.315923036385724,10.604761913372498,0.032289742942750305,-0.074477855059726,-0.003775703609480402,1.42298816595297,-0.04477276290153845,-0.19464733108609256,2011-09-26 15:05:35.242987583,1.750078751
48.99953777645555,8.48105247091648,173.49262946141448,0.03431570681140837,-0.08726566343643444,-6.095304522999272,-0.7215739208916223,-3.0185365593439912,27.50458198840462,-0.2527309183958098,-0.14681219891442956,2.3548994084986377,0.8249887089582773,17.716286468996493,4.6428544491244415,-1.3342186177266684,9.81123273770612,0.6668712757433931,0.09064390229092276,-0.8137402199432825,-0.05481720736830699,0.012470220670252916,-0.14430788653905074,2011-09-26 15:05:35.353025668,1.860116836
48.99921550671114,8.471995409817382,164.0234151586587,-0.048937041324611755,0.041494077128729795,-0.8254036383838874,-24.22567252900156,28.66168533447385,-29.4460993564725,0.10147092970463034,-1.0163914986111806,13.285974621645462,-0.9679627606136193,8.25570464639783,2.7395574218803884,-2.14666808769863,4.220019526568648,0.019767729657581702,-0.07547950637303504,-0.20151838380279488,0.047161553765606705,-0.04753640595308682,-0.45361204079360945,2011-09-26 15:05:35.452997636,1.960088804
48.996612301372885,8.484800225997683,137.823638204999,0.38588632237283893,-0.03597660912998193,-1.387333753904014,-7.407312615381282,-1.4885992821256169,-1.5329475240797774,-0.03777523269612085,-0.16728862740258135,19.146031312064544,-0.5699241037847853,9.338868301160332,2.0256346384890525,-1.6691378239136319,8.354819928127835,-0.10408802898014921,-0.0015531333834849885,0.053975668037399505,-0.04186662711744901,0.11664124919580045,-0.003683635525911194,2011-09-26 15:05:35.563017701,2.070108869
48.98665352978516,8.47963900960504,173.94813237224824,0.07561939308380161,-0.07394722634473871,-0.8101385827244545,-7.4886687308963875,-5.468987378574854,19.294445802688987,-0.2816119463886887,0.11434176234897477,18.04661178274042,1.7176609288600604,10.0218603607129,2.1254363577776045,-0.2945319955750332,8.99947999171036,-0.12319796789338058,-0.20023444664330928,-0.2289002164153292,-0.0010049772927127679,0.029683991035170748,-0.5076953994328981,2011-09-26 15:05:35.663037187,2.170128355
48.999864844013956,8.48371198846269,159.79552359295312,0.08345036646485467,-0.03790328058055734,-5.739996913230953,-28.049993683038505,-15.283387258661051,4.1290996187347515,-0.09587380890041777,-0.6354704378967975,4.512234044655395,8.862301360284324,12.28296062721912,0.8771343368246947,0.5595823370809649,10.302485430879193,-0.05029073977608218,-0.12600896338806325,-0.2526563626150694,-0.005396376866164003,-0.023944022467696197,-0.2888309023622783,2011-09-26 15:05:35.763077782,2.270168950
49.0018359043214,8.481899089609897,159.7985034483105,0.06126279926904569,-0.05743432369940554,-1.8462228218676857,-3.230640679121456,-3.7485624095512744,41.16967735442739,0.11116143315939093,0.7897195767667177,-1.276121724119713,1.626750712660307,5.021196057943466,-0.7643431958855793,-0.7052546203538435,12.07800408958876,0.05305311376100278,-0.11662129527010037,-0.060753047331560284,-0.08112418708654914,0.01670419251274356,-0.48931204558934804,2011-09-26 15:05:35.873032070,2.380123238
48.999669689191066,8.482795610876623,150.5656133471031,0.1575018533639036,0.06972093524046977,-10.838511228766771,-9.501007371354554,-21.304270930658866,-11.666899052673969,0.4062321765458023,-0.13453457374385744,2.893314066244626,0.20682324320333573,9.956416840586918,-0.5112454719154742,-0.002904885340799135,7.821174591855346,0.613475180602135,-0.04855292336300564,-0.14151333568860514,0.02680102678656081,-0.046022162705876335,0.20073986001081703,2011-09-26 15:05:35.973063010,2.480154178
48.99979551708987,8.485552500242122,156.0185500676344,0.08346475985237056,0.0830160824635755,-2.0890054926681194,-3.943671177366186,-5.370516218689524,5.305435139132266,-0.05026028613028688,0.6154372887863505,3.3165846487623867,0.8678625849307853,9.33477921791775,2.04266672692683,0.1266335483107346,8.060694606400864,0.2317499583836027,-0.022685056527781026,-0.16530122590470997,-0.01917503101546686,-0.10427308095302104,-2.733618563357118,2011-09-26 15:05:36.073116020,2.580207188
48.99084793041735,8.487461428309924,167.56838604204472,0.2595409693704241,0.01168658745675119,5.018960714765278,-7.949931290794582,-6.898417781262692,2.6300456774976952,0.3099736585950361,-0.02071136185709259,3.094960920075601,2.8128158811847603,10.967574876980263,4.0628000028338445,0.14069019797493015,8.059579237144119,0.20891416729527332,-0.1476054064222929,-0.1459466489304915,0.03718355799557348,0.08702132763204373,-0.014773918140941616,2011-09-26 15:05:36.183326118,2.690417286
48.99754118872051,8.489611359027592,164.62740295324517,0.06230220365861784,-0.3567372495576588,7.2697596241029,-11.164433948540273,-0.7719425461261789,9.333546626614794,0.6203553042918295,2.078908429716129,1.937343606911902,1.7572439171235217,11.249491296517435,0.6440518673436764,4.543297981750516,9.448459140372218,-0.006236837891971422,-0.05304056274249924,0.05989640006217303,0.03953383829637119,0.038149339654009816,-0.253415337213206,2011-09-26 15:05:36.283043985,2.790135153
48.999118739052086,8.483712257587277,155.97709323552,0.6174324451652408,0.10141408691866095,-1.7160469231016795,-4.265767822001315,-1.5733992937854036,8.01264054139235,-0.04764197851858491,0.03980654104326086,4.15962722984824,-0.6936552072930565,8.197803183727506,1.1308162682610319,-0.6452527772454124,9.0604028162418,-0.11324469609785696,-0.10126029765468711,-0.5010844310192221,0.07457166597394137,-0.06523348192277287,-0.1671213425051281,2011-09-26 15:05:36.383269088,2.890360256
48.99758249667586,8.48647274916297,142.41357347780533,0.00948599610597678,-0.17324194589400976,-2.6208414034579652,-10.493314692127157,-10.270051325571725,0.7647196710251363,-0.6098133331890778,-0.6193005020023822,-0.08367172294940195,0.8266770466991434,11.83999979374099,0.5267920605408347,-1.9566201966997938,15.583640044707,-0.19026363944810568,-0.12251938347595993,-0.08226078227556258,0.1355712873269543,-0.14500865751114514,1.9081240322776425,2011-09-26 15:05:36.493076580,3.000167748
49.00106671341687,8.485550214210418,157.60699645538642,0.09756715627792192,-0.14786965615755482,-0.9682380176499426,-0.7048571623904034,-6.2723080871706856,3.0910931399054484,0.2622560399050186,0.48181990331617675,-0.002226222308673531,-0.5990458200525561,11.33148685510975,3.028310245536489,0.0566168565382017,10.4892572414459,0.6419009664819022,-0.2048637175537836,-0.23015876457873535,-0.024064390968435725,-0.15545008911636476,-0.1140814512191748,2011-09-26 15:05:36.593293964,3.100385132
49.00067812462503,8.487775664086888,156.5426525533678,-0.215969480618395,-0.23945466294486475,-3.1389277967368843,-8.136749687341997,0.38165689607182207,12.009576997897849,-0.007944723818426662,0.0029877197428237467,-0.5495638539642127,1.8810635454899178,11.703831778494136,6.04410784386469,-0.8680002538157123,9.25756128979517,0.10665253996117621,-0.12665635084276894,-0.24708477016120672,0.05387608149994371,0.05759963556031064,0.3327975542182586,2011-09-26 15:05:36.693164147,3.200255315
49.0019089698844,8.469820912710817,120.5462357012505,-0.17405062783088893,-0.28915376435972306,11.675331690639632,-0.38679183503625136,-4.614438846489055,13.347566101777666,0.10975314811539377,0.25477331466239406,4.013216810308895,-0.8708028643828747,10.074621391519806,2.5150918510238105,2.0875792712447225,12.53032254229408,-0.028579189894326014,-0.49879722340326516,0.19662088082507656,-0.08741389320545111,-0.33785742926613554,-0.5013406744642097,2011-09-26 15:05:36.803136576,3.310227744
49.005060328238706,8.484492736257112,159.77176478243106,0.0218296407653724,0.020311481402965154,0.3982387014043689,-6.041575094845987,-5.294669404113266,19.41521275405837,-0.03763454368038723,0.3419703322295688,2.549692094750397,0.8796516073069025,18.499740745531447,-1.5758441061868715,-1.00898525505739,11.101481954582276,-0.00174342631292973,-0.18264217920925035,-0.31205060217833536,0.07910626724318706,-0.08301744979493023,-0.003623748599919055,2011-09-26 15:05:36.903106912,3.410198080
49.00922066647884,8.484203060643452,165.28665637013768,0.14191542770334242,-0.00931869286240683,0.8173170568571533,0.5662740578791627,-17.38945303896608,4.218329950062492,-0.28947215165510026,0.06720685601572501,0.6759638146214118,1.2869709919294698,9.673114138665456,-1.0685895293589631,-1.1034321428988139,10.123016433236446,0.015749701876535398,-0.18802407348009367,-0.13017803312880322,-0.15094278681930365,-0.15753003688177827,-0.3215782017115821,2011-09-26 15:05:37.003097342,3.510188510
48.99828158370959,8.482240588437332,159.17433581095773,0.10843612264636214,-0.18732335270566597,-0.13011921388236702,6.781418740658082,-6.516724082050231,11.154872358133105,-0.00662054286714462,-2.1003006102468262,5.37930251867156,0.7050727072215413,14.57840603571435,1.9159367335110042,3.554681727168388,9.495927665326429,0.05064091704249292,0.0010208413895547302,0.01891708962809069,0.08893901644876978,-0.28655285761222204,0.05072031702916084,2011-09-26 15:05:37.113199395,3.620290563
48.99962023750197,8.483935643634771,165.39219387656416,0.18562471015081666,-1.4696725912359192,-2.027385156304859,-6.546100686473194,-8.666785467641228,-6.9917317784946,-0.3826545861568166,0.475706825370107,0.6567470166124267,1.5339507245235715,11.026181592211259,-1.0706217939862246,1.3533815746512996,20.24498110702814,-0.25023630040761935,-0.06252638307353069,-0.05838264252215651,0.14644637183796796,-0.10860061217640404,-0.7222529677589558,2011-09-26 15:05:37.213121453,3.720212621
48.99891947158687,8.481284289104408,144.74970332447828,0.17116306916708654,-0.17848603684612213,-2.908792623362495,19.215270899880252,1.23851829153483,6.590877594702388,0.09316022245644613,0.4119356821749398,2.64528926811156,0.9070059133191639,9.115455233330781,1.5127786869728146,-0.2578852552238188,12.56907632183715,-0.19407299216852686,-0.10857245694145402,-0.45641879443501787,-0.14128629728613515,-0.02065737043741245,-0.058749367265813764,2011-09-26 15:05:37.313141734,3.820232902
48.99673297887806,8.477646926925074,149.63586617231948,0.38163195162348135,-0.017795304437402487,0.45839589095610433,1.6315613814452226,-0.9619199725707672,-0.22337381941620027,-0.13702833294729466,0.7697189993681216,1.7733947166248758,0.035078945508939086,10.410470055499875,0.9618990896025865,0.4208647411054116,10.197434758404569,-0.021625105850014766,0.03994373428232899,0.010715152164571147,-0.013812690007396884,-0.02939644440745541,0.21344598573856838,2011-09-26 15:05:37.423123410,3.930214578
48.99770102551654,8.48788623673737,158.07846946485645,0.05127750970712468,0.04795810105385767,-1.8397754831022306,-3.3359425023682343,6.435955354126693,1.0443491802006104,0.1504253666583421,0.35828823747286576,2.053349253988013,-0.41765823402528035,8.682799403042283,-0.7098125562969445,0.450185762372166,11.564881865775796,-0.12125414265377993,0.06973457768241713,0.28300435962809306,-0.08153957588870024,-0.014196124656824599,0.41434480967956805,2011-09-26 15:05:37.523142245,4.030233413
49.001848750861654,8.48100468320024,178.01334151252453,0.19500463446406519,-0.15360033285203728,-1.6229148706363676,-6.0880574793678335,-1.3800319833970152,3.42346581214159,0.32578236457150533,0.667071072022827,4.814922786642809,-1.737307863229503,8.206482875592522,0.7009239782936233,3.2600738373486964,11.801986270774075,0.012499433035466051,0.5857010636682697,0.2496647286182078,0.22731463117121561,-0.11095348968092841,-0.14368990421886155,2011-09-26 15:05:37.623336781,4.130427949
49.00498527487999,8.483214915193766,171.5965485538105,0.09799079605096085,0.10933258167609931,-1.5653951948220168,-3.330056661506603,-2.7098518356129184,-0.7985634267345532,0.10613199643449783,0.5231541246122628,4.1971822583634735,-1.156388370140762,9.615142530339192,-1.9481972124129423,-1.3205191496130442,10.235996961734722,0.04939500859955023,0.12921967074822097,-0.10573131454626247,-0.36453510135690903,0.05723125116089199,0.5487449442841912,2011-09-26 15:05:37.733121885,4.240213053
48.99864046096925,8.465154781732016,140.87858866964703,0.10113550299695356,-0.33711847030852915,9.909008863527848,-3.7017914547242636,-6.827274394322351,-0.7425537204346382,-0.2879126951757403,0.8273200252227879,0.4702321810034873,-0.11682598661429056,7.479216182063595,-2.1095373808236904,0.33491694810902384,11.528764953419014,0.11609540788480563,0.0692298970084528,-0.235601728971598,0.051387392628708006,-0.044659633399428016,-2.333260387479384,2011-09-26 15:05:37.833090850,4.340182018
48.99774576821899,8.471125164367672,175.95996782053024,0.1480385912773408,0.18072065165760168,-2.6418640951925183,-9.000444642396356,-5.723667882430915,6.978001657002368,0.05477872244840569,0.7502852646871443,2.095420536518863,-0.3046343359356105,8.737021101808802,1.5353749687984524,-1.3366722685154384,9.337143992190846,-0.042728549852720205,0.12206808908685793,-0.17823175873950878,-0.03037109413932085,0.19740749016004389,-0.3659271346584848,2011-09-26 15:05:37.943146652,4.450237820
48.997505518150746,8.484534883033739,166.57594200108753,0.17249906645345142,0.2088602952573152,-4.844548395337571,-3.6204296891737355,3.1083579451390824,6.172701779618893,-0.11360640104891531,-4.13289935901008,3.6707064689727558,-10.88889645652046,11.026859738796997,0.4422272461231116,0.7193931996178601,8.405651902072883,-0.06389279713446767,0.2063015183279935,-0.2917915126295836,-0.06721775860993977,0.039657708292711646,0.21665655796723632,2011-09-26 15:05:38.043151030,4.550242198
48.99884594668403,8.48311950491049,175.57392081723106,0.09582479546522471,0.08002897164256152,-1.755789681718397,-3.657107438301726,-28.87646544374345,3.4288812927230126,0.18622733030335703,0.38227137813776124,1.9887532582577712,-0.08072019553663662,8.268618249054095,0.24020752776496068,0.6801082724032772,9.086214329038489,0.038362811199153316,0.0024467700906966594,-0.20194909210278938,-0.0235870191543521,0.11762806629853015,-0.11314359022431494,2011-09-26 15:05:38.143263229,4.650354397
48.9996724263388,8.480855964727914,158.71253849674994,0.08898216558606664,-0.05256560539773993,-1.9473679125725687,-8.86975671621872,-13.86721003326938,-1.3643945093529295,-0.0984221196685957,1.5411162727934546,2.658203280755661,1.9655464739923918,10.328733642748317,1.1213693194572794,-1.5153387971247274,8.682619075814447,0.047475207909066376,-0.3905114004441985,-0.22708213242949957,0.10707312819898615,0.025465446922206873,0.560591340653377,2011-09-26 15:05:38.253140145,4.760231313
48.99659907365557,8.48409564158708,161.90866256589194,0.0706990031121348,0.0018294586507314053,-6.409421860796989,87.9608943582466,-13.428294024383773,11.730896414558913,0.012420011781858774,2.5461461402012784,0.9831331328421261,2.2233165732811124,7.18075901487345,1.9083773048072215,-0.9674027854375226,10.834535986458283,0.07105927261605499,0.03541298406526792,0.1421848190533296,-0.03663161671864083,0.08244998363859585,-0.20474164607705447,2011-09-26 15:05:38.353146183,4.860237351
49.002099487296846,8.486128017416775,143.03763624221176,0.04974239189367741,0.15674672428155642,1.000259813915417,-10.118462893458801,-2.6810599268321793,7.820181315350142,-1.9325964583535926,0.16567537156673168,-0.5405305049881715,0.25586623709247713,11.304292023999823,5.189536912769564,-0.6065669306075767,9.939989536422592,0.054552851863350134,0.05929627649204158,-0.15166009155112797,-0.1923300721111048,0.9096523905198785,0.08200138761212256,2011-09-26 15:05:38.453116457,4.960207625
48.99652056305039,8.483481063832494,152.1576516205992,-0.010479806835507768,0.7988097262611401,-0.5782666575010389,2.678695460772502,-5.937464893803454,12.252674220683234,0.12787084781095662,1.8209332731026304,-0.4038266641385768,-0.2208987349783944,-5.323550992746966,-0.742397196214298,2.6228481584111054,13.972894980624229,0.057982157858506314,0.4720968396426099,0.004339314606191427,-0.06817103366763698,-0.5513023403086528,-0.1461463278505377,2011-09-26 15:05:38.563155760,5.070246928
49.02184735475995,8.484198860461381,161.86974133327055,-0.022028157895110326,0.8426223396713123,0.06037378444874575,-13.41188460091832,-6.145428907221392,-4.16110582290949,0.0081503047491015,0.0067716208309787085,4.345720746749002,-0.5599277032528928,10.002596894557653,0.22443345874120602,-1.6641416758202767,9.509238343709336,-0.5730203428689395,-0.0524191323853399,-0.22285040224503747,-0.09254171787769344,-0.020383030367365794,0.0010328096072900472,2011-09-26 15:05:38.663212821,5.170303989
49.0011706329358,8.484162693234644,176.80286418826896,0.0984622396793873,0.051638348486239494,-0.42382094795662417,-11.33808617193149,-2.40545598131943,1.6285759753397828,-0.1229966223641591,0.9642031916585551,-1.4559388172909407,0.547506908613959,8.079494581799576,9.924710910728598,0.08094242437293064,12.262771409659953,-0.1205361191210381,-0.01233571391766861,-0.12549682055877412,-0.19965462042571952,0.11223185043005238,0.4527887563948454,2011-09-26 15:05:38.763199985,5.270291153
48.99606655877759,8.481605808565595,176.16106909258843,0.11570839980917394,0.05674526725722105,-1.5448435990061675,-24.423218230474216,-7.227604134908442,9.796485191601045,0.33877959818481984,0.2569843745213126,-9.933782167216576,0.08513605000525637,9.095312969936757,3.1509873889777964,-1.585472773010637,9.863301882208722,-0.022671436992710108,0.014960096988886153,-0.09614389338688191,0.041936237244801465,-0.10860541684171869,-0.20552481386537885,2011-09-26 15:05:38.873203724,5.380294892
48.99756058988951,8.480278896700735,167.07978282619402,0.08125296214873759,-0.9697729691070529,-5.063793850595859,-7.6272557811790005,-6.360619799391532,3.848721500046094,-0.07240099506809858,0.4311890446310084,-6.084917030239964,0.0462432812481213,10.643817838021533,2.4666713608329793,-1.7558007370724307,9.561439559905256,0.0371270183545956,-0.025763600618108323,0.35891284662948836,-0.0019697287614949197,-0.029656369283283475,2.286089369121265,2011-09-26 15:05:38.973185734,5.480276902
48.99752163165546,8.485901251488684,155.7528642845655,0.034466156920226504,-0.5668252133966369,-3.731281112042409,-2.08408977495302,-7.983229969421174,3.0322868424901994,-0.15346276285506652,1.0403412082054795,3.516529682671539,2.535480753656156,10.622678650692865,11.174855105887351,-0.41251876466110626,9.740394640938794,0.16558219097843035,0.18288129334152123,-0.11119044896728483,0.2743938888311035,0.03922223074721459,-0.029214751481105812,2011-09-26 15:05:39.073238574,5.580329742
49.00031680349881,8.48808837529584,159.71850846579244,0.17132196054932067,-0.2109984032867545,2.9940183071587176,3.3513378014344957,-12.051407595371057,15.533497671575244,0.03209250244256417,-2.9184387023953473,-0.06490111738205706,-2.816189853832972,10.056499835415707,2.1958581056312996,-0.9452561294441761,10.803356338107232,0.1307864307180507,-0.30751296120079036,0.04173976582635972,-0.024189962086742824,0.055839073142186786,-0.10211760101500197,2011-09-26 15:05:39.183459644,5.690550812
48.999275335632426,8.483340045705893,160.75456073253386,-0.008156813174469368,-0.09990886121765571,-2.7179115729121084,-4.71309717513046,-3.707525486773007,18.961489267822763,-0.009540458209474337,-0.40991109246683766,-2.64688329324302,-4.267803185191488,12.066488599732288,1.1644192196937169,-0.7994244843307374,7.95350976842619,-0.06808600151756496,0.013145197021582233,0.1829641152728203,0.1275194222136032,0.10057607191572732,-0.15337517361446407,2011-09-26 15:05:39.283235407,5.790326575
49.00920551130052,8.48416441706688,155.31741939041075,-0.07306554980573339,-0.35196128922527814,-2.410139696120338,-6.355273554843756,-2.207563197649571,12.35475520408717,0.22242980699758763,0.29277939061263525,0.6782988150688121,-0.4076514077876879,9.679594384720165,-1.7067786744861042,-2.9481100167035796,9.296801485771647,0.005873681264674879,0.008930105475694339,-0.2624973889514786,0.1870357207558617,-0.029160018478177237,0.0824982857409465,2011-09-26 15:05:39.383349393,5.890440561
49.00175641044517,8.482004794501915,161.5737717630297,0.03581767790991197,-0.14523098661585168,0.33134822886222315,-3.498830094352119,-34.763614202117395,-0.5798026410050623,0.18294975671054103,0.6857183075527655,1.6119272941129705,3.5086818998354294,7.810056163019674,1.4742834017514346,1.1598779498394054,14.092908565529312,0.11156506066884583,0.14346900372617463,-0.1057652532229114,-0.05204931013521799,0.3701863235343526,0.09177855171915655,2011-09-26 15:05:39.493204809,6.000295977
49.00650591687114,8.487585965119028,163.01708108156274,-0.04850266078541809,-0.07938332052809652,-14.184560877109227,2.0772475506334507,7.767756060936258,14.07499352039515,0.11309264858777657,0.9470784121440018,0.8141767156418591,0.40168650468264644,9.867454656827126,1.7436916052515956,-0.7128247430915642,11.644477622235032,0.027916604904872435,-0.09520504735677049,0.37959894510443304,0.02266176917738299,-0.056402669567889335,0.35558764252324865,2011-09-26 15:05:39.593415419,6.100506587
48.999942458815134,8.49592116497281,175.5771672260834,0.031428625652423915,0.3588593108372443,-1.530612709801852,14.54323360030757,-4.306891619895832,23.922422216277273,-0.26794946990785906,-0.49070845173811717,13.728771116095192,0.062445152922925365,10.05734364204781,-9.61051987257522,-0.16081585601062204,10.26343995631748,-0.07719971341516105,-0.04303073378404038,0.11499999644073577,-0.018565627862258578,-0.05773061680946565,0.1213866847580096,2011-09-26 15:05:39.693224127,6.200315295
48.99951633194002,8.483087350315444,154.05815327820935,0.006176117093813875,-0.2773239249567008,-5.187931377258889,-0.8329083987869144,14.054509040071228,0.8835399867928606,0.09184732192053857,3.69227046985665,-10.746943688964695,2.2188288808583927,9.96023884341138,-3.3660205168343413,0.5091099180605275,10.111996517960678,-0.0511280076006763,-0.30151510481317967,0.1873851480547951,0.7783829605743164,0.013086999313538312,-0.3987529157332838,2011-09-26 15:05:39.803249329,6.310340497
48.99712242992443,8.483790625987725,151.52692491615142,0.1119108552718577,-0.03991813878813182,0.2433065830045189,-6.20756741897941,-10.34623008542466,14.985214546489985,-0.006545557407500617,-0.03854837627560337,-1.0683548465552457,1.0070101245966099,8.573192379323974,-0.09320334191090837,-0.2730330896750891,8.99507864697184,0.023897899549761726,0.126982623514824,-0.21547661127843412,-0.14214352600002905,-0.00105770175392364,0.021487148248082975,2011-09-26 15:05:39.903202448,6.410293616
49.009152653850364,8.485602823631057,178.8452179614509,0.04812802292236666,0.071170973865082,-1.2650942100488685,9.53466212091341,2.364598233903724,9.843901156037342,0.05052782340332261,0.3206675910113183,-1.6886167133173196,-0.9778838855674531,10.22345675036569,-0.03745098399418119,0.4798566872888355,9.930950057289131,-0.3243621746280219,0.0079167519703108,-0.07351397065387862,-0.024393941071309773,0.26403403756273414,-0.07264679394632446,2011-09-26 15:05:40.013223127,6.520314295
48.990586051987556,8.481220045030115,165.8238941249295,0.04040942274300635,-0.7592098201827572,-0.27665891902198925,1.9132735956510079,14.726054930603247,21.58053045175683,0.20286478779654427,1.1522552125400438,4.093421231746117,-0.5044856042430358,10.772889308776701,-13.82316388761546,-0.2800720764367864,10.499316177998884,0.13931137722871456,0.07739377541921336,0.15841518590684397,-0.5904701155218844,-0.023113070753084067,-0.4793949901543622,2011-09-26 15:05:40.113341561,6.620432729
48.99725016055128,8.496746304311209,156.9496179437921,-0.016702626314087532,-0.175359100457659,-4.930975246235976,-5.432703877506011,-6.962164736533207,-5.07537510912314,0.12528908684232057,-0.3651228604090615,2.9131381659944147,4.179682391556061,7.9470148177714375,0.49493058741301815,-0.24016369752885325,0.5593757154243537,-0.023045889393147584,-0.013172171904260722,-0.1601196020959982,0.025901868115587045,-0.036776640316817114,-0.04686806244163852,2011-09-26 15:05:40.213214103,6.720305271
48.998723364179384,8.462377505853052,172.1143290976982,0.035124304524362104,0.10752643915227207,-1.4518434686517627,-1.860616289714645,-32.74341649174843,8.275042435696772,0.2848009130186859,0.01840082935838544,1.7673925408308118,-0.14836306710582114,12.156491105583108,-1.251744135710977,-2.097322074243432,6.217038749755053,-0.07286893408535249,0.017393674506275547,0.43514031995538505,-0.6052726751026261,0.03243423677584108,0.457197339269745,2011-09-26 15:05:40.323235497,6.830326665
49.0061690008516,8.484899645875817,173.7757855068101,-0.5246399731897837,-0.1939195545459817,-4.4517141305778845,4.124931799874071,-10.972309579014732,1.9313988685327361,0.15343166234937994,0.6470126995811474,-0.13416782648662073,-0.5290012849502631,12.416004457040763,-2.3905883345182763,-0.47992346926392904,11.733438963968768,-0.07581115624382005,0.22188107658500067,-0.5367992549295182,-0.012868162575788586,0.09331741073715476,0.20432294153246322,2011-09-26 15:05:40.423205807,6.930296975
48.99163097390348,8.483902146030868,158.4255478245351,0.08418047758806263,-0.1206978472003014,-6.078452439398875,-8.783208435364555,-6.7858761766158935,-0.08113118666564212,-1.3456649144733146,-0.14275757439121084,14.879879778570547,0.860314753368652,10.591167723944997,5.854287804654201,0.34791718791880627,7.273315098061362,0.07064536588570818,-0.14967771317164147,2.2468291682327957,-0.027655799066690252,0.14408038638013,-0.06318512210498234,2011-09-26 15:05:40.523236247,7.030327415
48.99701717637307,8.481337182808266,172.51924532931736,0.0011210291674716016,-0.26581927807525907,-1.9287862297703442,-2.7744430681911245,2.564625159958906,2.00670684912318,-0.058958696658120015,0.4422552653980085,-17.151478829945404,0.28023273949685695,8.637459941514948,0.047162649967949485,1.7168895090960525,8.399205092410547,-0.06519592304202822,-0.10505916984657879,0.134695275993402,0.07354191736564494,0.13500242420239025,0.03814065190095633,2011-09-26 15:05:40.633332381,7.140423549
48.9994341188062,8.486050452753418,181.74395383900548,0.0218154698989246,-0.055255338859372075,-3.169078954069966,1.2903770338034874,-6.925788957494843,52.06061225912292,-0.06687879903228182,-3.719494248233499,0.33155154986300184,0.5207404372740706,8.442184129611327,-11.95650524730361,-0.6794855244522819,10.22191273691796,-1.0816885376490313,-0.22545833885781968,0.7034836187635216,0.03229297507027168,0.077859450141789,-0.6544466626786242,2011-09-26 15:05:40.733278732,7.240369900
48.99791509447009,8.483168017499171,64.92630137870051,0.35688900196952666,-0.4865607702703675,-0.962171877341718,-9.766465115211417,-3.5944456665942055,1.648053605728422,0.19177127979846578,0.05265144871047034,1.0009849306934142,1.9792712228231655,10.700847205145118,-11.258514899141476,1.0553138389154788,9.706098091336164,-0.03520833331444251,-0.066594873237056,-0.6389079833306301,-0.05678814813799292,-0.13221813466600746,0.2627060945705038,2011-09-26 15:05:40.833276744,7.340367912
48.998567928896136,8.483081305008112,162.73476922143197,0.18974844005111816,-0.32771135594582423,-1.0063759493442046,-2.831869662383135,-3.112347382287994,18.460837721298173,-0.04626632244002049,0.042349028058755955,-3.252854887564454,-1.5993842738013389,8.260967032219543,-0.45192890301247407,0.06292707655507956,11.012325821433523,0.0563222620844912,-0.0386915729403642,0.4012678257873275,-0.11825880467873993,-0.013967938132679849,-0.14326124990238412,2011-09-26 15:05:40.943266685,7.450357853
48.999205018785425,8.471269723503802,174.2892921948845,0.15079472625220722,0.03705539917600896,-0.3391380694280137,-8.155357100146071,-2.707367226228539,8.9730229810413,0.26753279737188435,0.16657034101208607,2.917024266566826,-1.4883394558808771,10.225832114754214,-0.7125507621128638,-1.3470237418861832,10.405105945564557,-0.058528236399642504,0.07457475154864451,0.26055894968437615,-0.4831480198947045,-0.027443468836553075,-0.32427664773623444,2011-09-26 15:05:41.043347559,7.550438727
49.00034250875577,8.48122129407894,152.30571199213375,-0.19159984909073818,-0.013425115345871041,1.6333316957737787,-0.3983982266481991,-7.633956622494941,20.168014984765943,0.17500425431340014,0.6072247435333711,2.44535486419299,1.4535079656545287,8.627510860053894,0.9756674707633943,0.02133211140584179,10.829838415353894,0.05486417706601582,-0.06684879451768361,-0.03010803208873211,0.10596944883862104,0.25278360388770865,0.27947550609800265,2011-09-26 15:05:41.143501508,7.650592676
49.01884615430282,8.48339100999487,171.05431741187934,0.06030884148358834,0.33608288754340293,-1.734423848002181,-0.4554298098778231,-0.14839654383038958,16.395507642125647,-0.08872395113513108,5.751639132102345,3.099609817808038,-1.766706648461237,11.119299134183875,0.4689492317973627,-1.8448526161875254,8.194076840220003,-0.15927271983825306,-0.1867421051702469,-0.03603715239391084,-0.03107744927523829,0.027263743219390426,-0.2773745777320322,2011-09-26 15:05:41.253303282,7.760394450
48.9988435033673,8.493211116530226,164.19549141852056,0.034474878167148885,-0.08227508149284711,-2.156208830380294,-13.735087707096255,-0.1272495085274521,15.043530673475743,-0.027572515813924107,0.2821814954547993,1.7215359851153116,0.10239497482278972,10.105757229752543,-2.539228365535029,-0.3941857759072068,9.199024517134308,0.023324164117589176,0.16530378771793805,-2.5211979689636954,-0.15290047615987223,0.465009354754149,-0.05503404192706059,2011-09-26 15:05:41.353334696,7.860425864
49.001137961879095,8.487351904725429,183.4603594630696,0.7329966629565164,-0.07355060554161304,-0.29658007906998085,-5.605988522583028,-3.4327257272675173,10.930604157338273,0.19935266311856956,0.5033449988941314,-1.4096869707881856,1.7403498065399265,10.534753068212792,0.6198071216909988,1.4141840768544809,10.050455705656216,-0.10550811925636044,-0.10066281235760989,0.2068536255675833,-0.03259537501089573,0.06122032658780767,0.47643457471846273,2011-09-26 15:05:41.453307280,7.960398448
48.998980948696605,8.482058208615637,148.19037835003414,-0.05195087439790106,-0.08564278948201871,-4.245523953938539,-18.680102458482683,-13.240934024434026,-0.7257065824225313,0.43686301051511484,0.7909709400410794,6.782913299669524,0.11337974379648785,8.991710427142596,-0.39642532818118814,-1.1921966552585617,9.01441849941876,0.014333224916818127,-0.051234835637190196,0.05722603804072583,-0.13293376318144812,0.013279468831284107,0.2761567583801528,2011-09-26 15:05:41.563309537,8.070400705
48.99940380617118,8.485455613495729,186.29404285046053,0.09634728682642776,0.0016288962585071579,-1.9397886114085394,-7.301076726946217,-6.206433313502553,12.86361605690597,0.09454492569931913,2.5858368769768227,5.05821665454534,0.3550400826525729,9.95695851166926,1.9217102982242587,-0.6508619390600728,10.112186340850101,-0.1293872071733193,0.016439963228965515,-0.24516232291999504,0.15708569186516907,0.07682538969911204,-0.29626917398922403,2011-09-26 15:05:41.663357378,8.170448546
48.99772364739768,8.479742934778294,219.07301872719302,-0.04825799855221294,-0.09608302738794683,0.296873555037815,2.56206601824014,12.859678357428248,6.6789572341911665,-2.014929079010798,1.7896829110232875,-6.0005128731747615,-0.4807055373876273,10.059942729865691,1.7838893323012657,-0.3795832658297056,8.341318850365706,-0.10823457647271813,-0.020369675569505953,0.40055011604004637,-1.043024112425568,0.02796520086258687,-0.00025409591152450797,2011-09-26 15:05:41.773308906,8.280400074
49.009512224879415,8.483136216199409,167.9838845479129,0.08197417575893298,-0.1075474687764165,-2.0753745924662215,-8.064934110566668,-21.895964463913554,8.1103572400233,0.03070239445040169,3.8053100516253093,-16.784239628152367,1.897155429230522,9.992804246749522,1.6721925201849634,-1.3209101551331592,11.714529787720114,-0.36244589695288193,-0.1281014192109509,0.00862067940117996,0.6316685982032256,0.07003685881665188,-0.10391471539315963,2011-09-26 15:05:41.873338168,8.380429336
48.99799379309082,8.481452350830061,160.643549471263,-0.000635495155145497,0.06370726965096299,-1.0236550742874322,-2.7222812529577998,6.048999841713136,2.2711286843299234,-0.05383749798384613,0.8789342335608803,-0.34745853926816994,-0.37264987435272234,8.356460989768333,-1.486732509585984,0.15746013709045117,8.560061789229579,0.09925415683502417,-0.113448791960001,-0.11167911272225071,-0.0008303138931796718,0.085865039770666,-0.6046580518361265,2011-09-26 15:05:41.973336837,8.480428005
48.99314593569397,8.48640775968096,164.05159435922818,-0.08043765245163777,-0.08848889111537675,-1.7901430834726453,-1.234648900316782,-5.6369306994276105,17.75460039676123,-0.2138196254129886,-1.0473779599200246,1.8923726500121965,0.25623191448953886,9.283549336377588,0.6122336124616642,-1.055061986211077,9.891062711350997,-0.14292002235635465,-0.07642353721618785,0.527401126385172,0.03619765427617242,-0.10793387983512817,0.3254561197251193,2011-09-26 15:05:42.083507339,8.590598507
48.99673554092766,8.477434481197516,150.5133369816559,0.19141516821808421,0.13967135571252376,-2.511294599667024,-10.531293482306362,0.09763981801160515,25.070222923994084,-0.1763491863604062,0.5979899014372057,2.954005419577488,0.9238775911974677,6.857274283242842,-8.037376386252049,6.275113558373829,17.390704143253586,-0.5560524047606951,0.4184149700589285,-0.0897186869699761,0.07826900838168313,0.19348723548529917,-0.20430010199564141,2011-09-26 15:05:42.183376352,8.690467520
48.99888982324698,8.483866662132726,174.66390972096238,0.11754629339834755,0.5751401049318521,-1.9313729253259417,-10.214185765773426,-5.537418475340392,1.0694813590538939,0.09815729650913425,0.6551796017395795,4.236403762369813,0.5740845614445655,9.896992930378332,-0.21563799201487777,0.16770379844247627,10.444078299991185,-0.11320987781867044,0.08148286543509896,2.258626633736554,0.4298126910276255,-0.008052330156055415,0.1465966464693097,2011-09-26 15:05:42.283319310,8.790410478
48.99563872064538,8.481352292866367,172.02075435175306,-0.2462758791756751,1.6331658497029689,-3.0535738409307545,-5.5838723400308705,-4.481541655319252,-2.9538336446373643,-0.037297170524893605,1.209554839748424,7.259597545443521,0.933820935503277,13.179843348729179,-0.5756141750568103,3.149296320979452,10.040629679743498,0.06154985780007379,0.10987933936240014,0.13111004939597368,-0.04294271495680495,0.6751510039359149,-0.9760019209696096,2011-09-26 15:05:42.393357894,8.900449062
49.001782564923985,8.486084930664145,160.57463210304445,-0.022565090182954856,0.08728837516615892,-5.163374953983382,-4.7761002480263866,-2.080277649317936,6.145725182122653,0.054948896811730034,0.1319888603761642,2.023081156053138,-1.5561382389873661,9.293449339650167,-2.3674851989193035,-0.4656179827473761,8.372830209971692,0.00458296097032166,0.058504454540206474,-0.19510950903737112,-0.006516147872529148,0.13142151876292987,0.8954361567217679,2011-09-26 15:05:42.493326877,9.000418045
48.98937293394776,8.486591826720142,169.22191972218883,0.12994406653685497,0.12581878537094948,-4.117115677988426,-5.669885528459215,2.2894366188025366,0.3856952326072509,0.11565904494205755,0.37966693080801195,0.7879478541815157,0.24648624133612432,8.140745027331267,2.919274643744679,-1.305454490047458,9.523055495356333,-0.02129390664079534,-0.01660359948904523,-0.027104011341144364,0.06242450333205259,0.04058333138564417,-0.2241227720085216,2011-09-26 15:05:42.593416537,9.100507705
48.99812512082409,8.482704960870382,185.69786797350093,0.035293144737289145,-0.3663033124864924,-5.158791489173092,-9.667772518735845,-12.022503181378278,-0.8252711862154536,0.0368696321250668,0.7983936250812542,-0.05123457225862049,-0.611604893977471,9.19975101069026,9.2038341758235,-0.40552962484842703,10.332135285851113,-0.15817837529266027,0.2634259515682189,-2.447067023687877,0.5827269926416303,-0.008113933250758964,-0.273159952046092,2011-09-26 15:05:42.703408950,9.210500118
49.0003108222948,8.483245484108044,160.42930218483824,0.013343104338577452,0.052430824302410035,-2.8906897105814156,2.440066501872968,-15.360900595479414,-3.6501724977704706,-0.11456782746616823,0.15398318624169338,1.846555411982658,0.48100271893234736,12.093348368739399,1.8560392354306672,0.0889680737909059,9.231479741460477,0.5461202138601499,0.03551077783062459,2.4521596393189635,0.047482470767739406,0.6518469439778202,1.2404943710066458,2011-09-26 15:05:42.803352093,9.310443261
48.99634619833489,8.484375961083149,166.45440834637728,0.0326498802601675,-0.06672210592465586,-2.239869880024231,-2.488408205637913,2.9737197022378288,9.580741227620697,0.44795650121124253,0.24825385638274294,4.653826522106207,0.7410891396786093,8.454300438872405,0.010305684824888993,0.4893076084029618,9.715557730308651,0.09207662430543216,0.1510471576126592,0.23358945703368725,-0.07172669878165334,0.20573737831408834,-0.24933999861528156,2011-09-26 15:05:42.903340596,9.410431764
48.998494998653655,8.488886660139118,193.55427867688903,0.13278357190122692,-0.20860081233169303,-1.7415009440810314,-5.419017290250492,-0.5957672857430598,1.1391910860126888,0.4303079443720014,0.24347380517778203,-0.9868826238583187,2.979536534530328,9.009923291183839,2.269065966141536,-4.0241988682720065,18.774981924831806,-0.02749500710514948,-0.010162674662366054,0.09884359474000318,0.061089126116857254,0.11435612673255677,-0.06805560887360057,2011-09-26 15:05:43.013365641,9.520456809
48.999582901904205,8.481237198799967,145.3152216242571,0.06821769758126262,-0.20203646260594768,-0.6169523229963247,-16.19203769506448,-8.203527915398876,8.104435813572278,0.05100326791514724,-0.28670817053975195,3.60348548825977,3.5255798694979648,11.779270750084127,0.36934273563795106,-0.1481312476532747,10.688614583984865,-0.12727298714151616,0.051668875891197875,-0.197962517260665,-0.9606470426613236,0.04178067716436851,-0.31791485199936803,2011-09-26 15:05:43.113540138,9.620631306
48.99679402866652,8.481749019334707,156.70565190209715,0.06899139450780739,0.07404903647820929,-11.989304089429101,-19.90285822404851,-6.830001207022437,5.807505058271733,-0.24580147222839424,0.5023389968560433,4.747324758111649,-1.1172045524445842,9.841599972571082,-2.698880004019108,-0.7385637217516117,4.448096054359332,0.09109103505457951,0.1014950469066328,0.2846109292098358,-0.06570675416908223,0.010149822534147791,-0.3765923814531774,2011-09-26 15:05:43.213460437,9.720551605
48.99809818958817,8.483826533837368,268.0560447738173,0.1211113548423497,0.18766495705134117,-0.2168372282980977,-10.526830250946936,6.343078787660342,5.939031359650071,-0.2590904793703246,0.4048336383161844,-10.623113705342982,-1.2393099877337006,9.945922970147283,-0.7124534948661445,1.0908208413876572,8.26542099356329,0.05418822292943695,0.08678652355506974,-0.3096158144915012,-0.14266114164026575,-0.010808066220179569,0.10883417090230173,2011-09-26 15:05:43.323396925,9.830488093
48.99764973715414,8.48654264452584,171.37201353207115,-0.09793819087804623,0.0539335444941776,-4.089187372250697,-12.392600621759872,-14.651859259408077,-22.0728718124204,-0.1780484130929142,0.16143615414883017,-3.9094001601527757,-1.1743128390255968,10.7310157482709,-0.9817119949715547,0.04537820106745344,8.631476466365287,0.015195400627370362,-0.08402819694651509,0.07671957973856712,-0.011920909404948249,-0.3254256952996403,0.3151943118456919,2011-09-26 15:05:43.423367151,9.930458319
49.00054577491721,8.47859909197349,176.01499260918456,0.030604149654135795,-0.041972238852933885,-1.596847189808877,-4.577981412033013,-0.4705250401607368,-22.294216654155004,0.17214070075417173,-0.36649713661017386,-0.530682006516803,1.0092448738335784,9.758242273285733,-0.8295071788555972,-2.9635394211628165,9.464623151941955,0.020730850730029008,-0.12013615402525446,0.0342062234983979,-0.023289195310290715,0.03821670493941727,-0.005030811408633573,2011-09-26 15:05:43.533395113,10.040486281
49.00037951684509,8.482450855002554,166.8352422634121,0.12895531669944127,-0.06802516286673788,-1.2672487544400868,-3.5375717525776493,-9.117640343292631,-5.1279650037890905,-0.23346428419147236,0.7486769309151878,2.27231520762027,4.753035021331053,9.596295453284908,0.861835915024658,-0.5978135660613859,9.593946615078398,0.03089146104466664,-0.2567054515184931,-0.10956759219937935,0.06160437505362935,0.14950483452669125,0.3747161588888742,2011-09-26 15:05:43.633577138,10.140668306
48.9992149436801,8.473098599486242,157.1273993466947,-0.21589988346187788,-0.080200887388791,-2.8087002196497646,-10.744853736868365,-11.8252655269093,-0.14964664077011935,-0.12382975742200393,0.9922595422669037,0.05140963145146915,1.9020335643469333,8.555457590016204,6.383247780958152,-0.8517646214653942,10.21345584017277,0.00957416837164354,0.11974118175555595,0.28254593998905114,0.020973395775736058,0.1089639134315364,1.1973141518324848,2011-09-26 15:05:43.733398693,10.240489861
48.989388086054426,8.484154272550743,176.46905095192932,0.18677232796243226,-0.11101704942987586,-14.14843996631371,-5.232506018740734,-7.422086000261194,16.71656247979897,0.22662507998011017,0.7856121388889616,3.733699789575534,0.7055916915634315,10.195582280089832,-2.857983492936059,-0.26074404775755045,15.937339081428004,0.14002614389895657,0.1139966317317984,-0.10574720529292292,0.18137907312877996,-0.14858106487602732,0.2777865492191596,2011-09-26 15:05:43.843429752,10.350520920
48.998271182128356,8.465622727882716,183.57269584561908,0.007275703279686373,0.7305172124395003,-1.4238010434119555,-16.112779586680364,6.3910265024530615,0.9281044635019944,-0.3167721958079651,-0.04540069716402306,0.8001424362077166,0.8519994146259114,9.959551340760747,-1.154194751705797,-8.121533097172728,8.829626855941855,-0.553920069287453,0.07352255139794303,-0.0978927456173769,0.26418375166330516,-0.14730130024640778,0.021195916388228313,2011-09-26 15:05:43.943388143,10.450479311
48.99797586235452,8.483633917234847,139.11184105280415,0.8165043134782789,-0.14989848716029497,-2.5823439319008874,-0.9305135911439129,13.643857261334992,9.587404508055947,0.29627959142542676,-0.05313620352747295,2.721434914974166,2.371307124286992,14.545643310782975,-0.202775471580448,0.3107500068568223,8.27995831265574,-0.11108136185744759,0.17240618534141808,-0.27128850743359895,-0.04697808345836914,-0.24313926817707884,0.16514418284381885,2011-09-26 15:05:44.043406003,10.550497171
48.99636497656676,8.48870067956689,168.22596974216768,-0.46547233902896723,0.04411082600363374,6.1923964676638725,-6.28701582948664,0.28540402366879025,9.213018016056065,1.154462348208962,1.1991208522622463,0.14430654940570226,3.4506570679937623,10.029331765145738,1.7070631420100888,-0.9043361761405873,11.816096613217622,0.019937045608776866,0.04749088121829236,0.17698063152593257,0.24178077199907702,-0.05862447372127763,-0.6355024670640728,2011-09-26 15:05:44.153471122,10.660562290
49.000101199261664,8.481747126986177,161.38845306977709,0.12279892670640247,0.11773631828914358,-1.5949376638622819,-17.904716404729978,-0.12139924848018868,5.7858906030900545,0.04173296183984078,-1.1900290344750855,-0.6017614834317723,-1.8970556617529053,10.798433126911807,1.122347369016696,4.491093036689534,9.950887376388554,-0.06736343554810856,-0.04159630173627631,0.0012617919364290619,0.12345540279772507,0.02600519960987112,2.0433840920910766,2011-09-26 15:05:44.253422873,10.760514041
48.996298248532135,8.49100331762075,161.021423209513,-0.06809779678858904,-0.04929534366260297,3.0909930807534987,-16.01598892720932,-16.09947586260157,12.839789279140515,0.39973927248655816,-0.7673373517983567,-1.8194024273790679,-8.09034423545165,10.19664760247747,2.4327746028154036,0.7991361336701428,9.93671788103381,0.10236392072505487,-0.035360579979231546,0.029943326046468596,-0.12324788545676613,-0.1511263553975087,0.11880593935404393,2011-09-26 15:05:44.353451384,10.860542552
49.00025844825873,8.483936330362848,162.84613970677202,-0.007197962622466046,-0.22435504819245053,-2.6561215461926166,3.212344954574057,19.048015541971928,3.4068723154172753,0.24937656956632143,1.4137372343236996,2.27621561066685,0.23232492240926178,11.116621108278009,0.3048413762026665,1.3216851654189603,10.229630274356934,-0.06294465425710492,-0.07528438240506365,0.10771766405938756,0.06965118150840721,-0.025458132549519924,-0.3964441808560655,2011-09-26 15:05:44.463443711,10.970534879
48.999217027279784,8.486499700629505,170.94622770452943,0.2783534887203447,-0.5565143869401955,-2.028115557458314,0.1132183789849801,-1.5102793275306197,8.61874407564311,-0.11103478418924961,0.6553684302806637,0.08765620574163752,-1.426972312125214,10.606903373361453,0.4890238748816759,-0.9143609831264651,9.981401855554157,-0.03882939960813041,0.32977732520509373,0.43073090455015,-0.08713139556009679,0.014215601897816723,0.06665803866069094,2011-09-26 15:05:44.563414924,11.070506092
49.00091574486126,8.483850472125942,152.61292514725832,0.13881451756227964,0.09607322649464703,-2.006217183360487,-5.464024840370975,-8.350913019025093,13.274607721054714,0.2073910851543604,0.20908621321158322,1.376455133085488,-1.5174258540391958,9.425906538191377,-0.2442931162205097,-0.7892299373135241,7.3635932939053825,0.0749887388845673,-0.0758638840728855,-0.24020192203899793,-0.5234007632018247,-0.17298668314783439,-0.7072066369197822,2011-09-26 15:05:44.673516265,11.180607433
48.99790109529528,8.4815877433101,149.05818197409656,0.0911260047666805,-0.9106882263189526,-0.7718995027474216,30.863566435606145,2.032791330995096,1.6601705265874367,0.22292787658560909,-0.6385989461424009,3.071984317940039,2.127324565427938,8.0396058889353,1.286454483055076,-0.1926830016589517,12.594383140402055,-0.2780993515952678,-0.017625640723736076,-0.555588250061883,0.08709490029026686,-0.03663611008048867,-0.29431295748468445,2011-09-26 15:05:44.773434348,11.280525516
48.99757666740763,8.48665328430785,164.37465488026263,0.16081440089465138,-0.11535537752353425,-3.9406135127599216,-3.487810830907522,0.26824230879988686,11.555758003732421,-0.027815557515515045,0.5429539819460742,2.1216139565692886,-3.402769587959427,10.395032725201343,2.254053588988071,-0.29371389250879537,9.493245028460363,0.050627007220094,0.5656081453409348,0.45539519126093203,0.05501853128065014,-0.06326585149091012,-1.9490499972638329,2011-09-26 15:05:44.873449691,11.380540859
49.00286245697101,8.487052851884322,174.04016706982688,0.042225969890779334,-0.1640688759610814,0.31962274377947475,-8.376460203486088,-10.925706608658945,11.246513628126309,0.016465988436403005,0.796463103866351,1.0037063037775158,1.6340736220934844,10.552321334834572,4.683553882637725,-0.1711717319205085,9.712911095897914,0.039115480707109025,-0.642859835917469,-0.23922159788313704,-0.03121742699501194,0.0046713210476876784,0.7229285882083558,2011-09-26 15:05:44.973486975,11.480578143
48.99937595552545,8.48328539508219,168.08198484220233,0.020461020486345106,-0.07203155506582172,17.069482253766743,2.609773038861097,6.1458171848127465,8.148755697495199,0.016391878800014078,3.540443377125042,3.675055106509686,-2.597599815053133,10.983521099011371,0.8850155372836241,-0.2883276243961131,16.33661721790201,-0.07074972979068675,0.03033330680838973,1.310616332727652,0.04306786266880847,0.06278814930602594,-0.6809682855300011,2011-09-26 15:05:45.083549876,11.590641044
49.0044720295742,8.487324927384574,164.46887034481315,0.05663096878149501,-0.22333643959502442,-4.296380855774267,-9.509172543518943,-0.49756526230693066,39.21590655769823,-0.07401458150987844,0.6818165689516127,-0.2916990984218564,-8.698682227221681,11.425468632382135,1.9082215204803745,-1.0892369328869547,9.653920196127274,-0.07371693169962368,0.004384372425338221,-0.22654323229653367,0.0273446314472335,-0.2484587062386713,0.12114214825298632,2011-09-26 15:05:45.183487813,11.690578981
48.9977464677479,8.485668969499313,161.6805758983975,0.17568547981821023,-0.2429611878994221,-0.562092171400389,-14.427778251284247,-3.01628904156695,14.154864916340202,0.11768046421676404,0.7255590812288822,0.42585222721510707,0.06987362927847307,14.711838678987654,1.735044252609306,1.3015058809690179,7.305327903652261,0.38332362062424613,-0.0033118955562262808,0.446621490306656,-0.11976064848741307,0.019842353892496126,-0.05716306668170455,2011-09-26 15:05:45.293463758,11.800554926
48.99982322085023,8.486043315876563,161.9731005262458,0.04226757690882939,-0.23041752785915312,-1.5323695573806058,-9.843710062496058,-16.436049401444013,-13.395942975624585,-0.007329948220161843,0.2001279713306927,3.0603668300499134,0.833015077590854,9.664739449393837,1.1006866193529588,-0.440416136748463,8.757283396174486,0.0035785649264998,0.0014456695797454913,-0.029980144230341087,0.09064679150150218,0.06402507381662668,0.36214645915119387,2011-09-26 15:05:45.393482242,11.900573410
48.999896973776686,8.482281612409205,161.27218950495418,0.0885267206169685,0.8735831502413615,-2.7642667530693954,-35.908065280244756,-20.9359398364756,17.494267477348092,0.5812506709677233,4.567839733611354,2.1260275479692905,-0.8006518512905056,10.210488186042914,0.8193205180435621,4.134217142763254,9.32013418260306,-0.013850037495745987,0.08097042498980225,0.4488677896697313,-0.05134990246768954,0.0463834548150495,0.2247921167446432,2011-09-26 15:05:45.493464822,12.000555990
48.997493090181145,8.482638304909509,164.72358464612418,-0.002811607664973112,-0.13872693995200513,-6.941295605525683,-7.542369388249739,-9.583828847568423,1.8259835872599517,-0.11590699089225752,0.8968383028841906,1.158745401432364,0.19706825339978778,10.904451675210474,-10.168767990664353,-1.8668108414069324,10.091588428359167,-0.014993125078042326,0.40298188338385754,0.07041788555796588,0.03676407498571526,-0.01754175666661483,0.4488384935217507,2011-09-26 15:05:45.603677387,12.110768555
48.997026032958445,8.483632240153675,161.71177621590041,-0.08532194288857708,-0.24573784384619377,-0.4734147116070264,-8.986113668204338,-1.4227485056695799,32.627676821490994,0.050847064306621476,-0.1529143000986144,-7.956583708529029,-0.5673332644808889,5.358406312312207,0.4246273965410251,0.020375155494790825,8.36961015848111,-0.08813694409897575,0.10171507257630653,-0.2703567312471615,-0.23513480468073308,-0.5905989166994527,0.035697688655332196,2011-09-26 15:05:45.703505138,12.210596306
49.00098085651529,8.482050575381194,124.01232034683602,-0.1300542003327265,0.3890796761475744,-0.2795275089992595,-2.6244980740216928,-6.163676435024335,-0.008282194493670403,-0.0393397829389604,-3.01467738704243,-2.0490319510208392,0.9538255086640723,9.420644705636699,0.7339107899489772,-1.052147830863079,8.861849047967793,-0.08871746355510439,0.08230350149117933,-0.08320605392629127,-0.011754466524815344,0.047732147873427506,-0.36728166756974234,2011-09-26 15:05:45.803488762,12.310579930
49.00054064788349,8.484225306768,148.95172593904778,0.06249188835400779,-0.04195842680579748,-1.6658605614087785,-5.696454340993326,-5.101444423257236,7.551624067014483,-0.11949114748246173,0.31391295698256,-8.743715546051954,-0.4284421546185567,9.465377367844564,-2.2529603107663965,4.767041918620554,10.010258054897648,-0.1126226034771771,0.1762675454850101,0.09443928100961449,-0.1366225520017503,0.039820809241259116,-0.4829057329200358,2011-09-26 15:05:45.913561071,12.420652239
49.001003108793626,8.48586798816596,156.8610470155027,0.3150007375624706,0.15112376072928693,-0.5429419965825562,-2.5916325992271023,-7.170090473087388,-2.9103238723160203,-0.18801135130034827,0.8349264793034827,2.4552110654862545,0.4529155509417296,9.83238324145602,1.0349462505244436,0.4390067719917806,15.871079344862403,0.03584839515027362,0.06803341779727931,0.48596554916612633,-0.34038569831641435,0.09964262147151054,0.03209343062393402,2011-09-26 15:05:46.013501827,12.520592995
