lat,lon,alt,roll,pitch,yaw,vn,ve,vf,vl,vu,ax,ay,az,af,al,au,wx,wy,wz,wf,wl,wu,timestamp,rel_time
48.999227575576555,8.467387660478924,118.45844249468671,0.06583082885409101,0.054900707812367604,2.9413705440368085,0.2669010425045707,-23.289202463881697,190.33519245115815,-0.1755260741502351,0.6024582188040694,0.09141527954902562,-0.1646310439728787,12.58034042224792,1.10168960492206,-4.329848672107362,9.646275433546522,-0.00772708323883013,0.10314517064571185,-0.08476099129723275,0.16256525160741683,-0.15056038762058052,-0.2020804839782825,2011-09-26 15:26:02.154765714,0.000000000
49.009338919808236,8.457244477349047,125.27143497259841,0.05001849263439574,0.04221032821417852,3.0576088677513056,-1.1646678874192538,-7.864442148310466,1.965372184580281,-0.1840235801555951,-0.06349821163119815,-7.340759371857857,-0.04398190378007938,16.778717685320984,-1.698665897927606,1.0367958273329239,10.889367930328824,0.04009106493161249,-0.016374290076531434,-0.1718594752573205,0.3080211224264896,-0.21740912181510097,-0.26128241801402224,2011-09-26 15:26:02.254659604,0.099893890
48.99536859911825,8.458349125209496,121.40207521457083,0.05316023223856299,-0.019577063092016046,2.506727790361112,-1.7795096395165788,-3.0119245368275407,-22.9651940573023,0.14035268398689746,-1.4168758990419468,-0.69339004551918,1.557448593501905,10.988978818229171,0.4773406067611149,0.10333530422801004,9.836772999304753,0.005829954245765608,-0.043142184658239165,-0.07503048272148305,-0.04228815776827077,0.012857501591681093,0.09228771254531114,2011-09-26 15:26:02.354669272,0.199903558
49.00809291959837,8.446098950029556,129.53446161173898,0.03569039416655607,0.1138396570650949,2.610945564158517,-1.3295439842661174,2.905694932480263,13.587803378348427,0.16429439934006715,-2.49567570986027,4.015298852509822,-0.2414252468716122,14.300869373478974,-1.0498478709495738,0.2250182671944448,1.648298999071569,0.060964843589921,-0.004375751160618596,-0.058032069931595244,-0.028311062019791864,0.030535841791057578,0.15088396244053495,2011-09-26 15:26:02.464709916,0.309944202
49.0033820676093,8.47552022846737,123.53089878969112,0.04370917608042697,-0.0015110488185407986,2.7239760728627047,5.902420882936633,-1.2138884789309596,26.055278876157402,0.07893446511615868,-0.3987647004137154,-4.179954050212106,1.3933607181410022,9.454274859595866,0.061534018653407914,1.48562462615797,9.294858375333872,0.0005798569632341762,-0.09798992613204438,0.08751200554003494,-0.004610144318342284,-0.013556953979814176,0.18375388073034393,2011-09-26 15:26:02.564723050,0.409957336
48.99176451846492,8.461297670633412,121.39565353643526,0.033274356553186106,-0.010360058271300834,2.6041487123726603,-3.2936039564868813,1.2102699897203855,12.992843401793467,0.19452847091440492,-1.8654443271163965,3.666565307345989,0.7298780293308844,10.033922276089937,-2.971701191328773,2.3420264494462373,8.202642743205255,0.0015241003480160392,0.0019399755424049983,0.1743748428601899,0.08839499763911662,-0.020478052506553837,0.10002648395388644,2011-09-26 15:26:02.664904444,0.510138730
48.99884707153948,8.45656626786865,123.79105970728124,-0.002514128479571838,0.016379718565259764,3.6723378928178625,-2.421076208428083,13.71503997591609,-13.950684203694445,-0.09303536763622511,-0.14205991580153352,2.3788328151259064,1.1256048210949756,8.457137436742386,1.5044759375010053,0.9679664235884285,17.121487843811085,0.011167738857070487,-0.4606803128349019,0.15131961832001256,-0.02300317433648589,0.04874096962574423,-0.10390413341009408,2011-09-26 15:26:02.774735684,0.619969970
49.00581608455111,8.49391241533309,122.26575988609794,0.05855075435788683,0.036601372149814855,2.741512104676948,4.449053945329894,33.17981131096172,17.977682248412115,-0.23936750164959403,0.19851179712932535,-1.3569455698059654,1.308121882144388,10.174717122557121,16.01880307236209,-2.7671059892048273,7.532423768225614,0.019476280872183522,-0.03759665260557719,-0.12100304591011236,-0.06213659212528426,-0.3304284759645556,0.12220898735297357,2011-09-26 15:26:02.874734600,0.719968886
48.99674570549312,8.491189628904236,122.02798114521565,-0.009324335758473079,0.05807306433449677,2.796815897829365,-2.2445728594616687,-13.811073130812783,-132.00525081502266,-0.027259612607655526,0.3328817317277996,-12.050822297733067,0.8240307699601583,9.940812577561513,1.3746487800940905,-1.5011483634454796,7.479061269500526,0.025917623960622898,0.09047412446950477,-0.34304778137601694,0.026880138237506762,0.0476058494656309,-0.1239343906829635,2011-09-26 15:26:02.974729799,0.819964085
49.00989877288692,8.453405243599608,118.64189771615041,-0.11157933387202115,0.03812061099495429,2.8387994660911686,-0.5748437681199593,1.636799311447737,20.939345766754066,-0.09656693101435637,0.3436670435946749,2.130661581733382,-0.39617201923013373,9.477097172554782,-1.5472738445729546,-0.22386482226497745,8.94155164129429,0.2577682727870095,0.017517077612296466,-0.2694275018105431,0.14156223771048576,-0.01604196540761635,0.8188397571421682,2011-09-26 15:26:03.084731430,0.929965716
49.00045993235196,8.594401420760125,123.87765346217365,0.0183205785469492,0.049540201764174965,2.4600380698124558,1.129534373321272,-37.452255023746304,-1.3112692298619508,-0.24963944657421674,0.5229382226312261,-2.671528954569506,-0.7661716332215793,10.000592822467649,-1.7389548413567286,-0.5066143583201402,8.355012902948074,-0.03932615396067274,0.07070330250376075,0.014673750001547685,0.06531029204478318,0.03135917806608168,0.1572913956886316,2011-09-26 15:26:03.184814523,1.030048809
48.997049992983946,8.44432697328919,121.85875500539991,-0.00959459276106436,-0.019163576216969624,2.954247267859811,-0.4304716996136152,-75.71673173693088,-2.596829480591945,-0.11203932459660342,0.2501856877709129,-0.36182974488067093,2.270658519069783,9.463279330488975,11.424861240984358,2.077968193282217,9.462488694438388,0.06424094594890573,-0.032788454586907496,0.9504046601017512,-0.017407133930029812,0.0551872395516488,0.17713889710060896,2011-09-26 15:26:03.284740405,1.129974691
49.00435286661582,8.435993787487181,120.66554278832692,0.0678550367165782,0.017517482590920518,2.911840313455395,-3.2923021270246218,11.198178751360059,29.141830998676756,-0.04651200194516521,0.06951907032982778,-0.6559890832917864,-0.6521189866258539,10.683222278794783,0.3406507681544074,2.485421903101653,11.128169793730946,0.5106067317315175,0.028842850019908436,-0.31010645164967016,0.02753465801412479,0.04625655279755595,0.05582253916113103,2011-09-26 15:26:03.394744059,1.239978345
49.000172221356564,8.45807829667771,122.46766737233023,0.02121549701930022,0.026112985542759523,3.0486007223327567,4.875038177562493,-5.697344039274583,7.5073743703500835,0.11619580336936321,-0.14839327588141638,1.5814441983641565,1.195285566040627,9.370306658916123,0.035808823909241054,0.3026437208909029,8.581684762872207,-0.0685609541685918,-0.017430079981738972,0.00026028173443094803,0.0471117260462474,0.14229487073524247,0.16275576187649446,2011-09-26 15:26:03.494763979,1.339998265
49.00040548838729,8.462176849871243,119.08868978294615,0.10266587305147486,0.08252235127729847,3.2120926978713547,-8.395963093970428,-21.19796326678582,-21.74308686923714,-0.04120435583293906,0.11147682101243596,1.684990357631079,2.830735772307034,7.778782161882135,7.841098752338096,-0.6306241322314102,9.157216400172635,0.013915049047288502,0.22903228685138008,0.11288570674169907,0.05217157378065528,0.03821930748084013,-0.10329581601199475,2011-09-26 15:26:03.604810736,1.450045022
48.99884840492315,8.457802580151572,126.71014980210659,0.03888087756470757,0.05823840002147675,2.4078398915464234,1.1604980822168556,33.833388118959434,-1.3295695393746572,-0.1377510483913156,0.5183370568603344,-1.7164389359601626,0.9771282242716193,10.599538541069586,0.1983471283538483,1.6767420075046948,9.592042146357656,0.18460159582518865,-0.015488480467717784,0.18739698885719122,-0.03673092775895729,0.01409025804423536,-0.26464345127700334,2011-09-26 15:26:03.704807744,1.550042030
49.00040262996884,8.51816590221001,120.71077316260418,0.006697784554344614,0.057840683156266365,3.159826935702158,-2.03404715174504,22.756312284528352,-12.550375120498822,-0.11354651079515234,-0.030000990409004807,-0.3989130250852165,-0.4848829175638243,7.434793675506869,1.2591460744443617,0.6817449405333522,17.065915120226848,-0.22128586432207004,-0.012281015822689152,-0.016426249811798476,-0.046335681847166806,0.059831703884610926,0.2069120001607093,2011-09-26 15:26:03.804792964,1.650027250
49.00340878621275,8.456350987727228,103.22137768413602,0.05879654553421109,-0.1504983230571385,2.724407557311122,36.157147162143914,32.922617726588655,-16.328518843074193,0.15230983184967484,0.17813986942487034,6.833746224910207,-4.284295825225921,9.812426192284319,0.3783109365542819,0.4283572801968273,8.6904087880157,0.062215811436641566,-0.040855878501762664,-0.04748550783223162,0.0009458910911398943,-0.05813845028234176,-0.06430585740917769,2011-09-26 15:26:03.904766779,1.750001065
49.00007911184069,8.441137126509183,123.69112196550603,-0.02289157680924896,0.004631256836869855,2.9617594347682488,-7.1172412081161855,-19.458320027743234,24.265386262314788,-0.2846017895612298,0.30125743242858155,0.5105025598374846,0.18101898301009556,9.940396641214889,6.466310877746147,-9.483988921793298,10.245513163541458,0.31835910785270083,-0.032015720873440394,-0.08547261425392318,0.008277735481629613,-0.08387853835230055,-0.1618632342494199,2011-09-26 15:26:04.014787460,1.860021746
49.00333212729351,8.456413076651517,120.0113236141069,0.17151498340387156,0.060602500435198145,2.838561109283403,-1.5156765023132133,3.4378302613608405,15.810228860529175,0.048724041212371866,-0.09130282305357687,0.4435520376940963,-1.79516695228165,9.448643950832906,0.09049195193315457,-11.168739699782092,6.491280831281401,-0.1068359061622978,0.026873713792567755,0.12343466151597532,0.0008897333994130667,0.01936997392104259,-0.05479007843234896,2011-09-26 15:26:04.114758672,1.959992958
49.0009550068301,8.503233973372454,120.03517832772421,0.04701458472166768,0.038896300294629406,2.455719731351784,5.288954623533029,-74.82137312836534,-25.123239643632555,0.248986952779618,-0.5294376731758873,-9.72819227496266,0.9055671554545807,9.66462050688104,0.003916459054767842,0.5166072679004957,10.137532124093655,0.027405237513934484,-0.05909400735594497,0.24515713544272086,-0.03258972225166911,0.018231757800383736,-0.03654998388700661,2011-09-26 15:26:04.224846385,2.070080671
49.00140386876315,8.455721910885243,122.60531476394658,0.026790418130568934,0.029305844958430947,2.3381910905210517,6.71469857421093,11.73857613234892,-8.316644239093414,0.11128471074610544,2.0173011356901918,6.548208944810794,-0.06745485631788484,9.175363506669644,-1.2861413636597525,-0.23518225705379747,5.993170319206539,0.019262006048825643,-0.01869788792440965,0.028723945162716914,-0.06616526909710962,-0.0995731283993938,-0.004661259851382927,2011-09-26 15:26:04.324822405,2.170056691
49.00144757938565,8.460408681581937,130.90689816198304,0.011543631906203049,0.03858862648708772,2.8144837058916363,3.5135156838862307,-11.147388431735605,5.363783185247258,-0.08426000656527749,-0.10024516683106026,2.2553775963160447,6.557262723070169,9.413189566667604,-0.15569953811365883,0.6698337789536881,12.720535548312911,-0.10504217497755734,-0.054688586753105256,-0.05544796803143398,0.17123493411480067,0.005302356513560298,0.4224620152701273,2011-09-26 15:26:04.424833049,2.270067335
48.99714733988936,8.433385969722131,120.2745020907197,0.055570982885881,0.0077325085391292785,2.635965112286398,4.6322925496384455,-10.458390247839118,-3.260213250928909,-0.050542285978647475,-0.13062450475539528,-2.857044846801832,0.012599631494048025,9.80295662087167,-1.96161757029571,0.5234976324225109,10.4859681515192,-0.0018241633119809308,0.023275183888128454,0.05038920970488581,-0.1421544861761478,0.03205035791528436,-0.30137322114173754,2011-09-26 15:26:04.534794543,2.380028829
49.000662457097256,8.430440486564594,116.24626011315601,-0.013052632229093013,-0.0022812171545375723,2.5541584103526365,8.495391730608238,-111.31264075273882,9.227239955848558,0.15807021722595685,-0.04022248941421949,-0.9062798607299871,1.211144097362818,16.88631392086368,0.5974264211338987,2.084871067566603,10.83207722409943,-0.11606233992538108,0.35893699151320957,0.03233299373808426,0.057208130329889306,0.0341585231053711,-0.04115805666566474,2011-09-26 15:26:04.635012818,2.480247104
48.9954140927659,8.362454770463621,120.26578361566149,-0.19693551188862368,-0.008888007837189127,2.2079416369595357,-0.36378156660202476,-67.58308251888081,5.968983893638782,-0.049505859876887784,-0.14169884495963372,-0.9686346239458863,2.429033195102069,15.239964560668515,10.217727865213222,-1.0675120175814556,9.893430120225315,-0.015460722860432348,-0.030750510229736468,0.3402293334799286,-0.6322879665278336,0.0008866290152110647,-0.5102789158499088,2011-09-26 15:26:04.734847577,2.580081863
49.00047010279236,8.459529412721546,124.64712936881786,0.0005889772770515771,0.014608350377016317,2.6761662377721454,0.9951263138419507,51.297782937076505,11.717900166985498,0.04934502707210679,0.15691596148512107,-9.865198136653204,-0.5882223630059816,9.841003371928021,-3.950800151604429,20.26149700568962,9.956051677163513,-0.05254138227266863,-0.053270100138508504,-0.12305997639848082,0.033350167409650106,0.0027936195084288023,-0.09139620834673684,2011-09-26 15:26:04.844993221,2.690227507
49.002232557297184,8.448691582796073,120.50577352663309,0.020859728247507467,0.046628570392264736,3.2929769060209946,-4.2433299468576235,-5.029509359381969,26.680228089343274,0.08896157888089803,1.6539466049526854,-0.33680711296911037,1.2097790638302661,9.485662831743848,0.9253644220823651,-0.6984350090857598,9.616027988996075,0.05317725267146085,0.14690028549187314,0.12359869947721938,0.010732356195741775,0.007245558566121848,-0.3281928763608338,2011-09-26 15:26:04.944837986,2.790072272
48.999735782412216,8.442575202865353,122.53062063156973,0.034720488998128705,-0.015992446918575667,2.19486172536067,-39.30721366017507,-26.39102480675138,6.422558300436682,0.3720915125774676,0.8362996952177938,-0.42334841709527543,0.07643879662258965,10.186092138756619,1.3976673392103776,0.2024355748476534,8.851832013428806,0.02853168749105837,0.10318137955478836,-0.06150831112957234,-0.020128443481952134,-0.02863183066090319,0.0657273486000198,2011-09-26 15:26:05.044865826,2.890100112
49.00155145279578,8.440627093608967,121.42127185787726,0.011150863378112618,0.22696401501909025,2.3130610222617753,-2.003857706118127,11.661140719320397,-3.115995358150099,-0.13176769041973535,0.19166084824553006,-0.21478619442907732,5.287207739210205,10.015149554504987,-3.8708294291931997,0.8597812233705889,8.122377272283277,-0.00909736520043611,-0.06911502522787136,1.2442136878481134,-0.043438500860557526,0.029184724025669396,0.8121985272392089,2011-09-26 15:26:05.155109086,3.000343372
49.00441705880187,8.442997554246361,123.74683676638877,0.025222131829309023,0.042392707880005515,2.0393474615749154,-0.8680874113429168,3.515695746589786,6.095004723151777,-0.19366015221241853,-0.04918510467482439,11.245708132983083,1.4780255670004492,9.9452195894431,-7.2195425230624535,1.2451738722280654,8.330039510422273,-0.011060851562170616,0.028899686382943057,-0.056265417725659635,0.1096822613128039,0.054289466972732764,0.011002891509754115,2011-09-26 15:26:05.254818913,3.100053199
48.99847735064109,8.456175092347232,122.83839869208627,0.011379460806370468,0.015677977115867357,2.7971510989182278,-5.519689695928273,-16.873873270949357,-94.84763326460128,0.032392293748298384,-0.5280005014960676,2.8645121770093196,-4.594976062696878,9.956243470688026,7.37165382638739,-0.7451316827634965,9.021300240546752,-0.05684173129928299,-0.27156488682925367,-0.1494939239749256,-0.045328984438956776,0.025488695471232777,-0.4632542339727484,2011-09-26 15:26:05.354796460,3.200030746
49.005428942631305,8.45450722437834,125.72251570476092,-0.023420219195257847,0.048713219622870535,4.815865617794211,0.1439230018428362,-135.45609857883596,-13.576087649739904,-0.052392525007136086,-0.06558450151615214,-1.2529499116469902,0.2678750662137209,10.351166938674162,-0.8666827448081447,0.0796939931899785,9.257689150978177,0.06682693782049604,-0.05465892434359445,0.036026972416761095,-0.011725205599676474,-0.0954912290916142,-0.007379440317014479,2011-09-26 15:26:05.464827597,3.310061883
48.999456867346225,8.467345072438993,120.84050782062086,0.04578699582061778,0.025979493102450464,2.931925873989363,2.538036358328608,6.460333302528422,-35.752355901895776,-0.22638783154401304,-0.2876091987193139,1.6088267997060979,0.027225037013013653,11.328090559627201,-2.268812358032493,0.027954043123379593,9.223403292798741,-0.036460809726171224,-0.03045855460051913,0.17551217290985638,-0.035148044276669316,-0.00014581163313519009,-0.0342132308009439,2011-09-26 15:26:05.564842226,3.410076512
48.99600109771137,8.46141206248197,123.03068645559689,0.02156805859781221,-0.05335266538699881,2.5805540974486143,-0.7869659730820504,18.58934540343628,79.86975222074955,0.02462351276469191,0.5343741958722734,-3.3556923270295584,-1.1603631609927336,10.288691008344758,-0.46818685388781756,-0.8319004450381976,10.794919089644829,0.05575354617560589,-0.0735389781872808,0.13831350065272294,-0.09612172431977534,0.03203545666971782,-0.02228244548323666,2011-09-26 15:26:05.675028583,3.520262869
49.000406306285356,8.4336070483758,127.98428406769935,0.03561227504020429,-0.010108430846320342,1.4278003607794156,0.754919314287628,98.67293797633778,53.45574867293186,-0.20521347621711325,-0.06399294460628158,0.5372746439146918,0.799656652988205,7.430660254512837,-1.9068665889880876,-0.7159810422536527,14.448746559924963,-0.03280652861212797,0.009604002426639039,0.09516509320133813,0.006416329359605156,-0.49962189014244995,0.1197649928371307,2011-09-26 15:26:05.774845475,3.620079761
49.000610967920494,8.452698916489325,101.6497412813373,0.016707055560678787,0.0005207479947851867,2.5411843823496834,-2.4993932475069864,38.33562780900424,61.31993608213214,0.1029909261309239,-0.16524423931746351,1.9091528872764314,0.38769733288511327,9.435721541186188,-0.021164974782415427,1.0921501636115063,8.551715651507457,-0.017756092422434647,0.008464026980534766,0.12015747957239968,0.0014955833235186654,0.1602316742669471,0.15935026929315657,2011-09-26 15:26:05.874873172,3.720107458
48.99977769568758,8.471948521703064,123.85260511230284,0.04849078171362426,0.04378676801808606,3.0624376623125316,-2.3747209607133315,-13.433336132629908,0.8275997333441872,-0.039049219625419546,0.18290369825468433,-18.483188184991032,-4.407956287616951,9.395200999951708,-0.006802797203723366,1.0135137267104974,9.051115690708674,0.012232380796702995,0.011414669236203403,0.2119208815687958,-0.24343737189909206,-0.0463712540158254,-0.23499792528459781,2011-09-26 15:26:05.974857313,3.820091599
49.00248744072209,8.450033479939457,120.30787224418329,0.014035977678646233,0.05638756554337401,2.6989347504903427,-0.45714083845335274,-14.464275017729987,-1.1623611005666932,-0.04635598107806352,3.085396397083983,3.646243112505612,1.2924370079614582,10.534050160220731,4.290854131354459,0.8847279253915074,11.200264112489366,0.12645166804968086,-0.10039122968089687,0.08242033123666644,-0.01897135830413263,0.04144480890394567,-0.01943830338752371,2011-09-26 15:26:06.084854722,3.930089008
49.0132757869776,8.457087887982485,124.06407817035051,0.008432336825128405,0.06587486794112601,2.098773938293509,3.292820979991865,13.36786751312699,-4.3887691489926635,0.01279658341490145,-0.07611960623732428,0.02955275034741567,-1.9886264885808722,12.360373770204811,2.893759754414931,1.3270378635407951,11.408360657821211,0.016364744100289277,0.009234674613014382,-0.07839577586934827,-0.2753418800862041,0.43759440470645156,0.05126905109972507,2011-09-26 15:26:06.184905935,4.030140221
49.00490480877896,8.442059600713845,122.04112251638618,0.016196746616817685,0.04421098327336675,2.8069136529593774,-5.8577869916692755,-34.90914250176832,13.555162440964468,0.06366435199083252,-0.06208449114568783,1.0722226261876893,0.17286100983752856,7.294289522824026,1.6315676031912394,2.95274221469958,12.06770309727326,0.34081378645704474,0.047033481282460994,0.1783736379192165,-0.04689959707539033,0.027346699568450383,0.12556105994017044,2011-09-26 15:26:06.294843886,4.140078172
48.99956885102549,8.434691255200374,120.65590148193654,0.039407619646246644,0.03897622030552381,3.453681036008482,22.403561834067983,-1.3259337831366191,-41.03584614055137,0.23486334074357398,0.2588360320968459,1.3850284498139067,0.03138661216605501,9.865198046745546,3.060358824081554,0.6844542867233031,10.36437009330402,0.0682593240692376,-0.03805527040804186,-0.1480663368488287,-0.00795768423822995,-0.038771712317124916,-0.22559436920604004,2011-09-26 15:26:06.394806536,4.240040822
49.001530944491535,8.50612930226291,115.30557096930033,0.018513732495706633,0.013815783396011614,3.3487639615469913,-0.7009468022535726,-2.845424467942616,-11.60418219029837,-0.7696310712205604,0.19407212139820193,-1.3292897104419883,-0.39599798856068835,10.139978638188168,1.8233919429895227,0.37839726866460865,6.9313971495687206,0.08345981959800428,-0.04063602898896065,-0.6201340114910626,-0.020841592908099286,0.01394192625352801,0.05946364487464129,2011-09-26 15:26:06.494882266,4.340116552
49.00454401062607,8.476377687400255,113.53695890785374,0.05107978856312512,0.13271846897361927,2.7013107862371113,3.581055138806555,-12.175409370580267,36.27965067786578,-0.07851741188035066,-0.195913791363788,-1.5824133009600378,-0.6874863148016499,8.581185259549862,-5.706227218821925,-0.44051345036487605,10.021946612512858,-0.04061829942804,0.20173896181627457,0.023790832181524713,-0.008065005038284915,-0.04566422938403817,-0.8269113326439295,2011-09-26 15:26:06.604879735,4.450114021
48.99634313297345,8.457546312771802,121.65885133448496,-0.028265481696205602,0.05151704799735986,2.6688814424163834,5.616764122082154,25.06826150737003,-8.13885503717798,-0.017116372255977237,-2.085297603251418,-0.08552816711715056,-0.1402999762326379,10.555764447254091,-0.4967417125657485,0.8509392873099216,10.33916897063947,0.03447222973821105,-0.4781111409439741,-0.024677359318464383,-0.016417185760050253,0.3931409741391847,0.11773327069180824,2011-09-26 15:26:06.704905163,4.550139449
49.00549294265036,8.461167715499373,118.64158591549172,-0.02632120024812658,0.0007081504524843532,2.705868449583251,-3.327753628964373,8.179501328139603,-18.80872889860589,0.2223056755606916,-0.0639823701628367,-0.624503699809071,8.394905782882361,6.1127473299067585,2.36265141499975,0.12488163118273882,10.836023965599233,-0.013205249350281102,0.08170707320049393,-0.2014641496707785,-0.04363511252341296,0.00687120701999221,0.3193717899840691,2011-09-26 15:26:06.804853565,4.650087851
48.99486556139924,8.463192458537398,114.32388609605415,0.04902865208962093,0.04607721143502801,2.663583575721378,-26.330533439375046,-10.943986917827614,-33.86119174582437,-0.13145120599316612,0.4186532674797862,1.0281902625755917,0.4105361753292,12.731953005871448,-1.5538782403491227,-0.7510433089265314,8.754204104255912,0.041428359878599344,-0.041914175020075946,-0.1526052338498789,0.00393244592975251,-0.022192964099410913,0.23130476022547902,2011-09-26 15:26:06.914923161,4.760157447
49.00274819640104,8.430812065549704,123.01177553077606,0.07708968779441223,0.03574920258592367,3.6860606144180306,0.68504133384427,10.796805906171617,13.990573985757141,-0.12019265559930468,-0.34237564831159917,2.4828273758325254,-0.9748357747131806,10.85895873577335,-2.259659270154828,0.6116241045147828,21.280763534434527,-0.08423557087154986,0.12536356226166492,0.13640091784586184,-0.3799892024579902,0.023739023287840222,0.08141081578157583,2011-09-26 15:26:07.014867549,4.860101835
49.00007096714206,8.55267298502024,125.32950062284823,0.13496781191143922,0.02376966810073384,2.6872856717668143,-13.97167091448556,-201.95416111315686,6.558313174073772,-0.17094327196524764,0.3340325346236622,1.0765289847658834,7.730266231381714,9.932901035370259,0.3375008023158623,-2.108214966646058,9.17456502631265,0.005829758051065694,-0.034417246279569165,0.16771521617471885,-0.008644669498867595,0.08414878968969322,0.01129310343847596,2011-09-26 15:26:07.114838524,4.960072810
48.99822896406111,8.471818870862585,117.56382736998823,0.028038982162496024,-0.3833073442456867,2.6249259385310313,1.0314918271409506,-10.70942764163308,-34.40934362034677,-0.24452030013341683,-0.7162178187738927,2.1173462972292065,-0.40046670371242,8.903772994526,1.3157592762939005,-0.36798792920145873,9.763469971444481,-0.0821473092379158,-0.04325603232754954,0.6418221913883859,-0.03896696152954298,0.02447877430799498,0.11901397874347576,2011-09-26 15:26:07.225129996,5.070364282
49.00312554280621,8.447222707259,121.15455450863388,0.006396268567575993,0.008530442842152923,3.3860206070572394,17.97303118482441,29.036703091396614,37.00252541706798,0.5146932673743118,-0.10831591415442733,-6.218528798148113,0.34985020801294525,9.218496732579911,-0.2680660596460847,0.41504581320424355,8.958922108453786,0.037496456096966314,0.05991912853676625,-0.3745957163302789,0.20445882615117109,0.010407969588799809,0.13026209790773444,2011-09-26 15:26:07.324963984,5.170198270
49.017233831009634,8.47497423898511,123.11377237379784,0.013430567802698893,0.018326027082318674,2.6887199017971675,-5.159788923881539,186.11875394673933,12.531653284049153,-0.1895550558289307,-0.03561168769157235,-1.1626077964266124,-6.570380368641968,4.8274062774247986,1.1488085685897984,-0.7612448577224381,9.721584215463505,-0.030736911997151665,-0.05392349365599661,0.04515384034309906,-0.021749485786144253,-0.052524914970381004,0.4284031596994447,2011-09-26 15:26:07.424913233,5.270147519
48.99892311960202,8.469592841864463,128.92011596126682,0.025281004665977706,0.05342733316971769,2.8333984572517505,2.102762949471755,-34.10161233650721,-10.283193497237965,-0.022290601552181093,-0.07001138408219104,-0.5058612292073771,1.375440210095004,9.327535628525514,0.1926743423192164,13.325650375224303,11.187160852083514,0.011173332189036073,-0.10446245671829812,-0.07677163488888976,-0.018486172941457595,0.04716966848266946,-0.17085973445278207,2011-09-26 15:26:07.534904391,5.380138677
49.00326199549661,8.483216347379908,131.82287648501105,-0.02677791786115842,0.04567189767247695,2.930705486152331,0.5728719491527147,-22.824087220863685,-13.524495224324442,0.00679943953568557,-0.25593654769244684,-1.0016739988701557,1.246709783101405,10.738396690192058,-0.7006314638460738,1.8310844158411783,10.778977100900525,0.2055600787610134,-0.08391211044205647,-0.20422823907271923,0.03275138663020052,0.06491977520973119,-0.1807241265114904,2011-09-26 15:26:07.635086362,5.480320648
49.00212804014092,8.41490969026444,125.4622764594095,0.04739252835024239,0.04079545893843159,2.3083519331730527,-14.019025995154482,18.10525130305158,16.19987672275693,-0.057795609295852916,0.07082601037441533,-1.4790965204243491,3.9794567578033715,9.971169982001989,-2.607199933771409,-0.7912202556446853,10.727137430183184,-0.023780281745992286,0.09130256778074562,-0.10866432799686461,0.02808787885583221,-0.07308557190018694,-0.34898985360024226,2011-09-26 15:26:07.744981094,5.590215380
49.021050217505326,8.466840249851927,120.48001167717021,-0.02351938637413183,0.015725233747387928,2.936678275479087,-1.884624769348499,3.7642819806225103,9.469042911362067,0.8488422833414562,-0.13043644377303953,-2.4977675971016384,0.5138025114085745,9.318875624972174,1.6295636976731385,-3.4877361090599184,8.829180353570353,-0.07161041425504953,-0.0028217125159432795,-0.09046360558096438,0.2932628225517858,0.005697319985053757,0.09988404928457105,2011-09-26 15:26:07.844963118,5.690197404
49.004593481017814,8.474220282956486,124.33607092838889,0.03233800855679363,0.021459355817491067,2.3423791389881927,-28.514853890717447,39.1396107229688,22.544271399922607,-0.07710088569411705,-3.7370231094555373,-4.859050759307351,1.076461816396052,9.054927265538241,-0.04819998477362447,-0.5082636391164881,9.725050315762566,0.006226886292989965,-0.005376803563843407,0.06822909835647599,-0.008214056706930357,0.001624771581863191,-0.039525023557811914,2011-09-26 15:26:07.944897548,5.790131834
48.99924612489933,8.450242768317823,120.16566709961236,0.05390907226899917,0.08606733528584634,3.052268652519796,-1.2814511887018436,10.57044383336751,-17.02964851434121,-0.06412192018403101,-0.016061124909139374,5.858547023630017,10.05214482982039,10.965872274915275,-1.9419580364462445,0.5805314519894754,10.674586191764847,-0.015711684925634264,0.05094748203325659,-0.7128848791446245,-0.05883041698004647,-0.01803825567852582,0.15244114097280817,2011-09-26 15:26:08.044974005,5.890208291
49.00047032016498,8.436152483349826,121.47601512931854,0.05932133682159156,0.07405119795181277,3.2926790947981406,-4.5168246120672455,-9.585572515515121,-29.730745930588487,-0.069579947358192,0.08368877938494439,-1.1726307848494675,0.41244611121729424,10.351329564106516,-0.14453744459686751,-1.7278149466259947,11.421938134296333,-0.07132441210590619,0.005723370027823462,-0.11846710393689829,-0.020694270805564255,0.024415656410177754,0.006589457563703441,2011-09-26 15:26:08.155155276,6.000389562
49.0066046975794,8.38468286824123,123.1958222663285,0.026823352810050948,0.04538017088596001,2.8527739646409387,-6.932613694592516,-66.32486496304463,11.701365073994635,-0.1302934484386127,0.5018578866691312,-0.04871238476192469,-7.798934395136955,9.699184891806961,-1.1350118430565173,-2.3834225639682725,9.546296794205455,0.0359891663621813,-0.03493584301007977,-0.08220331791275838,0.008755409793783172,-0.5254231359819147,0.6828106532084892,2011-09-26 15:26:08.254977741,6.100212027
48.969463297435965,8.464938672619605,123.40347602881124,0.050730324711806905,0.06478737233888605,2.588676991268686,-1.9855003532135054,13.535265906747602,37.70438094546607,0.17991083370424477,0.4890451323370085,1.5070913852890455,-1.239747988801099,8.930684267320892,-1.2549495288392898,3.1343152897983773,11.459339066323508,0.18564367740103777,-0.047630542236748126,0.1461469786028181,0.016251238509357918,-0.25200989552090086,0.08924528641269198,2011-09-26 15:26:08.354933800,6.200168086
49.00005250237842,8.456460821290435,119.04623255470557,0.04875713611827844,-0.019983828246494723,2.6018895608358887,-1.8753144622054347,-9.808597678694825,-1.5052325735189191,-0.19004948087039136,0.21642601675893125,-11.901101544465767,2.4108083914148866,10.001940825748278,4.203867123187112,-2.502808215262897,10.690449963788385,0.03033255084174484,-0.07083260682766518,0.03118223864047808,-0.010510835435652174,0.009151867235467225,0.1969540733197195,2011-09-26 15:26:08.464953007,6.310187293
49.00217719948283,8.478564795649149,123.30581142299856,0.06219953289708752,0.00246284479586752,3.028119310313731,0.18074186650758323,-26.086395877672356,7.780729621996744,-0.06691111787880308,0.3723205941695868,0.6937329715737278,0.6943489779214762,9.779011648924882,0.4820105506159933,9.900757908363058,10.287706305147656,0.14125793320798524,-0.025366452636609083,0.10022472035219811,0.035061196764118646,-0.008729529805735261,0.06492468555862183,2011-09-26 15:26:08.564963376,6.410197662
49.000651814028544,8.467373913005742,102.90676069069559,-0.14878216253579993,0.013618001687217628,2.7848412737732757,2.81751026920838,16.865644596226858,-11.302962342172483,-0.17128668196160232,-0.44039538110483784,3.4561240730753395,0.7241228037010143,8.036345014966145,-18.64370242267006,1.4390737697924836,12.64188027221692,-0.05050536762336519,0.044760728399869734,-0.1847391822479557,-0.051411358140979316,0.016838202188566992,0.2213293024532328,2011-09-26 15:26:08.675161432,6.520395718
49.000333364164455,8.44817579583845,124.8515777653531,0.012630828695300187,0.03257270119747145,2.8646638142137313,-1.8520988042424078,14.793136978887848,18.57613661451475,-0.007769358469561746,0.23548059519833053,14.189579787632304,-3.6469511488208797,9.817529994942523,3.2500190976199583,0.24964601234295525,10.04784658760643,0.04475040974155175,-0.0011840765470036542,0.11860968257930375,0.038808044643090595,-0.003391868280070424,-0.23682956797972377,2011-09-26 15:26:08.774936708,6.620170994
49.00104091405231,8.47259157913645,120.9420312234833,0.0644486392596237,0.006283533902818571,2.5945905524772317,-8.48440151670732,46.19930857040839,19.97490313397447,-0.0978663680772724,2.0683896915177296,0.31041181846284965,0.1980332508406612,8.455566683726794,-0.18529930695334196,-3.4910164042853737,8.914748438635785,-0.10189738770638716,0.014013094815842385,0.17703385454030834,-0.08068881581083164,0.021266098843072,0.12414055256915672,2011-09-26 15:26:08.874941642,6.720175928
49.00023680263434,8.549538764157678,117.47125126820167,0.04029220919369181,0.03300866525200185,2.3565283727532362,-4.355752700372617,3.997358156626597,9.301909680272074,0.021769685060556754,-0.38997665163608003,2.847715838565817,-1.2255477405349426,9.468990652970474,-5.29984541266878,-1.1661991954499158,8.991111268265412,-0.06276849690191294,-0.05688479909384472,0.08737352960391602,0.03270888779011914,-0.07344401552540225,0.13738704978697194,2011-09-26 15:26:08.984968892,6.830203178
48.99688335179459,8.45707306867338,124.39357804205446,-0.005993574592368853,-0.24515087819469622,2.8623879891365585,-4.780872064149856,9.025997601435872,9.124687869649343,-0.0035636608893120855,-0.42047379471925095,8.635667643467551,1.1913238340658379,11.217520729858911,-3.021971711334169,-2.830850159806223,10.457752243703506,0.011364871033492173,0.045032515361059774,0.055069164914715356,-0.004281605408775741,-0.04120894536613938,0.24579723697942557,2011-09-26 15:26:09.084965505,6.930199791
48.99742472028535,8.298628886117797,126.89968557734456,0.06617546479180847,0.08039091870441534,2.9926422124602348,28.522397788620847,11.712624957426236,-22.505574686135294,0.13984438318335293,-0.1480364040083545,-2.382139483391413,-2.0205631249633607,10.24323716069552,-0.09165542790271836,-1.1999371158386545,9.640153789285488,-0.07438158682049359,0.03998865497295266,0.012066227776202216,0.043603004442887075,0.021368607183926244,0.13172133484659082,2011-09-26 15:26:09.185192069,7.030426355
49.00001813212701,8.458917969206993,120.63912787887271,0.019887323687143757,0.3291298509713724,3.2554954110650556,-7.436839388681117,-2.484769942865504,13.47611666371115,-0.2815430445570319,0.08806709036897957,-9.874385952548362,15.406153937090297,9.806664150718557,-2.7163441291771044,-0.08285164830949063,9.610383406142228,0.010020829728341394,0.03492256208893266,-0.003543573115361609,0.036633942981001213,-0.0004067263782027955,-0.011355780353583377,2011-09-26 15:26:09.294967516,7.140201802
49.003972591517034,8.431555018877777,130.13021514950523,0.03477407463859088,-0.0064941131737184105,2.78799136083381,1.5462195802700773,2.8293952304135996,-10.768124593451457,0.08646995776310006,0.22191378863142647,0.6745645364371462,1.3063625167398996,10.289181583603833,-0.2783083318007302,1.6295388070213694,9.868502536302008,-0.07920539543966343,-0.07482042322234121,-0.057632207055289514,-0.025641768132964003,0.13238936480630012,0.028971588662925325,2011-09-26 15:26:09.395011671,7.240245957
48.997885345778776,8.44771451202107,123.53913581400366,0.15951389284243514,0.05780494759860362,2.5030107982438103,-3.4232342892195216,-14.660080893922782,-2.876207884577288,-0.15913305765553956,0.3613936868571521,3.228000314240277,3.6317523919325003,9.079548917243272,0.23851690710121953,0.5171676477636166,8.30939214774468,-0.015463085566258103,-0.0011212841514832814,0.0663543295125932,-0.008446591147658437,0.0760024742941832,0.01692497164191719,2011-09-26 15:26:09.504978004,7.350212290
49.00201242187433,8.434286056046169,120.42326749776586,0.04911864412621458,0.04403813227303652,3.534628665324957,1.495678126813125,-0.7830127675943878,-12.616565305904416,0.2037771258238526,0.16886240131080008,1.2035003683098577,-3.4318819448298887,10.261916215047517,-4.101815518551337,1.2908234225005917,9.261421894630185,0.05857823549734217,0.4577760829981586,0.07539960758666231,0.06555659359760269,-0.057065690666915775,-0.04684853358857126,2011-09-26 15:26:09.605037847,7.450272133
49.00201923877259,8.457300741634908,121.4436676289833,-0.011985134143495488,0.1790432952722698,2.5840889522624435,-7.552148214858547,2.417392208689446,9.889854258718607,-0.023034191653924417,0.006700706846116755,-0.11313497763204106,-1.4667935292837402,9.045004349966566,-1.834516002655802,-1.808289195521782,10.445143404394434,0.1584127198229976,-0.08464646766778729,-0.009109354318631519,-0.04892195848687333,-0.07518445324513391,0.0926104757844716,2011-09-26 15:26:09.705064922,7.550299208
48.99749232209573,8.426499486286698,119.00789632534286,0.0423678497184438,0.012356700045519007,2.23948215795536,-5.090509972599538,8.857711548123351,0.529375912526106,-0.24190645905541283,0.13703613703995232,-1.9881229416946085,0.05458996644767841,9.321447279581745,-27.877285318415503,-1.652269497527846,7.298248038606104,-0.1587010924132422,0.07453012242767022,0.1717813159783459,0.02866710093819186,0.06286374671216928,-0.039876066471203515,2011-09-26 15:26:09.804992739,7.650227025
49.00423849193001,8.484148179830123,107.40871161766027,0.030077336521945164,0.044843531019491824,2.692160958856379,-1.8125633138012158,-87.90363022736274,-4.2805112157850616,0.08218000400170979,0.7107686381701326,-1.5587607725965027,-0.5711477689469178,9.095839129695234,-0.021483075577811386,-0.02503898327799939,17.678461744803585,-0.049739427210324524,-0.3393204864099365,-0.07399059457922899,-0.07065388416709552,0.03446598988850316,0.11411705623573176,2011-09-26 15:26:09.915023489,7.760257775
48.99772391991717,8.455568221779751,125.02430444087338,0.026092573222707225,0.002495875177687904,3.5522380228083237,-5.5909482409419695,-5.422446886939627,0.7010447462206363,-0.2681928789035086,-0.1246695358400002,2.9219059894918797,-0.4982751981486725,18.73801251096625,0.9790189458674399,0.6075494050609042,8.489966473856256,0.20472548987456532,0.02560637045277246,0.006961239923713648,-0.053707885370454955,-0.00037323920238993053,0.07970337666858666,2011-09-26 15:26:10.015047226,7.860281512
49.001139387485765,8.516381727536773,109.24157696292609,0.020766692562959592,0.02484248119992239,2.797750512836585,8.660511453897863,-17.215048257972263,-13.644903093915849,-0.21014803719137756,-0.29051296787607267,-0.24243122360201666,0.04358140820102824,7.786254847091115,2.3276853335933834,-0.30349269451641864,12.578511244644224,0.002806608967644629,-0.02820129767071225,0.17957616663829948,0.051241613944637665,0.03757315727474048,0.16733481352317808,2011-09-26 15:26:10.115009246,7.960243532
49.001801310365636,8.460941354837907,124.2087887898251,0.0871318641476106,0.028075105128351232,2.991204960858804,-2.916827411006595,1.453902602286589,-42.36298691348222,0.03276695213859465,-0.07612472851332369,-1.8605341015682955,-0.8593015934928591,18.344566458204405,-0.2774574753918592,4.935745901765318,12.262499147055346,0.02360919051566681,0.07064057625929657,0.07416267807854304,-0.03505409842411774,-0.07893331454373453,-1.146573138969378,2011-09-26 15:26:10.225054455,8.070288741
49.00304555401437,8.30314907232908,109.67927811436655,0.0024848131755694954,0.012241012978180858,2.5985702227187915,-5.365472505445598,8.581469341930587,-9.453830487855479,-0.14029043023890025,-1.5567412809253842,0.506062098163025,0.9324327393570416,9.255662285939092,-0.5629026102306564,1.5774020632040329,10.231771570480884,0.012563493225046421,-0.020518986077324275,0.8203901403378201,-0.5390155532945675,-0.06290293869516499,0.14896046871143132,2011-09-26 15:26:10.325088000,8.170322286
48.996754911418826,8.386881637975554,119.22076041567706,-0.1720849525728709,0.022059166930270623,2.560772413961946,-1.9525920478475476,15.825668275580245,15.630318643712055,-0.1823878754589126,0.39177406661958597,10.409492418048565,-1.4691574118639412,14.544377124639702,11.423051331393406,2.140847064830512,10.388775610520264,-0.03154364031191268,0.012305537914822862,0.0865019797027973,-0.09335420603708482,0.017655326849788603,0.17470738170190206,2011-09-26 15:26:10.425058249,8.270292535
48.998053476001274,8.478285425206703,121.85527644613131,-0.013737412181294584,0.37766413064687554,2.9689685250906583,2.244224358380094,-0.24183039001744522,-9.415762176821913,-0.1841057495895272,0.1291460424578767,0.20968840214224144,-3.756833449162597,10.01814941465247,1.9134596855088852,1.5898481205435986,8.592009586124734,-0.3811498672370664,-0.15239619337613278,0.15507790155439052,0.04802017910755933,-0.010980451427327204,0.19560041514197807,2011-09-26 15:26:10.535035478,8.380269764
49.00914629186143,8.478669598126958,121.6676915485894,0.019603391185119196,0.022222003389293976,2.667354841524902,-5.002233493436005,6.185975526718059,-12.599168105058148,0.11803011474801185,1.553118238182618,-1.466001230428958,-0.5365445166275082,8.72410170753485,-0.3462540282060588,-1.2760979590175723,10.722278028363784,0.3762033065421086,0.03925238848166242,-0.11574131047726134,-0.057166733770017304,-0.04358730610169393,-0.010630718550714551,2011-09-26 15:26:10.635244252,8.480478538
49.0036270480555,8.492895563319777,121.92301883591014,0.06984705769966706,0.368566204319066,2.6884440266130456,0.782770775419589,0.4326007897427746,-49.165906726219966,0.09192726130784049,0.24949352467455796,-0.8715432393484448,2.1717085417750486,10.526019630481999,-3.007280509338965,-0.6982209560450733,9.532304874304312,-0.01568920731943759,-0.08419285091547181,0.03617546750404414,0.04026734577414381,0.04672031744542266,1.8056802630352418,2011-09-26 15:26:10.745098845,8.590333131
49.00660235334686,8.434451073549775,121.91624121694893,0.02359841099985226,0.020524559232840092,2.6435315826089942,3.889033787353949,66.90694440749903,64.45184554284337,0.02550716327789988,0.08543438878296535,1.9616921545420756,-2.0974922125264697,11.03939998060051,-3.0705158711859273,-0.5712571877257216,11.180761573393793,0.011277077191863208,-0.14668662382668182,0.0051267732590436705,0.01515983785803625,-0.14078230183420856,0.2495707090977093,2011-09-26 15:26:10.845036009,8.690270295
49.002559162476324,8.468859557218682,89.76978399927512,0.011095445356104138,0.013103218704340443,3.5898016238206654,-3.714249987972722,109.61503459547703,-12.91707583064703,0.2082273494572087,-0.4960873933295058,-1.826250526012529,1.4363047819722876,10.6272232707283,1.4084240218211874,-0.9304747271024132,5.338655882769178,-0.05605590105631085,-0.017379183074539943,0.08336749420746584,0.030891026665271142,0.006320566109485131,-0.24478610862469521,2011-09-26 15:26:10.945021774,8.790256060
49.000878036839,8.485202067690558,122.20981178235186,0.05577806838729478,0.04227292831434591,2.6039416246227987,5.236281817836502,-21.160433589412257,8.17618757852772,-0.04094171032918161,0.023679818464590455,0.1407413639728063,0.7894747503454975,17.850775525548045,3.461085395229197,1.201760418353588,9.299340341157993,-0.03987217368293234,-0.07040639716252999,-0.37537829415537516,-0.03523641214627638,-0.3753822766779773,0.01586538532276985,2011-09-26 15:26:11.055080373,8.900314659
49.004419587247554,8.461073555981585,132.79416663010338,0.029068225995188532,0.044117125287759296,2.7471187839041815,12.736589082573769,18.775839784915917,-7.100769411489068,0.08382686865372375,-0.01836066045231258,-3.0002888441626343,-1.6728951339208613,8.837294655511014,1.7631777061626734,0.6298701984655769,8.332556245309465,0.2249612265144536,-0.018916597701451706,-1.1250448471759529,-0.265802169796229,-0.025018883580160536,0.06485950686385465,2011-09-26 15:26:11.155295391,9.000529677
49.00639918171809,8.455258560610256,116.5625041073577,-0.020603424929948787,0.05368205555694284,2.5676594163814945,-0.9765050970055473,13.11201088961175,-0.9743853268974436,0.06756189770547913,1.8840246239393041,4.532735203016414,0.14101436674309187,9.886318285985162,16.588286096344586,1.843094406449815,10.227591438382465,-0.00012005254191927914,0.04034279109981825,0.07080336149997482,0.04635539837078052,0.015209847860582014,-0.09258759118517837,2011-09-26 15:26:11.265091987,9.110326273
48.99172897184334,8.456084127697341,118.49626498222193,0.0033343172385839094,0.28752423637147817,2.8743882271725427,-4.923847303557519,-0.13650064253924954,1.556614220465984,0.04257293897229946,-0.10010782276525725,-3.9912207391725025,0.1961884671981044,9.889722375436222,6.4018462806666285,1.208021838423286,9.583388253809803,-0.010997395340769472,-0.044283173546570284,0.01960739150897182,0.06013038038516846,0.0744827429900074,0.08177483699671884,2011-09-26 15:26:11.365078081,9.210312367
48.99673238385034,8.564861728575497,120.66012196588117,0.1153327011895835,0.041405117455197975,2.619092084347488,2.73106612554636,15.596822053558789,36.36807890514966,-0.3506493525379174,0.16177985655130345,3.7106550973162458,4.22759963860062,9.867262230014637,-9.48615167934813,1.8906952205059921,8.023554906796237,-0.08948137166502076,-0.17459061852262422,0.09779380396298369,0.017895654487316035,0.012622906917730086,0.25229198019126453,2011-09-26 15:26:11.465120310,9.310354596
48.99889831936226,8.42691966496005,126.30441825876957,0.04912336518327563,0.0362561550120629,2.746478844258004,0.6518097581435001,-22.943468885960673,-17.086490847920178,0.06062173174097526,0.7542055168697447,-0.8918995358832786,-0.40614230196883316,12.128520136326252,4.185298684414608,-0.38405200538524065,9.469595306617805,-0.025825475366292674,0.02233568644044205,0.1612447919260128,0.014636926612996535,0.08435549303141704,0.16776054213645786,2011-09-26 15:26:11.565121081,9.410355367
48.9987183461497,8.473344205513275,121.46236141087881,0.01528008621377563,0.07956869379843182,3.125884478222528,11.645354569949124,-3.7283165428779315,13.17128401764891,-0.021645786659421445,-1.9224406730552461,3.1205854397936053,0.632616441234288,17.830869851565552,2.260395547518281,1.8410821074210695,9.454144405594882,-0.054682240891154324,0.008529296448909582,-0.021293385781452796,-0.20092677874914014,-0.09436389491642362,0.1379988845851577,2011-09-26 15:26:11.675191190,9.520425476
49.00158291423703,8.458649259194155,120.0497174316691,-0.0023718318140675022,0.03576262984683841,-0.02606730781283151,-12.000453247640905,8.877994100486662,4.628577786458154,-0.05914841841036615,0.06314488648873284,2.5799699452961717,2.0913392931741432,9.06574493313405,0.8972816408057,-4.727466188753963,12.456224883851203,0.015125922279533882,0.04544787488687252,0.12485977618756264,0.05808792624080016,0.0017735461935221926,1.642546020293811,2011-09-26 15:26:11.785115365,9.630349651
48.99909065402158,8.458930376745439,117.0104122767457,0.04736424681195838,0.021340363177396342,2.573173370655594,-1.488154098252432,9.378650160914727,10.32065608269034,-0.0047055627756832814,0.5094969794876935,-0.8746935690138193,2.8358280263059563,10.638166482793759,2.3165495109543914,1.2477599260434349,9.536177390085742,-0.0062205460799587475,-0.009139870984769824,-0.07255420560027132,-0.07033617280517615,-0.011591953071735448,-0.022317871927368373,2011-09-26 15:26:11.875098413,9.720332699
49.00622495141672,8.442132194039564,124.87199854441968,0.06047628642370742,0.01103693508747956,3.182026992983574,6.209703705310883,-2.028738938552019,-21.051969649851905,-0.17052324740202904,0.07764843759897476,0.28264441352231895,0.47048136576355437,10.38104239454241,1.5103572703172288,-1.3499237479333137,9.937434243290673,-0.024875836427254536,-0.120937944350602,0.15614589248084149,0.32366924253751544,0.0051497836644717595,0.005791874674618489,2011-09-26 15:26:11.985102387,9.830336673
48.999232647837374,8.464892405323985,119.88906509139336,-0.027845570754715093,0.053665927298128295,3.083385379117252,-4.65384091938614,16.968299945202997,7.869657826306877,0.1350028435043232,-0.18431474844555648,2.425497084686202,0.837959418527773,8.642213276519419,-0.5689378864308894,0.9668477309988148,6.30062536167171,0.022177699185850146,-0.0005141199353491232,-0.11914510060683663,-0.013349083888168302,-0.012242538794562049,0.24303592884732989,2011-09-26 15:26:12.085117617,9.930351903
49.00271078691593,8.4538289503728,118.62465665273338,0.47130155497327286,0.04767276510558095,2.4064337456133593,-20.212045160156528,72.63569221031447,-24.078643588843065,-0.07199739791248214,-0.03622119508644037,9.347779311517826,-2.1454139723138574,10.224692509716444,-1.8004241216506283,2.4732343887758774,13.576646990379759,0.057949159287912895,0.047826818248175425,0.167256500340294,0.005132681982788989,-0.005284651247168343,0.0321501960767585,2011-09-26 15:26:12.185183488,10.030417774
49.00054987441093,8.46725535282845,118.90922633017588,0.07288731026766859,0.06034837441253843,2.569516696507565,2.1096030896242106,-16.86901485459146,29.891130948119944,-0.05076546075282608,0.3788911546836662,-0.05033288559415394,-1.438549932334671,8.32199158115629,0.9055831963450469,0.7817677458274044,9.808025082785418,-0.0316419465606947,0.5587917517717889,-0.11844452112214565,-0.037489638085026165,0.19098096123107258,0.06946637886490005,2011-09-26 15:26:12.295124337,10.140358623
49.00278952914634,8.440830338958135,123.31273116997613,0.03757421923957972,0.10352144374879677,2.890392375164027,3.228677858293511,24.55026297887645,7.781690691202322,-0.13792765021523212,-0.09029732939411164,-3.3212482879663763,-0.21230977752683572,10.114489569412102,-0.4053750885244902,0.7803362768483335,9.046326683267598,-0.006150400690675269,-0.0309551496217497,-0.016525625278625684,-0.15207550316089685,-0.24641143778997598,0.16237881928332876,2011-09-26 15:26:12.395091748,10.240326034
49.00197412081781,8.521872917650239,121.60267280013699,0.0830357496838993,0.2613419201910275,2.0674799136596342,9.212774395162649,38.52651066886756,21.74501928652422,-0.3429909682832525,-0.31690206081460104,0.05989042059272032,-1.0844459386127565,9.5755566564424,1.8210457373349453,1.9824776072370787,8.1199707192339,0.1623566546618499,-0.08929574902500267,0.09192236015769445,-0.002888738162283446,-0.044244369666313364,-0.08119365404261902,2011-09-26 15:26:12.495143909,10.340378195
48.99787609173397,8.419372323136022,120.55136247188754,-0.1637230065026623,0.08944164433180961,2.965028916132078,3.976376088860035,-6.9010410367820985,10.729564525728563,-0.020037963437216408,-0.26189194121908815,-1.1853998338196508,-0.4770036896884085,10.31951032202409,14.586307390396035,0.2947652001831994,8.42868962324044,0.015490068614377402,-0.06126743862721586,0.01714821579287063,-0.0373898817333014,0.2679986555595697,0.34507033320461894,2011-09-26 15:26:12.605187402,10.450421688
49.00473170604398,8.459047913875162,123.41894378079384,0.012556998263935215,0.004997216445735295,2.019825086001633,5.202788764317689,0.9505718356013628,-27.24130710594526,-0.18112070508802955,0.04484074219028446,1.7572996126124916,-2.2234128837168097,9.580509856910734,2.0327813545013513,0.9782486943448668,4.409448472046324,0.04262721932779833,0.433901332963077,-0.8866943313374952,-0.017343115917450615,-0.011936170725143445,0.07097038434679502,2011-09-26 15:26:12.705227973,10.550462259
49.003405421865175,8.452369384962427,146.3696554963209,0.03325416563317108,0.008190665282255451,3.014944104284477,3.866537362756159,-0.4524396305201903,42.21042499896034,0.04339599313582003,0.8956734383448928,0.37007203492274504,18.702539870839296,11.0856653156649,1.957040289275356,-0.11548884530590474,12.41888235695535,0.016126640980547866,-0.03306003255767976,0.11782370006719697,-0.09241250270659501,-0.03396058542909374,0.10089398908912656,2011-09-26 15:26:12.815159689,10.660393975
49.001075925623205,8.469148443722256,131.52071537025626,0.05470788329993668,0.3109486530308106,2.6717443673938215,-3.842992648861707,-2.6655937190888763,-10.672636896454994,0.18083177307615256,0.29652698905546304,1.8877102100185743,-0.7364670258943637,10.063401208936195,1.4453468065376947,0.5858711010853126,10.475313830156498,0.013654724367887186,-0.06258236025445417,-0.014177555225448295,-0.06496448194271862,0.05037545085088836,-1.06167131032112,2011-09-26 15:26:12.915144848,10.760379134
48.99835157617536,8.473599504729268,119.24547986548747,-0.15628721944616522,-0.0008228495089088912,2.607574249340484,6.425037134429544,-12.14603783954841,-18.79906251124654,-0.22316823644513578,0.3527935233716163,1.5672323345438042,3.1132587767063957,4.9071404863702375,0.0009328432625819172,-6.740962545103723,11.002748392707977,-0.006648574796891802,0.03730497276052885,-0.0586080445380069,-0.003665352954526716,-0.011435097439980356,-0.1874620784822605,2011-09-26 15:26:13.025167182,10.870401468
49.00283181412423,8.397943064540895,135.14494149148103,0.019641728281029724,0.02774472668809171,2.9952672327656633,3.5850900317046395,-11.517456696710994,-11.040820861444963,-0.151718394944574,-0.18569807201804647,-2.807176764300246,0.9678375081552961,9.345104525889365,1.322923859364246,0.6139097449673112,9.089408305045362,0.0341391286988044,0.01721656504366849,0.07412254679113614,0.09454557783961832,-0.06693914002627366,0.45316794824512485,2011-09-26 15:26:13.125197405,10.970431691
49.000890613203964,8.468245491134056,120.31530905137731,0.04555188733777129,0.003725928369379447,2.4989356322008067,-2.9021875794896417,-8.467600552736632,27.03020811378115,0.17371447793278352,-0.4150018459520038,-1.2649903724254203,-7.336902915705495,10.459240733719554,-0.5155388130394412,3.7842152746851623,10.116595660422556,-0.12756475587795657,-0.07344902334758281,0.20593119038020888,-0.08919666563964888,-0.05187693462683212,-0.28680289912771134,2011-09-26 15:26:13.225176184,11.070410470
49.00425742885163,8.470808035691233,133.61698003554892,0.04952441688916143,0.019511557619482017,0.9584503330651013,26.103265368645555,-4.832174020348934,-19.79084793257848,0.7455987702145677,0.5915296828477415,2.6060441318709597,-1.8045442209694587,10.287416179257491,-1.3347193560340376,-1.0142881525499536,9.854311594938293,0.06251936825463358,-0.11381371728934583,0.06134697639485106,-0.025064108406944875,-0.020594335266801593,0.19631104287704107,2011-09-26 15:26:13.325215694,11.170449980
49.00556965957651,8.421711027621285,121.43721493765423,0.2211277002072297,0.023042858748432204,3.2262262306950853,0.6449128246821114,8.2365744122902,-1.4545890146512312,-0.03765240296392994,0.32430145642915204,2.50532080525882,1.3941570191949193,12.690898008757937,5.891612238621072,1.7943654262879503,10.327720409359964,-0.08583439227121373,-0.2610802969852979,-0.29608366512525436,0.013486098782673685,-0.16651332749902048,-0.0009524003883752805,2011-09-26 15:26:13.435297771,11.280532057
49.00422833785561,8.461625510118084,122.96614852330207,0.030184916170756543,0.11420085001850602,3.353016607310012,-6.064462233153401,17.34674303100083,18.160408408444912,0.012150544655219295,0.31193952809456615,-0.806397525282877,0.31184783568337354,12.37422088337763,2.4607792410582836,0.6841686307753703,9.906897480919849,-0.35770704218184984,-0.021256277486570888,-0.14512556345447447,0.05801618185437051,-0.05213777187852327,0.652025007060718,2011-09-26 15:26:13.535376127,11.380610413
49.00313069322823,8.465275522207538,125.761039252082,0.04562702778829194,-0.006419182463567045,2.8894244125199693,3.624011856174235,-23.671861191206755,-11.211170843523881,0.10944156027630667,0.6851446761379777,-1.5170259264067687,3.1765733676822245,9.468284263009284,-0.49996045896154273,-1.4980339275889838,10.910500269467818,-0.005526169940792589,-0.03387173043091301,0.22966872220253381,0.002236301806424199,0.028273282527948883,-0.6714138157535562,2011-09-26 15:26:13.645252175,11.490486461
49.00079485318834,8.46881706936088,138.8859285378001,0.05128525543682961,0.04695187452195008,3.038295013997465,-4.271907643599378,10.633116165594684,-14.545593393125563,-0.5731359771039595,-0.104927072240438,-1.9917133141689918,-0.5471455897314039,10.279391437364467,0.30575490790266224,0.8050078294865994,9.199223425144407,-0.025959351860644048,0.019115665637916262,-0.02454675468740059,-0.006801529919773092,-0.06128472725098247,-0.5691291159204409,2011-09-26 15:26:13.745212305,11.590446591
49.00512817295127,8.436094671457278,139.90926758604417,0.006524081060315455,0.01512868865546688,2.622718787538203,0.40789754457730076,34.77108753356704,15.855290427864519,-0.06406738281008822,0.2784073607564926,-1.4843292668129011,0.19849227004005068,9.906380712748717,-1.8859353813664832,-1.1008874374321984,7.692943680879602,0.04127520288118235,0.01822545928219351,0.16560279242324893,0.07294437501770674,-0.03349015239192149,-0.18517654283976867,2011-09-26 15:26:13.845197051,11.690431337
48.981858695078564,8.476019324298504,121.3530086296621,0.055868248326532796,-0.023077382450360333,3.0458818287097653,-3.0374170577188453,-17.648564989961272,7.044555702307358,0.08398273210486747,-0.9950414549273143,0.3469859727067519,8.367040273210275,9.995644427017048,1.5711719784348577,6.632294964880493,5.101731688088637,0.04602310696864042,-0.001623730071097679,0.3190700050525108,0.017740551862528216,0.07126530842464707,-0.0831619774930608,2011-09-26 15:26:13.945375579,11.790609865
48.999351682864024,8.458710059218468,120.08098789306385,0.12403340921825762,-0.05301352628253808,2.6714676805002378,1.612831112123337,-14.490721413809954,-22.12366820790843,0.008398121215676355,-0.5018830184190903,3.9289409382177505,-0.8362285199054038,10.461844869488527,2.6482572064561714,3.2604611263279377,9.044052429530254,-0.018584746670485836,-0.17545368532843694,-0.25172739349778084,0.13348771361813055,0.07921350180088235,-0.017296152622042683,2011-09-26 15:26:14.055183835,11.900418121
49.004114672763144,8.474798111729024,126.78054890592027,0.06285787038192768,0.03812046914277963,2.8412707474834957,1.850564077121598,-25.802632968259353,-7.338849678468691,0.04472675952890427,-0.08758335810379074,1.7255549566633814,0.19025626389621422,7.446094476499826,-10.435165181039883,0.3591208250240647,10.210148990918867,-0.006896500793366563,0.0909166428460716,-0.08432845531657905,0.005634056730974441,0.002736977228243033,0.25524342679802886,2011-09-26 15:26:14.155235282,12.000469568
49.01598808775934,8.425839706958829,127.08446198192787,0.005425316048099343,0.02758158159912318,3.0675194778027763,-1.1930244433557997,1.0506841806138834,7.7101213532904715,0.37772979384441263,0.12138458762164096,3.09393009542873,0.4500741560918567,8.759378704056287,-0.7757707784686061,-0.7963424061061739,11.454257002799427,-0.01055561201994896,0.07429962399481187,0.20055571589780094,0.0216869685123278,0.08681709563540599,0.01216506207678811,2011-09-26 15:26:14.265286444,12.110520730
48.999138772804486,8.459773363410706,121.92366155627404,-0.007937276362975663,0.01988284637362034,3.077716816086481,5.840632723726371,-57.99868466417521,-18.408016539933,-0.25822483940817653,-0.32680688828484555,0.9938239066355702,-0.7882658721905691,8.232572557529311,-0.46968822236833496,0.680274506526723,7.198908601196285,0.0050809857788942535,0.5746991603807663,-0.14528460516246616,-0.06871825377109897,-0.0039645543474953766,-1.218271489514364,2011-09-26 15:26:14.365186295,12.210420581
49.00637522510729,8.449972203545078,118.15329279968203,0.13125369299464895,0.0003145952487187756,2.294400552671955,2.934478469951543,-33.21787939387769,-6.735194200229968,0.2580671348483046,-2.0584316435494925,1.108490088129448,-1.790959252798381,8.443864924010986,0.6991310589081022,-1.3741210959870895,10.558790801280589,-0.07741188830713594,0.03206237333865036,-0.061043606751256495,0.29777918114273366,-0.19263060132200518,-0.15716713540107685,2011-09-26 15:26:14.465201335,12.310435621
49.00125433709766,8.426511413253367,119.18636740115079,0.0326078783590882,0.05944732156638872,2.5322650677177445,5.308291840651546,-30.055238612708546,-11.575616518243848,-0.1265798980866293,-0.11176583689456103,-11.109629910014679,-0.2260126170664947,4.256978023559224,5.46414654362175,-0.24200047436997968,9.215522370737364,-0.009436870487241383,-0.006976537275967779,-0.3621571881392489,-0.025905464856427297,0.019119057351059204,0.09670313808140689,2011-09-26 15:26:14.565209751,12.410444037
