lat,lon,alt,roll,pitch,yaw,vn,ve,vf,vl,vu,ax,ay,az,af,al,au,wx,wy,wz,wf,wl,wu,timestamp,rel_time
49.00559700522065,8.454065633436914,120.77268802665897,0.0383290429212304,0.03543761179131553,2.855469945008507,-17.62076611510053,7.7784047809676995,-12.296169549288182,-0.015410528349678527,-0.2526369638423902,-2.902189040034405,1.2013464586613432,9.201589650542886,1.9372790221069542,0.414544071840124,8.908754003563544,-0.030537237970709615,0.02851476050057674,0.13625938012858538,-0.004520574604381824,-0.03920094045971183,0.22412433032576828,2011-09-26 15:26:02.154765714,0.000000000
49.00503644163316,8.455858052572294,121.35952725010583,0.0018224219249103474,0.06686039789977906,2.896937180296107,-27.28772437023725,0.1700475595843423,18.023143533279708,-0.04396608947606003,-0.007961781025283835,0.753016616362213,2.7257715942653675,-0.055884127400473105,-1.5945164873311726,1.056873803394044,9.725085273091986,-0.07397984527905871,-0.03113847657845291,0.06698626311840662,0.04327172660043454,-0.10644544573812972,-0.07791509441678737,2011-09-26 15:26:02.254659604,0.099893890
48.99779272425276,8.492391338419337,122.75443236326232,-0.013584225363709172,0.03586576071037338,0.8768859658577226,3.2315629975266726,-10.267459123711989,6.024548374156469,-0.07987732714266081,0.16821511870152128,-1.488646820266887,0.912690247925593,9.157948326660858,-0.9922371031341575,0.6996409458529297,10.166159085212671,-0.3976395220808569,0.2018098560476207,0.01570780172931726,0.03897212188883952,0.05624283535911872,-0.07951242732900884,2011-09-26 15:26:02.354669272,0.199903558
48.973984636663225,8.461723185401256,118.75808129734472,-0.03544773902633494,0.03882893252279193,2.089924532983199,0.4528479027373568,-9.208912196413214,155.529489254196,0.019990681066745716,-0.055146237509635244,-0.30120671403047766,-0.41917225758450144,11.061408278428193,7.005476562024975,0.6900303195276,9.51808183487443,0.08278214767577644,0.024098329428528176,0.9834355054643289,-0.006887002908275623,-0.016485950787423553,-0.30435546367332983,2011-09-26 15:26:02.464709916,0.309944202
48.99938402475474,8.473867662176197,121.61941902953008,-0.02645145798571757,0.025490691812971394,3.59707741248956,-1.0818920531951912,-193.38289257001645,-46.3891267864041,-0.056198509129318466,0.5719853218717221,0.9295369227931225,0.48655903322335947,3.9340454111776975,-1.1436513532926644,0.6429970268204475,9.602766227321167,-0.11256523358174579,-0.020004585363757453,-0.12572949146665144,-0.08868693814954388,0.230486241116684,0.12204645814024183,2011-09-26 15:26:02.564723050,0.409957336
49.00600595355725,8.444746153506198,120.81126223237312,0.018876589263144377,0.08362262599400193,2.9048752350353055,1.1264814477626863,4.604519614422464,15.887947867794832,0.43548642068440124,-0.1863857230935524,-1.1973629093630807,-3.163304852885589,9.425492561832943,2.101245602352842,0.7471524095865244,9.777350516233337,0.04686114171335126,0.013917451562965477,-0.07632554195184534,-0.021782051076008432,-0.4401297928292387,-0.26722923216376365,2011-09-26 15:26:02.664904444,0.510138730
49.002473093158756,8.447423942249003,122.404555336069,0.011894259096553617,0.21473988321832146,1.2551236121497271,6.178007355589787,0.14948016889116367,-25.033891869533043,0.012498842970072418,0.11305732827425198,-2.2503196118530098,-0.7513068179000162,9.299043748602365,6.776790064742276,-1.572402430088674,9.020209323353674,-0.032355461515349224,0.079221720518072,-0.17251961995530776,0.1547115938721317,-0.0057299710293607685,0.3251116748869609,2011-09-26 15:26:02.774735684,0.619969970
49.000193686616385,8.467068442591904,117.424361843518,0.0009903426144896137,0.4921564610312423,2.899163952397276,37.879882881600395,-1.4870792639459105,28.791117375194812,0.12211097515694401,0.06999573279461539,1.2684752026317467,-0.45206252908805356,10.386429070528237,1.5770454653422232,1.3233774476524032,10.273573112163112,-0.02371486191549752,0.10581590384816254,-0.4336893027045902,-0.08728417939750127,-0.009607884369616931,0.08556095077963867,2011-09-26 15:26:02.874734600,0.719968886
49.024564125639074,8.448975200688569,127.47655007431048,-0.158556667024215,0.06850232050094095,2.133000054941777,2.943286546063378,-5.614914620180628,74.59060232140162,0.056453839882492876,0.1308406157377784,-1.5660578919174903,1.0303028876917875,8.648292046015417,-0.15988058132955463,1.4073001232447748,8.614848045670238,0.044107765617840314,0.04878573030880346,0.13781777035987416,0.024481678934965875,0.053593154961084355,-0.10125076790696369,2011-09-26 15:26:02.974729799,0.819964085
49.00510570394342,8.485721782905173,125.35209474254516,0.05143083668681593,0.056828526679637184,2.5315620642203496,0.04091380592301691,-1.7839834169851172,-5.9939819598106965,0.02148230014505487,0.3057478998917226,0.11398813016601422,-1.60326500770121,10.75533220344312,-0.18118818838209103,-0.26676817883931514,11.109028104224045,0.06228638506305047,0.0052930757979150565,0.12088876026109337,0.009627054982011551,-0.022327284518837257,0.014514055045851702,2011-09-26 15:26:03.084731430,0.929965716
49.00056968088518,8.454043680872095,122.10207624745965,0.053315237752484854,0.018929107811171523,2.850455064489664,-12.267358043135658,-1.1488515140191649,13.614115340325185,0.1074181835742771,-0.7714377268072306,1.082192800927113,0.7232464514793183,10.677095303155221,-3.574146705937335,2.553671711953912,8.705472619611793,-0.006954285901218203,0.38521466244918195,-0.05625457465686745,0.002141732956696372,-0.106786645264754,-0.1566185083094764,2011-09-26 15:26:03.184814523,1.030048809
49.002118046220325,8.460259210977984,114.93301769130748,0.08917151773615535,-0.03938929212090714,2.84557915194793,6.608991536541575,8.653077219350124,9.692950620049645,0.4839381114877651,-2.7021681756912357,-1.3367537709506596,0.031462146092677334,9.928801498616858,1.0714222037828849,2.829729940765874,10.797917163481056,-0.009618137497350819,-0.0071608771533644726,0.05525409984473994,0.050344705425586535,0.07515096005202275,0.178933411918215,2011-09-26 15:26:03.284740405,1.129974691
49.005419682481204,8.477540339752702,124.72337817067609,-0.028311790657545233,-0.006073149391935116,2.633516013886486,-2.936943356767093,6.246799475537461,34.710605262053164,0.05202876250853045,0.38337794317779816,2.8610235007132676,7.55376465472565,12.290182903418822,0.7285548432956916,0.31531110891360287,8.536309237078456,0.01716143188534842,0.004693112253718145,-0.04015331508288027,-0.07224375513089575,-0.01106003755662239,-0.2529973061149223,2011-09-26 15:26:03.394744059,1.239978345
49.000824123091036,8.472228180292362,122.57366187399633,0.03878409488693681,0.04138835460267168,2.8928360152919756,-3.268481196695368,-0.3161077695878398,-9.233884201211223,-0.0990613540971487,-0.3974755344874606,9.299053542458493,6.505650183340802,8.956291818639935,11.908513484236758,-0.27093561384476383,9.896534754506312,-0.04150638814191725,-0.11792512045947058,-0.17834306233419672,0.001754569254289956,-0.01584858134143756,0.1582008231535373,2011-09-26 15:26:03.494763979,1.339998265
49.01341525363906,8.467252747613978,117.5869361937783,-0.12201865745367943,0.037435920487789,2.4738207708314364,-6.127956525571186,37.09814304977934,73.15520639648504,0.14682955129726308,0.06741895541159265,0.1670008963834798,0.17768704167394142,10.137660288475043,-0.027291628339102307,3.3717055692266196,3.7164857121527834,0.047712817697202266,0.022187023446789397,-0.019631809032819084,0.05675316650247316,0.09166657760993269,0.30339260525729,2011-09-26 15:26:03.604810736,1.450045022
49.00238736793284,8.458123327061326,114.83397286153208,0.014511775428447216,0.039312460373870206,3.061236221428019,0.6229517318566454,-12.789454863701557,-6.10620430339512,-0.07934137625809172,0.3071842410237313,-0.3817795381295466,0.38013836319908406,10.456724521331335,-1.8200175756309176,-0.056285948498780554,9.934106748060564,0.029872221467142863,-0.28530551282035854,0.22207886200515048,0.011515046437811398,0.057630126283903314,0.016148781376017194,2011-09-26 15:26:03.704807744,1.550042030
49.00499600862107,8.443066902584388,123.34044994795856,0.016383349175547464,0.12376952682310141,3.0174445216483607,-4.169292444239856,1.462194336221632,-3.556812085787332,-0.03215050794997769,0.2528549096549747,-3.2565415378690794,-1.5060822293975984,9.358057267473585,-1.4932248000386188,-0.42022729912107876,11.466010716825721,0.3565376592506104,-0.015594206770323065,0.21250083580646476,-0.03769540914120115,-0.024666630482966325,0.12473003570962246,2011-09-26 15:26:03.804792964,1.650027250
49.004921011487085,8.465311641118268,121.31576576083586,0.06242256005863875,0.005212656628011639,2.424147700615598,-0.08634628252733317,-104.53998251880017,-6.94655466321703,0.20598374700827887,-0.6813108803605484,-2.7296406914861175,-0.39939852306770085,9.025969002931989,1.8080888349387743,-0.06768096105684074,10.40989541248112,0.05350987825558804,-0.35902193536622096,0.23038911786617808,-0.052736409611344175,0.4624670357887694,-0.08402458321853787,2011-09-26 15:26:03.904766779,1.750001065
49.00113172106787,8.45990981861248,118.86037706634718,0.015225002564431033,0.13348889788997753,2.8467121878650246,3.3792028216980454,1.3077830564101982,3.139999775603014,-0.08076891979144257,-0.355893690918576,-0.9668432377145362,-5.225716743412465,8.577063127502266,-3.413504138038845,-0.14171216555073096,9.676086268635748,0.13775340250364493,-0.02397190247911566,-0.26166768586802974,-0.037102025979520316,0.036833818877220946,-0.07608785020519386,2011-09-26 15:26:04.014787460,1.860021746
48.9992399434759,8.451342791054325,114.89570260407926,-0.031465960991481225,0.04387110509109236,3.2652144203726206,-24.965697975534137,12.618587133250346,36.38605547179832,0.06121301778928806,0.18431485355182242,0.4307351439013127,2.8550186027671436,10.988062366484705,1.8265819923685296,0.40953088734175197,8.35397308536018,0.29758641271479574,0.05943990787920339,0.21738466598579761,0.1075861021368523,0.17938643807573862,0.015005814766845657,2011-09-26 15:26:04.114758672,1.959992958
49.00005185794848,8.462997147964897,122.02240711191875,0.04501087428274638,0.04213848382720922,2.623542287208069,4.621948046047047,-2.6872232425497424,-2.506304639167103,0.06578943601900814,-0.11341039074313211,-6.379169170470189,2.626639237252466,7.220778682312146,-1.2613894465646787,0.4887039100261716,8.647640742497174,-0.03301380045553267,-0.3445274385668019,-0.018440210753565636,-0.06364159406581713,0.060398577024117044,0.10715369154815264,2011-09-26 15:26:04.224846385,2.070080671
49.00250124656179,8.447389308850878,116.96237649863274,0.04245542299855522,0.1019775104228021,3.052304057987233,-26.735129512371067,9.723674794911702,-6.714235273316557,0.19838106842917871,-0.3364470819967621,1.0237856579638112,1.5626508482430768,9.916532614705076,12.99335347502571,1.6731555709219004,10.159751449130535,0.041629354235593045,-0.10196210834617561,0.08493944454208376,-0.33661254260854934,0.029461930725344806,-0.08809260008281548,2011-09-26 15:26:04.324822405,2.170056691
48.9850048905228,8.42258763073792,119.38815709550587,0.07214144360563912,-0.03222884895212157,3.1220143861063647,2.7790708809299978,-10.552717538100174,0.599194015885605,-0.1389252596551772,-0.3725864870700376,-3.2827308372815316,1.6717682124637319,10.38881906090202,4.396876059760316,-0.3365588827745805,12.038112506839875,0.07073962787872828,0.03831615835674635,0.22509868939922367,-0.0106726845570065,-0.08441290609699235,-0.20147072023828858,2011-09-26 15:26:04.424833049,2.270067335
49.00001443151471,8.466643789507762,124.0800150534754,0.0026946833119784533,0.00414260722008768,0.9677583646692101,-2.5569339493620222,60.02514779174379,1.0956198669822055,-0.14318285377630816,0.2107904738172877,0.32385462203438253,2.519022837941479,9.606912948411848,-1.2604961355830493,1.4589950507661982,9.928275530603091,0.031128218220069503,0.01174538442687442,0.2708469737032474,0.35061820463887317,0.06069188066285291,-0.19571328866108245,2011-09-26 15:26:04.534794543,2.380028829
48.999676849263025,8.445128803134107,120.30696756566017,0.04458237835169517,0.003627287036348247,2.9785854409621133,-6.099908332084622,-4.101909413182205,40.515609382517106,-0.06934457495842125,-0.14068720433371673,-2.9787064148123883,1.2115284437391995,9.534170642811372,1.4414029508077066,3.3263429942726197,12.709573476569894,0.25473642382565925,0.021872927776505513,0.3221972551179388,-0.20006231440273042,0.02362594569945315,-0.05100006596074742,2011-09-26 15:26:04.635012818,2.480247104
49.002454475343704,8.45800434632284,120.26415922154423,0.05010314299633863,0.04528512130871555,3.020238419044952,-4.355116677531407,-6.042814810876016,36.71287339888776,0.12843496939109417,0.026185186999449658,-2.4120577079737395,0.6474702681837052,9.017884321847527,0.9266070314715836,-2.0443032089864874,8.462515708985137,0.0138418294142588,0.08202192340191782,0.369160317652563,0.62433918949206,0.106319866138799,-0.00011555105588549911,2011-09-26 15:26:04.734847577,2.580081863
49.00314935394371,8.461684261504287,119.15092907289467,0.0376443637126168,0.050355263503533074,1.0035737141042569,22.792829790035317,15.475293592186077,2.457347095202388,-0.11724319479756683,-0.8538332610992598,-4.203748367457697,0.28782460444026253,9.03629203919532,-11.523263643152653,0.12055907657579229,11.468035964241029,-0.00778003801195173,-0.08315099741122983,-0.5648814406691083,0.16795853589844875,0.07203691771822215,-0.17417920324853303,2011-09-26 15:26:04.844993221,2.690227507
49.001002438708966,8.434265194879298,119.46383786177823,0.03310935489990946,0.029558404201158885,2.930686089149635,-0.7071162119297312,9.76235877251227,-9.304906059858995,0.021042713665813922,0.2314220876164886,-0.5910575189384689,2.630747642338954,3.365981890696842,3.6195348009734776,-0.5448366719579941,10.355637608676338,-0.017985452201288495,-0.06920371342463698,-0.3610666917732842,-0.07832745944864188,-0.02310642003780436,0.14206257697263958,2011-09-26 15:26:04.944837986,2.790072272
48.99731727597133,8.452957678554224,119.69787871975223,0.05599656653892231,0.2464957335392193,3.029744071452694,2.571891050701102,-2.881631482294058,-1.0106590550747918,-0.22124185679431058,-0.2713472908207821,14.448973352789826,2.580593758950153,4.637473369189081,-0.9480746807501221,1.1032618386067563,10.794218139906425,0.11904863977570988,-0.06114407078078308,-0.08403034072384839,-0.008691078357272114,-0.03741858678568686,-0.13982205119254337,2011-09-26 15:26:05.044865826,2.890100112
49.00388747205658,8.456580791458444,117.89326733650533,0.011787821754651661,-0.02133220785879611,2.5027661204463225,-1.68099172060662,23.998420701883166,-6.339564360592498,-0.017957009733945616,-0.09818780730480177,-10.108313306622277,-4.080497177866327,11.076677445963433,2.112420905037898,-1.5159773453474796,10.310135242042637,0.012746244089974256,-0.0554763246097193,-0.0450262612482821,-0.014701572147318624,-0.09642375912379808,0.35754872832780316,2011-09-26 15:26:05.155109086,3.000343372
48.99977279522775,8.464343791163548,117.7929786278959,0.24013645013918955,0.0022512935203604645,2.9064883477493484,-1.2980578166449472,3.2527480784777785,6.648215187063085,0.1567353976954825,-0.0656317381758225,1.5917241013500811,-2.0384145123831376,11.033413198021712,-2.629101955937866,2.8462846467314784,8.971417698762297,-0.04245473298856666,-0.011487608768666308,-0.2502093741474525,0.027832018504078338,-0.0565864792396255,-0.46946852886927687,2011-09-26 15:26:05.254818913,3.100053199
48.99137153357373,8.462756073439428,122.70268480669634,0.00041755901648896435,0.05766497339139083,2.6786460555375755,3.594832205566271,99.37420388636178,12.269797652611068,0.03316886506119816,1.467048651939149,0.8678897746824341,1.1764369574095435,4.639975637432935,0.5483966094106184,-2.083017529872661,7.82631067228576,0.0003879255128019318,-0.22265068948575276,-0.174283549368261,-0.03397033224364697,0.2944128203356274,-0.11244081999263371,2011-09-26 15:26:05.354796460,3.200030746
49.00438494520563,8.480683931085625,122.49750026185129,0.006233524976214325,0.08160622556806735,2.8504001957100797,7.682518219467497,-13.708586824017075,-6.6095515053368254,0.0940452764798454,-0.4387836310429724,-4.81215065326734,-1.2322611478974754,9.740428626921357,-0.3620780332090628,0.5319090851192049,10.437249508581546,-0.058379308354339285,0.05917625966386679,0.09153575232955585,0.016978714569494718,0.06355587618645511,-0.05862585344008418,2011-09-26 15:26:05.464827597,3.310061883
49.00176163589496,8.531355812926188,119.8487776683495,0.011025166865369352,-0.036603002153930794,2.6439822074838766,-1.2148654930852638,-23.517909253287186,-16.54521280975633,0.17752599148964399,-0.3807422332723237,3.2624437198509937,1.7409350165116362,10.58528159143799,0.6901880521218272,1.1919841606438544,10.675691227916388,0.027885417701943135,0.0198271991763861,0.049979016930077516,0.06890513205380261,-0.01595087962420865,0.7587669646448142,2011-09-26 15:26:05.564842226,3.410076512
49.001058589841,8.477186810068169,117.86841484302849,0.17478873428455535,0.02170319506834205,2.9864568329628867,-6.666405431017155,-18.429099600246182,-19.264832446685883,-0.04185231937337637,0.06343837671408983,-2.6311013905420664,0.8883231971855872,11.505512041634955,-0.29128393469329716,-7.569729317335531,10.48862701290689,0.06992023326146177,-0.003410007543794406,0.5691062336305154,-0.013313496727934008,0.000622923198500657,0.027408693811043657,2011-09-26 15:26:05.675028583,3.520262869
48.99935319181132,8.36762080678766,121.85818872991025,0.040343940435036425,0.10369840177264797,2.6059566558427103,-1.600387986699274,-3.1196755050944103,-1.8025915224925808,-0.18767588603788102,-0.23216749244161433,-4.8091999864385215,-0.2779571494262882,10.674891415790203,1.9731746741637284,0.15692147337905304,9.649244939072947,0.02664873865419776,-0.0063839500107731205,-0.08588394974687541,-0.10099137854320818,0.07902376247350922,0.06838584055413349,2011-09-26 15:26:05.774845475,3.620079761
49.00189092230504,8.457147769526273,126.8074779565251,0.06535908154251621,0.02769611739868233,3.0089184801924014,-14.488701853692335,-10.2009538537309,-16.4458891453077,-0.0666849985382703,0.09003883605959226,-1.8889420506196357,-1.2060036597677493,8.12019237156796,-1.350142986765569,0.8819453454631393,9.785363781939969,0.025278495801857658,-0.046493770345908535,-0.018326146671944505,0.26441808606785344,-0.002344448256756227,0.10977926371215822,2011-09-26 15:26:05.874873172,3.720107458
49.00210010874001,8.467055606943582,110.60890358853175,0.038059669965184145,-0.011721096209371729,3.3258821979447473,18.115842571815786,-1.2686492803112326,-3.94272275313673,0.03697516486872905,-0.2809473338865519,1.810831881418247,-2.001754942153311,8.968231085863579,0.003196407112287401,0.27165465234051056,9.364050975203892,-0.07569002996742452,-0.08657313107486778,0.0032683156817183076,0.015111319793740493,0.06733555839871097,-0.18155849642125832,2011-09-26 15:26:05.974857313,3.820091599
49.00935221935468,8.398204307677485,124.25024631442912,0.06503015229952806,0.055982935344056683,2.4960631607215014,-20.592850169371463,-5.744428463105401,17.981082580587735,0.41849936519582864,0.2788037804565728,-1.759028589218149,-0.02511802526978446,9.893993187421465,4.0837972876809125,-0.39860196698565914,9.492803532220563,0.03853511927800075,0.22169507515889972,0.2262417222990059,-0.17239005079628872,-0.0027819813603542514,0.06585343109225648,2011-09-26 15:26:06.084854722,3.930089008
48.99636460509621,8.482028786460065,122.99768041953394,0.009371114660490659,0.0684535276190877,3.581856605035824,8.014819774668592,10.815414999743952,30.618473174390786,0.747181330208248,-0.9794489106413006,-0.7735252423875414,-11.528250988642645,5.281791964326004,-2.1929172140419135,0.6057018305956671,10.371044409329777,0.04698591658246791,0.05177710460613305,-0.1633080483072619,0.007627934296647499,-0.0352980244440175,-0.030618043567292228,2011-09-26 15:26:06.184905935,4.030140221
48.99918607107496,8.449807554822133,115.39035384486067,0.008264478023119706,0.1715246153959124,3.1052062313845123,-1.421097438765715,57.940949543308456,8.665870592398296,-0.20000438573889479,-0.09203407899591419,1.0374533869476,0.9461441723906883,8.827849722819561,1.303564835824495,-0.01679488516379641,7.185751793770347,0.0478002266856354,-0.14301072269200124,0.020939593550814664,0.04724652256579238,-0.008655704407175946,-0.13856336936943212,2011-09-26 15:26:06.294843886,4.140078172
48.99131750710773,8.442577729978748,121.74667182284085,0.03544059418330003,-0.02288991574924669,3.1099751425325803,-0.2874739050021877,20.01062568176396,-42.169353579966625,-0.011034739458737126,-0.06910567405649921,-0.18468248081030797,-14.176951122551516,8.49934098256106,-0.49505905479538587,0.24927631164222533,9.522324964355976,-0.18971631884475343,-0.009665614193366007,-0.09917783644586389,0.01294406839151101,-0.1290542563638068,-0.08589380053932477,2011-09-26 15:26:06.394806536,4.240040822
49.000884980789415,8.43487894765957,122.66593305584695,-0.0005102205139522024,-0.053489071139475604,2.6876853801215965,-4.043290020870026,19.49958931885417,-18.44411034337975,-0.08951224411074263,3.1552673428473126,-0.24829567465375502,0.7631425858754657,10.281569391553813,2.850295785534723,-0.15144805603486663,16.84506528446036,0.02928901224591678,0.009719818538538132,-0.1507657512175342,0.00016651440503102802,0.19132114268278338,0.20081556122181843,2011-09-26 15:26:06.494882266,4.340116552
48.996867241181604,8.462569032697322,118.6119463185636,-0.012403498829455538,0.06353306448053936,2.386763862186421,5.400364358474417,-8.176779420194023,36.14796752320582,0.08941726455262024,0.34547842752414754,1.394549474058825,9.182978493309001,11.39915029388515,1.9910433963966039,0.4327489344085401,7.781651376171619,0.021294955076308696,-0.005907583028262857,0.0019837547639495363,-0.03867618447583396,-0.0887752510601828,-0.3791552736316158,2011-09-26 15:26:06.604879735,4.450114021
49.0029254040598,8.320260103994874,120.48764242618006,0.03553255981861897,0.03528154619378026,3.2066659322036055,-2.5568538899000717,121.01612657257827,-18.78827781605664,-0.07390288010918787,0.03745149175704656,0.29884392159658657,0.5353720516329388,10.851460123085461,-2.2519003717831816,-0.10894329681593064,10.405873374106632,0.005942824793331595,-0.01867658636836235,0.1429027908397349,-0.099656102612073,-0.05713406438717139,-0.21368526367268,2011-09-26 15:26:06.704905163,4.550139449
49.01326142819609,8.466441432446164,121.86424662885914,0.0009025658481678946,0.18105965415831124,3.902796265359095,-0.2656796814623582,22.636991067611746,8.00229159043883,0.07224022150154814,0.03756562721377027,2.917128957937337,-0.8531291068505626,9.910440445453219,1.2534632079845045,-2.866117668621592,4.842784081560178,-0.03516365685919083,-0.052212982758463825,0.011995897322194516,-0.006039987475666441,-0.06002429668479019,-0.4775573397689693,2011-09-26 15:26:06.804853565,4.650087851
48.994962607385695,8.436062107703696,121.15084866977386,0.037820325222615345,-0.14627455269127002,1.7348493949047248,-5.665595777287782,17.866789113460033,-5.350672979411606,0.5633839131302467,0.19641570190180824,-1.0095631868181134,-12.66989332267284,8.37509862627103,-0.6237987722718209,7.758346850688933,1.2906551619710847,0.010987701510614603,-0.054805750608355616,0.07263568375391875,0.02569800763586873,-0.34841629924843665,0.12501217904194198,2011-09-26 15:26:06.914923161,4.760157447
49.002162683979705,8.470135837405316,108.2285811352063,-0.0648665108119248,0.007000589986605705,2.8000428613438886,2.7729796581359607,-10.575637504114319,-10.220880526172312,0.03496297258860612,0.293038828593898,-17.199497445002542,1.1249142045971625,9.572444512792678,1.1454230478573169,1.4553782468386263,10.642843587917678,-0.012592661883451577,-0.33056905758127997,0.21762213973237213,-0.11834670399887588,-0.03834294177676971,-0.008009766890758701,2011-09-26 15:26:07.014867549,4.860101835
49.00975322392097,8.459192489522378,119.45984402049648,-0.0225111001107965,0.04666396075647259,3.390652709337023,-1.1598843969689931,-78.00845840437277,-2.108588353350946,0.13234676653252386,-0.3143759094973177,-4.345230916759423,0.01372115203896812,10.783711455416832,1.3014581226748623,-2.234500011292854,10.158357873168569,0.00015346306062272023,-0.06232933624083326,-0.080447688798581,-0.36757704256285134,0.00728237324264438,0.18865345640872552,2011-09-26 15:26:07.114838524,4.960072810
49.00112579163862,8.317933715303717,127.86700029223192,0.17904621298851023,0.0654910371957103,2.760741199783136,0.7866071021768076,39.34647277096911,-2.334978780745521,-0.020803786502620297,0.041287427608414695,-1.108079043844835,-0.2819187121060278,9.187663272374557,0.26095174175405067,-0.7579389676119739,9.480234478663126,-0.2379214731560302,0.05187004606850794,0.3368666928881212,0.009759463312304161,0.08153253686160127,0.040389863546071166,2011-09-26 15:26:07.225129996,5.070364282
49.00401695366075,8.453442004720907,123.06485325878987,0.1278054682906453,-0.02875598456403434,2.818721081027063,-3.759909861027109,6.716507233329205,-0.5741117718489347,-0.15560987074465485,-0.6507643618018253,26.374124473402187,0.7138164068758124,6.882175602679266,-2.5135173957039045,-1.30723180147431,8.999700150073153,-0.028523961703968242,0.026513154955075554,-0.12141802863523468,0.044725354406114304,0.05350819872839296,0.10200058422424055,2011-09-26 15:26:07.324963984,5.170198270
48.997510959964366,8.457501681082444,121.70386967355161,0.01745267638221553,0.03900882681652036,2.687923164408584,2.531148970491648,-76.15792937071288,6.906503417866524,-0.1264086712455178,3.0576657556312314,-10.172417123879365,1.6888913626892508,9.650339141638746,-0.0223517722738496,-2.188673441121135,9.82311699041395,0.026760243486227377,0.298677308045149,0.0805898014008391,0.05201427141701004,0.03256694895476569,-0.012405026418668393,2011-09-26 15:26:07.424913233,5.270147519
49.0031080455613,8.455075573980801,128.19114455154846,-0.022152974730605467,0.03383423838329054,2.542079911335031,-27.668709058276242,-6.243645574605457,81.30379379338508,0.3316782722906476,0.48148458128096766,0.35183807727593863,-1.831927764716685,8.691236835727603,1.6341485826456505,-2.209954416629597,8.57396332571325,-0.027934795335404095,-0.0013194791597343145,0.11105801016779993,0.03601867550594209,-0.2180984302162086,-0.07749858803913699,2011-09-26 15:26:07.534904391,5.380138677
49.0011329347509,8.373843650748226,115.60568753922821,0.020730172705278983,0.07848323441818816,2.81960279001112,6.576426285665886,-8.892407811750001,-48.196277096396926,-0.06327965873251001,-0.11647537975313087,-0.9436153610412102,-1.238382140098709,10.994317266614052,-1.4532955764754043,1.2507202882665795,9.97615025168808,-0.06775567756445167,0.0407143878037219,-0.03547085992086975,-0.03562446739707416,0.05900912230362023,0.10857686176052421,2011-09-26 15:26:07.635086362,5.480320648
48.99293349327279,8.470568740538592,118.28361454540575,0.02700718970746235,0.05058833774609196,3.047981976952251,-4.930772542211072,4.824465565493678,-72.36159643470155,-0.03472385514282774,-0.37264872301756485,-7.952612775962532,1.7002899896656298,10.378029154194069,8.827148667370372,-0.9393514820865314,9.480975819195514,0.07090551524685092,0.017596987640404915,0.15984390285294597,-0.07952150434005509,0.04328555045126411,-0.25393564444916716,2011-09-26 15:26:07.744981094,5.590215380
48.999680814459566,8.38217294931484,123.22334317361758,0.017875537722489752,0.03462997140786744,2.722742332729553,-3.7807163053926924,-21.815191154491476,5.101580003752699,1.2172605126825247,-0.12143178696791306,3.4881401631612485,-0.43902410188847535,11.251021656326767,0.7342699505529063,0.9855541164584499,7.853228959532321,-0.03844364053784263,-0.006809103682691763,0.005597277353054514,-0.06853937868839606,-0.030364464097182537,0.33170224507177387,2011-09-26 15:26:07.844963118,5.690197404
48.9949072739991,8.459769722849368,123.02175634543613,0.02014772381010573,0.019671645587928027,2.8788935524436017,0.020056453605959902,17.353182475502763,30.61240316350575,-0.07745192968527935,-0.01619599343685315,8.173173741834438,-0.025106647562681328,13.028557874768973,0.044402855914945645,8.498671874227755,10.322577332395916,-0.08085999791057959,-0.04254862954756323,0.09079173741055617,-0.03751221771608875,-0.011728863992642112,0.0463150050638663,2011-09-26 15:26:07.944897548,5.790131834
48.998701773351655,8.460766580527999,121.32231190353743,0.03153095470038706,0.017626713419617832,2.744449271893395,-5.3068174787573374,-126.66972444003615,3.2943206544253045,0.13067472971746247,0.18065272795692816,0.39454739514267867,-0.573453239439029,10.964140708060325,-5.138465476129548,2.448138966310733,9.563479292024507,-0.020533312177251115,0.07538331585773424,0.006343770176289149,-0.4388282520537368,-0.013053244479447158,0.07779169405043111,2011-09-26 15:26:08.044974005,5.890208291
49.00247764496425,8.430869203044452,120.06444461989132,0.01892332847671133,0.06001680340855632,3.39259453858841,-42.37025140075539,-0.9555376924136061,-3.8115986260116053,-0.022971031760106574,0.4664988827714703,-18.532216787404426,-1.61234012232871,8.995126031433223,-1.3931790815844052,0.08083446439736422,9.093304915357066,0.04933899741258242,0.06714363430680678,0.5249287949398621,-0.046080714743131565,0.05080239838787093,0.031762996766781355,2011-09-26 15:26:08.155155276,6.000389562
49.003519424481254,8.485213462065753,119.41010495804777,0.02827110241770495,0.3185721895184416,3.1764986210368393,2.0764108746854215,44.94027339678872,1.1765437799931853,0.02864501457916383,-0.16187000166908486,-0.7912498901269857,1.4664611654687372,9.574744613117074,0.2063046052470479,0.40436869516740004,11.378810755810237,-0.010341084814399082,-0.028522294390172873,0.1324616668302291,0.04074070325114977,-0.008094963391046086,-0.22617150894135885,2011-09-26 15:26:08.254977741,6.100212027
49.00405921399532,8.417801365060967,123.10838825801359,-0.18285995968532462,-0.019359469322416722,2.8180885291783397,-1.1698932004417992,-5.932908677490394,-18.032428689640838,-0.042466170748790895,-0.1488204150029831,-2.745447343391808,16.390856356580382,8.732114880252691,-0.2182352578503009,-0.651619894514297,9.67682841057717,0.044179326463334015,-0.08162281546297716,-0.07252847879417222,0.031651082745766335,0.1101437575458246,0.10946388609951212,2011-09-26 15:26:08.354933800,6.200168086
49.00005411139825,8.452039249309559,123.77121273403962,0.03268613510822715,-0.08335989223381049,2.9779589615240987,0.7066235916480128,92.01934122386866,14.89830114959124,-0.06105670219518911,-0.4619888110987154,-2.5502687184342805,-10.382145424977445,9.92793121613644,-4.102739406888052,0.430695953316765,8.217790480678758,-0.341679195576872,-0.05458392548085568,-0.04390823281365579,-0.04221389249915981,-0.06886658331919068,0.237947284832711,2011-09-26 15:26:08.464953007,6.310187293
49.006819594355214,8.440012079174906,114.52289381469599,0.012971024702916683,-0.13875699778720937,1.3102211837913322,-5.196413681425482,7.717079741409859,7.822195314700145,0.020638345765707375,1.285752378733552,-0.5094488445769015,1.5967472644877927,10.941020028803186,3.4350545948174243,4.905870925648776,8.737553083249377,-0.016000106401397495,-0.0015531268098250748,-0.045737587091350944,-0.04787409389997601,0.10071678365929974,0.6970274830709003,2011-09-26 15:26:08.564963376,6.410197662
49.000007689904564,8.470631106691881,120.99560805194642,0.04308052910908772,0.042624115855449785,2.7116467850278583,40.6811247656833,6.381673661487147,8.694550739644363,0.06300926230283853,-0.1352990381050554,1.6071935070921706,-0.4986879506299794,18.258998235222702,-1.6976874933994621,-5.000011335849064,11.773869114253113,0.018237222645793263,0.006616380950720861,-0.5281152403012153,-0.1500695026134857,0.00484060157338596,-0.99331334467733,2011-09-26 15:26:08.675161432,6.520395718
48.9987934935393,8.473873593925363,120.58330541839516,-0.059076128238828664,0.04139131378214951,3.2179337372580656,3.366073121659801,3.1911241087392686,-11.609205450642525,0.13044033082544165,0.28751632589712006,-1.5732580329088575,0.37250447021929023,9.92916508556434,-0.8999808064277202,-3.7338162003372566,3.7188156699079187,-0.018701276060397,0.01985593715390468,0.6095927708832378,-0.07059181623098476,-0.012881513838941535,-0.06505590751499957,2011-09-26 15:26:08.774936708,6.620170994
48.9957564218102,8.45598802061844,119.04667980979107,0.04281482451064038,0.02727671066480418,2.8132832160580126,-1.684133122088824,9.214440602871791,10.25359068944871,0.17782544454842228,-0.13704814671228985,-3.5193492506966644,1.9865081684228327,10.739703551203695,6.574134005807558,-0.5476325328240607,5.50645043569883,-0.02225874073753899,-0.08623157514167105,-0.788474314752982,-0.03578176003709045,-0.11282434252615237,-0.0012442550177528939,2011-09-26 15:26:08.874941642,6.720175928
49.00503652469346,8.455939432979756,124.87889067752815,-0.04103722250719436,0.025567505593628807,2.8684546956043393,3.720074108293781,17.14648698989699,-7.088492983708772,-0.023102306333500758,0.7993671261000517,0.05417303208319996,-0.4521472105863881,3.44539983343103,0.3625146623935882,1.1820956618312948,5.107562857954125,-0.10609528028460084,0.025928742131510512,0.1271412692616843,-0.7349714225681981,-0.14545117973031577,0.04352858894968173,2011-09-26 15:26:08.984968892,6.830203178
49.004537854228076,8.453290316255506,126.10406961409075,-0.022941754850085653,0.07110276732465,2.9341420826343327,-7.847125764220819,11.1626328356857,-4.987459402014867,0.920934513548623,0.29619199056314227,-15.532886422410545,3.588446167303589,14.881134800688168,-0.6297039509104475,0.02960157181256604,15.501393579237105,0.0826358299013587,0.2629055313783348,0.07568723296049716,-0.012048817025436073,0.04497155654225799,0.006939715949839369,2011-09-26 15:26:09.084965505,6.930199791
48.999716777118685,8.480032947639002,121.49018187706767,0.007282139189973041,-0.11795272545621172,1.95450162841797,-2.8967577799624387,-36.01206843359864,1.5817687997793473,0.20537446650578337,-0.2447045798572914,-1.6327010095450705,0.14411423072952126,8.738920710298729,-2.28704244972244,-0.563706674963001,10.431633318649554,-0.010745105914346853,0.3728175329362841,0.13430500107439555,-0.03159086678651281,-0.05579884277173505,-0.0735089145793371,2011-09-26 15:26:09.185192069,7.030426355
49.00249558637162,8.27475614441089,120.07714491819604,0.05548396745567302,0.026805179151203375,2.721272140044781,-1.4497524532437218,-19.146430915597776,-5.026076465165467,0.061718645648251996,0.01632873479376047,7.455825619614089,-1.156982107698398,10.621786285482706,-0.9571413194683395,-0.6572103328061347,9.343526213770517,0.05920752798783174,0.15873659680582095,0.043366861351736875,-0.025380203002293416,-0.029184167629322934,-1.0423919925813536,2011-09-26 15:26:09.294967516,7.140201802
49.001677267470285,8.479300353805876,118.90183900620387,0.01524193830469592,0.13378827147677336,2.4023410181570624,-1.5832968566288035,-71.82393456562876,-4.808072976650408,0.09498207091852898,0.06795001710407453,-0.6532647432376728,0.4164463298710992,9.241801220843849,-1.4895395470271382,2.1960256904165707,10.373051884016414,-0.00326777911329548,0.06485535219539935,0.7137095285404007,0.012966800043000392,-0.049408360880691914,0.05686718280610111,2011-09-26 15:26:09.395011671,7.240245957
49.00150192231348,8.469283022295388,108.97826381813407,-0.028457337202323692,0.02305988838804647,4.744983202735264,6.570004724797199,20.900586165540588,5.833649166619396,0.03346320732838232,-0.6828585679382861,5.759990719880675,-1.2555167030573249,10.296860545539722,-2.9676733813878258,-1.6652147068183087,10.482458866237986,0.0033902718161571478,-0.03171241669985684,-0.017765411582140914,0.06371661078081144,-0.023194476977352732,0.13694638985230842,2011-09-26 15:26:09.504978004,7.350212290
48.99909213351873,8.480273789102897,120.97728313340701,0.14882066324268253,0.0851879391168999,1.0367651927243569,-2.5405506727735445,-6.06260399353215,-24.591624536425858,0.00042084785468818504,0.06015161667984022,-0.06143959896273454,-0.7524681678880879,1.632681104084428,1.7297171875178659,1.7918541466236932,11.385118585626687,-0.025648402484530458,-0.1528780579078416,0.025753711644865965,0.014539636457885379,0.1943085991543063,0.21641497620354458,2011-09-26 15:26:09.605037847,7.450272133
49.00020753689692,8.44530993974188,122.29685602413984,0.029465722982267784,0.0192654641569302,2.8831137956684927,0.7976601890565677,-3.4839923330835707,36.329814421165544,-0.014895853939986579,0.26917378282870513,-1.4751004555758094,-1.6977372068432752,20.259560416537234,-2.1935610576072464,2.7284687829000362,10.319988547773432,-0.03766096197210651,0.06789603894848045,0.6960617046853863,0.04909950002976095,0.1027279684291531,-0.09474102325225427,2011-09-26 15:26:09.705064922,7.550299208
49.002969686212616,8.428963985893434,123.94013021345086,0.03897670834302717,0.036358340444687894,3.160304328006288,23.605910481593074,1.0220913076194416,5.198626830745494,0.6373461727863536,2.676788597113652,0.5648921973642678,1.1637774941686976,9.598146019841225,-1.8116372700173202,0.9702033347115322,8.234123495513817,0.1185247205951718,0.04861675421075695,-0.4313776734248537,0.07599083597971583,0.02714709503916867,-0.10606347508846606,2011-09-26 15:26:09.804992739,7.650227025
49.00183943037839,8.494003447959896,119.74938336996989,-0.11886417008946368,0.011586319069919814,1.3835132243894368,6.634942412404356,9.509529540961703,-40.140682022156845,0.4698612078913816,0.39152220402029736,-0.0644928580486416,0.5728675838711501,8.905571913750062,-0.48441529778441494,6.2927780491732745,10.326425531414111,0.06259602423029452,0.04969578649270615,-0.11310329796268213,0.07411739180993163,-0.03350643027320488,0.02572764746970248,2011-09-26 15:26:09.915023489,7.760257775
49.00301897110242,8.322418393285396,121.61130074053085,0.02393927364073955,0.05185008171959884,3.1794390621740707,-2.5843386648956406,7.4448654157055625,14.266166607459422,-0.2135025849067786,0.017316403022252378,-0.7215747522266721,0.40059742212725,10.294841508505183,-2.0424398519089295,2.38535077606578,10.003956348938658,0.022631334068916424,-0.02120279452683519,0.3479710152400343,-0.08342121602305722,0.03808141147350886,-0.09654539466611568,2011-09-26 15:26:10.015047226,7.860281512
49.0007913524268,8.444390333480346,136.89816351346812,0.03834581146322176,0.008403742153979796,2.99935276882296,0.694586015055502,7.412095484927096,1.0378339521342919,-0.136453850880597,-1.1970359637551709,1.1121194190647563,0.10450940538082604,11.678841794485967,2.0828351185856744,-0.5671220712669824,9.200224304400152,-0.039336360851142095,0.05189768590366096,0.20051175116673076,0.011993428275350165,0.004708235708216423,-1.0848740380136201,2011-09-26 15:26:10.115009246,7.960243532
49.004355917910736,8.42943316355492,120.48499239957859,0.023889366765035787,0.00039305188680216485,2.8678174226116,-7.703122504532554,-4.535621714273755,18.426077131653663,-0.2915144116030099,-0.027561225316833846,-0.7815188802216585,-4.76599262428403,9.21929843114915,-0.06272033977066388,0.6480143548486901,19.508612252470236,-0.07064465188258459,0.024854027828013034,0.09708223732225658,0.3916270138898299,0.002015133936669366,-0.09385812441330718,2011-09-26 15:26:10.225054455,8.070288741
48.992248889804756,8.476829800993059,122.15968785249817,0.0468760304662848,-0.020237552167259282,3.445649869092295,5.346047646420653,17.68612537272703,39.2533975569217,-0.1297964678483346,0.6993125661203002,0.6782438561578685,1.2510805957048619,10.005864936095385,3.2295665367164315,2.1561130873510024,7.1526046998905315,-0.022241178607288147,-0.027154045864263007,-0.08760371537726377,-0.03368829310433445,0.09493016945597663,-0.31134578835626686,2011-09-26 15:26:10.325088000,8.170322286
48.99932434903951,8.375334694123298,122.97986931462056,0.02366683195671029,0.03976993945100111,2.6474196202015348,12.042538360665421,-19.32800042114702,-6.769398898410659,-0.00492253701832328,0.4287105671332604,2.48629868173896,0.8927193710401256,9.890639124680733,1.607009463977554,-0.37521153508059696,9.70824645808638,-0.021778211537641524,0.0511730494159786,0.24444765642689087,-0.0010547542716464256,-0.021866230608205885,0.008882808649601476,2011-09-26 15:26:10.425058249,8.270292535
49.0113270209702,8.402614469914955,117.80377793782057,-0.2618356132941783,0.0317205671242716,2.7226867467614295,2.3039907080586426,-21.566389284932665,14.27786673769828,-0.054148076538675344,-1.1981296785006916,-11.315737053748942,-1.256456118648461,11.44709402712588,-0.6194834460210308,-2.588310369538198,14.428281283993073,-0.5566222548165802,-0.34596170462145437,1.0180273163367293,-0.0992762867687449,0.032882060042700896,0.22765014569542927,2011-09-26 15:26:10.535035478,8.380269764
48.9957155172438,8.429968619412184,126.63884780225334,0.04775967121481342,0.07821159427309345,3.146309835329535,-2.463430306591078,17.22149650102555,-23.28075492134799,0.0714110217849839,-0.02147189043674401,1.0808477552487072,-3.6448263311169864,3.606329278528275,3.3788380558367077,-0.379364515576259,9.547691695777438,0.08293228776427951,-0.045797862332120964,-0.06046586218559345,-0.08042420869316194,0.05650360888648661,0.3873748352463535,2011-09-26 15:26:10.635244252,8.480478538
49.00433542021198,8.473283374979212,113.1346668661824,-0.01490947654150156,0.01929534348437341,2.875322198075047,-0.8285654036169784,-70.36350825422562,-0.8878078700626157,0.2528406223349962,0.15123982685532178,4.885255176437328,-1.1342942008113774,10.35807564651909,3.3551374461103585,1.2900597367372337,8.694025958994757,-0.03988095166294497,-0.04143803814425805,0.061847387120804925,-0.02949172869580287,0.00687703012069199,-0.05990369346946216,2011-09-26 15:26:10.745098845,8.590333131
48.99657002950296,8.454955919554015,120.72799143361732,-0.013915176422927611,0.07458929119213357,3.700714024879866,8.111826734186904,-25.10925884557989,-46.60232254860673,0.0825012234843818,0.1360166253391409,9.537808608621884,-2.2375312139272854,9.1177990457586,14.161566518809321,2.2480136772380104,9.690074801012319,0.09077532485065563,-0.21220448632618327,-0.04192035059745582,-0.00834887028975459,-0.042180406215342324,0.06130958505454684,2011-09-26 15:26:10.845036009,8.690270295
48.988991432508904,8.487197226021252,121.13403632493451,0.09254250117585949,0.04117273938871505,3.7408574285576264,-24.999369396308463,-0.7058968212335055,137.43832880931978,-0.11033123771513344,0.13094622267404551,-2.5906049298734275,1.45679390530133,18.295692130274702,-2.3664187257431837,-9.9365254786765,11.161890218098758,-0.044329199711422136,-0.029028361515061205,0.07291801033854492,0.07622143806237439,-0.09629204090901133,-0.12442380531243123,2011-09-26 15:26:10.945021774,8.790256060
48.98742444916844,8.456958637571931,125.48299153337942,0.03140662959144588,0.07861070636619022,2.67588789651795,-1.1018695126002402,-15.333903738621414,5.633384101750163,-0.011531856537846358,0.12488391290719417,-0.6564530497561979,12.787371743365668,10.207429228216084,-0.619652434517738,0.2780289348036827,7.440014686862758,0.10903272530175617,0.011210521999135121,0.045492825174646645,-0.12899231600878597,0.09707969857060889,-0.2244611284406314,2011-09-26 15:26:11.055080373,8.900314659
49.03755919139152,8.519010785902752,125.46568241911558,-0.21979268611754035,0.08597444034360659,2.419169193892869,-0.9969367006969962,-4.447562007982124,-8.239667790911566,-0.17577544679447155,0.027372815349771186,-0.03815040722264723,1.4087282759748267,3.234807555889521,-0.8425436029216081,-1.1902149768326789,7.887602869860388,-0.01570858848518628,0.08437936784734738,0.07972183540232193,0.04658180751275757,0.020949267043808225,0.11987461437450568,2011-09-26 15:26:11.155295391,9.000529677
49.00624834758623,8.463965957390446,119.07083436746744,0.011751295941089219,0.0356062899702323,2.872194375814176,18.155257803428388,5.88214639422378,-15.058420183379122,0.12264526818823451,0.43502879651555604,-0.35859734468798543,1.7924244693106721,8.228080351447597,7.823688363672227,-0.6833140120296931,9.451496648834839,0.041280701932322965,0.04422886445140705,0.1270282340427463,-0.005970137842281074,0.00803734123956848,-0.03243155688861045,2011-09-26 15:26:11.265091987,9.110326273
48.99937672864235,8.434714716377318,134.8098052053476,0.02649595696705237,0.010892494452645195,2.7228865986386683,1.367604183330207,14.982821493653207,8.113669175636204,0.13513140695587716,-0.07512194960925175,-2.3494587548748247,8.891124792770855,8.755073140455208,3.268236074842534,-1.735058586235629,8.490870591269417,0.03433561089824951,0.05514984990509321,-0.10668591308766437,0.07773320743666004,-0.003234822992098314,-0.28604495985840456,2011-09-26 15:26:11.365078081,9.210312367
49.00438327290596,8.679774962045443,119.34134137435647,0.03670473226913546,0.03504524951227498,2.911285049123001,-3.2895274489028026,-12.432322563965435,-36.55789083122484,-0.046157351974490564,0.8142879389124309,-1.7065421205419933,1.5284984835141435,10.742625330159292,-1.1560743907988609,0.9118240907298398,9.288384715027435,0.07575788493190631,-0.03966048522646688,0.15830263396089547,0.18330332225671273,-0.042746106797667674,-0.2410606833162832,2011-09-26 15:26:11.465120310,9.310354596
48.99720599848677,8.440079482705482,126.88188057439308,0.0019391711347061698,-0.005843399943882624,2.694649287387933,-14.855952213750093,-28.966951008614235,8.70453654944136,-0.05548222298601578,-0.3970175146646512,0.70088044070251,0.16667240957113655,9.60112543160277,-7.915908849808374,10.031414900243536,10.103739832302573,-0.06924473116148139,-0.0026709609767646115,-0.177085725139179,-0.4594911914457865,-0.07152863259826465,0.38113563814274404,2011-09-26 15:26:11.565121081,9.410355367
49.00332641692623,8.519448985036636,128.20123477333743,0.06513018019921601,0.10038368598629868,3.0660644066707743,-23.935136997681496,-35.439646219505775,-1.5507863993558688,0.045800828645033834,0.011530638318554737,0.4290428114275415,-1.300735266297994,8.811660786436628,1.317526161519357,-0.6089704728504095,8.258166181739712,0.31940766185174646,0.003149943492858744,0.17923470716446716,-0.2852910202324785,0.021559587207236493,0.038542223636797275,2011-09-26 15:26:11.675191190,9.520425476
49.01057671932435,8.449804483649583,124.60087430428761,0.005935872355816392,0.06309813237913402,4.234868015039312,-0.881476660428099,8.176542410913168,-33.037121507813396,-0.255900397934112,-0.17226908847960049,3.6961080893049294,3.912908418159602,9.999225432995429,-0.4511162989877985,-3.1488408132865167,9.32414544946189,-0.05731157363259787,0.06032183151957656,0.07609212371560396,-0.05197879018121339,-0.031712366057961225,-0.06155871336133031,2011-09-26 15:26:11.785115365,9.630349651
49.01356528502594,8.462598359123557,120.12829557377763,0.06070202845972406,0.03193132785942225,1.7911234548142345,-6.912552095847873,2.507201908610549,7.073719827694499,0.06688931877315273,0.49694578172984305,1.693083520668113,1.5660995316357964,9.971594124738129,-4.1046654007126655,0.34573234127629476,8.078217282620017,0.006787948387251307,-0.0531874204963612,-0.009086309667792218,0.002139471054324705,0.032322519772023196,-0.6752229423556768,2011-09-26 15:26:11.875098413,9.720332699
48.99787190411729,8.442191582169023,124.94868612576532,0.028616995486982016,0.06687407316905111,2.4873602021823467,-26.386215837217733,-2.644968537067134,5.83641145520726,0.06908982489210441,-3.9137457209178805,-0.5329309076631306,-0.7191550096929911,14.840868572603483,3.5540319312426303,0.12234725610517137,8.760421218232501,-0.08945677239141009,-0.02743365279467145,-0.04354924411872953,0.14621336557844056,0.0645336224243321,-0.08252069187322318,2011-09-26 15:26:11.985102387,9.830336673
49.0052692076571,8.482751370335448,145.51446210626315,0.02148791388512778,0.012195205550199841,2.544257347701025,10.13165272653027,-98.77565056901916,-60.208837100374474,0.09311243313407228,0.15690918499910897,1.2513875390378697,-0.7996556362862017,13.710044530070405,4.201901953266551,-0.23511007960249158,9.567969313102518,-0.13039298062421553,0.04452584506654753,-0.8141587498040783,-0.0066387071045986195,-0.08460553587900747,0.26715610439200815,2011-09-26 15:26:12.085117617,9.930351903
48.99904595981543,8.438938420809034,121.2410776538487,0.03658463402872145,0.028711128212660406,2.6261899398972814,-0.20172800275708314,45.48705008783232,-4.632817918086707,-0.031788315221347715,-0.03134252593741982,-2.6535530247978505,2.936564133085829,10.095052220740373,1.5806010308467604,1.4648746760862645,8.476374290905778,0.04916943790419205,0.0036039559746131066,0.004739982815688522,0.013595348937520672,-0.14766383602129,0.047111996780257306,2011-09-26 15:26:12.185183488,10.030417774
48.99865591064613,8.419314147955735,125.31795499789496,0.003995447712780147,0.04254491635459637,2.54933373460282,8.931642650614418,-28.713420667832775,13.880312154304868,-0.14262296983986913,-0.1309634296034434,-8.545532457027784,2.481256755425378,9.92185969683949,0.20720592857815412,-0.446639684273384,14.631049019620022,-0.20636073054392146,-0.01870758402088699,0.02807646099625726,-0.08095799252260363,-0.03686962700152784,-0.2591809512930877,2011-09-26 15:26:12.295124337,10.140358623
49.00104335316933,8.491504447259082,121.09288260244162,0.04694849589285359,0.05154524044558662,2.5843528547432064,-0.10711144441467552,-53.195958186241754,58.95175550615823,-0.026345890813173498,0.04197205081610098,0.578158457589633,15.79316901289765,9.73179752065584,5.702461135279,-6.072096572867679,10.583436523613818,-0.04031562687475736,-0.0036909819140556197,-0.011713711019801272,-0.0032820116500152418,0.14548511690819832,0.19042413324570118,2011-09-26 15:26:12.395091748,10.240326034
49.005678740316725,8.52148043217158,125.83560262492655,0.021659112617867675,0.03209809095310207,2.9448122282151976,3.185457728178754,-10.667166880420648,-6.451504296051608,-0.04463619656995763,-0.2959048244315512,2.5568255265383972,1.341512522134963,5.418743145580772,-0.5499229371495584,-1.1550300745671782,9.928336994603496,0.13141386596897991,-0.01665457157411217,0.11803339472014722,0.047965560530131506,-0.05094571464673645,-0.043831082886493206,2011-09-26 15:26:12.495143909,10.340378195
48.99788126159846,8.473134927141727,121.0107262054311,0.04185055873654496,0.061486214066988634,3.1529117092184147,-0.20416563237886365,2.4345924660986897,-2.91183105579552,-0.27350184141437306,0.30327424200737485,1.366524682811529,0.034199666991282046,9.969186778541657,3.358052529777172,0.9730082658863431,9.732249220233864,0.4065419636827662,0.12316967141882511,-0.06855496935969119,0.009807428852042258,-0.039060381254564853,-0.17960644540084872,2011-09-26 15:26:12.605187402,10.450421688
49.00005261717701,8.45871821549407,119.7140080353722,0.059737421009293336,0.040245509751323405,2.71770500180832,-34.38295761564047,22.658326352074834,36.820746569192266,-0.12521061869238082,-1.227806622100313,-10.965318132059735,0.8582428032568714,9.066258874051492,0.20944363110597786,0.3806005533828252,10.41412192876515,-0.024298726554870177,-0.0463678989574589,-0.1880015528915167,-0.03464142198499491,-0.04909405181918789,-0.11800473976764853,2011-09-26 15:26:12.705227973,10.550462259
49.003192000312566,8.45587048000643,133.98612516634256,0.0068527555836666,-0.006568002706889137,2.9537208868510842,9.36629436130339,18.127002425050875,-7.747141989109421,0.11505263559420516,0.2329463719132553,-0.6168688845287673,2.713088092655458,10.171849971419347,0.15243428366679146,0.6757229156818525,12.592645053258135,-0.07299200517370347,-0.016629085113021348,-0.07273568283746917,0.06251249800074025,-0.028151581484493,0.02168671905504889,2011-09-26 15:26:12.815159689,10.660393975
49.00509262232196,8.460525253576863,121.65563058224967,0.04946680611035928,-0.02656991849762369,2.373662522697243,-4.3198620898090745,23.927405247672795,2.6753514035184756,-0.18601966698846487,-0.311445526192022,-15.599795066153005,0.871410249114114,9.711404290839363,2.6791078600076874,-1.5639657078205498,11.330036363310999,0.059217524616696,0.004718226270238904,-0.015810655990663454,0.16655048339476933,-0.01461536959530019,0.20500852576506862,2011-09-26 15:26:12.915144848,10.760379134
48.994610045811235,8.476271395956418,125.89836352600828,-0.07917370276016934,-0.1377017384102279,2.6493357485545306,4.748231316765874,-12.205477258270381,13.956236539199313,-0.06655254978340167,-0.01811252074999946,5.56036671237582,3.072844931291882,10.3504241823194,1.7364494276869442,0.0355783087367469,10.719852520274776,0.06855093416727061,0.0709323974722983,-0.21104203877011643,0.01812704370725747,-0.008744520503370724,-0.11867516135585121,2011-09-26 15:26:13.025167182,10.870401468
49.00447182919245,8.471358120575905,121.18087737048938,-0.11824873798012112,-0.047845446105141035,2.4014328330738763,7.499077786068098,-6.371017570505331,-98.69691704396595,0.1433180060340492,-0.5517533245670198,18.536730955136463,1.1451824145217535,8.763881008511099,-0.17345204142504023,-0.07213455252412507,9.282701275745072,0.1869696054563047,-0.0695817843706988,-0.0084037611335674,-0.061419494456221725,-0.0804730041450936,0.0007291907158391078,2011-09-26 15:26:13.125197405,10.970431691
49.00567012315222,8.448115508963305,112.13023776403102,0.07117484057259793,0.0797096294106002,3.105672604775459,3.0304679249147135,-11.984979983241233,-11.068833680566028,0.04645502422737073,0.0726977592153272,1.514568799141953,-0.03919871472364972,9.559939422512752,-0.08574386386009891,-1.0012374728000384,10.375294744608661,0.013728845112075134,-0.04358146726706664,0.19197542934579565,-0.027810539396760803,0.07571896720467122,-0.04159756946470784,2011-09-26 15:26:13.225176184,11.070410470
49.00408961290959,8.455370327605523,123.8165908864417,0.04370347078809629,0.04723300921882835,1.51067986062024,-2.5341331880659763,-6.697211356014935,20.066779645041496,0.2159918054094834,-0.7076326296365297,2.4569264880014487,-1.1048632319620895,10.699523181121558,-0.3961392663875687,-2.3040161537443753,10.621492966517309,0.0034776234386544704,-0.06479799130094277,0.12406994793371003,-0.0079669867574922,0.23096100000070982,-0.2872607698601768,2011-09-26 15:26:13.325215694,11.170449980
49.002004874128694,8.437663982622182,119.1091968861713,0.014825324586238687,0.043512785849249225,2.7495292364027644,30.015467077011706,19.176965847442116,10.602431434742963,0.18769069091647334,0.10614971266081434,3.7266568764689687,-1.614034426544501,8.906787115111516,0.8855421081492663,3.7488573384028276,2.6853244022472724,0.01618381905321948,0.015447762999068068,0.10487918293036001,-0.02314940823056566,-0.04748822460835719,-0.09816097530505005,2011-09-26 15:26:13.435297771,11.280532057
49.00180475342944,8.470986778305528,125.04981147533368,-0.0036640901663032993,0.036838179351452664,2.9217133297313596,3.9984215169534947,-18.710964809853607,4.00076685742761,-0.4983662254325315,0.1947290308173685,1.9362314708213284,-4.113620998135158,13.658485097354628,1.4644263975376495,-1.193408365680295,8.118655285688575,-0.4594997571905457,-0.01383496324096952,0.08127633175781541,0.04731060253692797,0.0031447283578729234,-2.0284255290226385,2011-09-26 15:26:13.535376127,11.380610413
49.0001838843635,8.474228455581416,119.38064505634779,-0.21862512870586845,-0.028215066192188474,2.8601358196757274,-8.168155299299345,9.403107733487964,-7.677640507337327,0.19551846243578563,-0.19854949756835316,0.879197754573399,-2.24412385852567,10.758722851945024,2.34473953610014,-1.136147429983061,9.441591712341586,-0.07147561172732458,-0.056185057162527335,-1.0531474026470815,0.00299918141670353,-0.01331416086827919,0.011051309918855069,2011-09-26 15:26:13.645252175,11.490486461
49.002598745554955,8.465095477409943,126.93137141851408,0.04720946806458744,0.08318999577341427,3.5642585119765617,0.9773911652355425,-10.302424191469502,-1.5724591076497938,0.14571113834771726,0.21527640630936512,1.7959818468386661,-0.10160124464521231,9.009462236824024,-0.0881858003029774,0.8265042074746775,8.299169929435541,-0.011461628468577196,-0.022473518654814142,0.37849893544624497,-0.2316890627288854,0.05060787875429945,0.101663224727026,2011-09-26 15:26:13.745212305,11.590446591
49.012733860938425,8.455519163451246,120.82420887595096,-0.06355704252650597,0.05697961461400548,2.9145702456013387,7.223009073010576,-14.19398485467405,5.222245113466429,0.21381309716457395,-0.4753219754953233,4.435734580600006,2.0917903250612766,10.353571937630111,7.174921432852283,3.763519315150286,9.978973573667258,-0.013208685643528577,-0.01986677674609956,0.023691602544330725,0.01827173815369437,0.05182845301335307,-0.09147109737373708,2011-09-26 15:26:13.845197051,11.690431337
48.998376572064046,8.464740421839583,121.46513158857579,-0.08593018675159807,0.09778714470586847,2.880072047639128,10.831088466378613,-14.385760356046898,-155.33417636328792,-0.27715595666206627,2.7457721930940187,3.367715571282504,-0.17542689292077718,10.166129046397375,1.3571244987457947,-1.3656666199763823,8.309290095407917,-0.06787622152698634,0.06907007370789363,-0.3876935697906299,-0.12091568051460054,-0.011061873176143787,-0.026974868227062403,2011-09-26 15:26:13.945375579,11.790609865
48.99859502991738,8.45451606323082,122.93416439962009,0.026701209735743213,-0.1269870938376787,2.5249010401169794,2.3231082351223296,7.2136246836696385,-8.278999081422448,-0.03857255980264703,-0.1305981705493652,3.791437311234576,-1.1288364022454367,9.980782059662369,2.5731550489820947,-1.3186875246995986,9.92410710722493,0.04506090185155004,0.02340283281523832,0.05677843170735016,-0.06550913877878428,-0.05226081797632791,0.04087670193089146,2011-09-26 15:26:14.055183835,11.900418121
49.006441553881636,8.338900581370897,104.30694909094431,0.035664041029529324,0.03617835830912304,2.903786763171749,-12.021356870296719,-1.043535628202216,10.852099667067844,0.17373759739979178,-0.30533070337470963,1.2802489964283168,-0.26063639182612125,7.4992931000324505,-0.04071921676090162,4.777477939140292,9.61298211214749,-0.0023386665744821906,-0.2820160309604327,0.01550938921464031,0.27418473138338156,-0.023379715782627285,0.023909498898913906,2011-09-26 15:26:14.155235282,12.000469568
49.00162505454958,8.485306438121405,125.348620715574,0.04013213054019571,0.025209837132834638,2.715500601898372,-3.7417106926400923,-20.197689363157465,152.4868378955677,-0.04221170450658385,0.29821831129066345,-7.161439574726243,-3.653580598235969,9.207041282977011,1.714909712296201,-0.20292280979607072,10.267269777732636,-0.0018031372726830305,0.0301291157349177,1.1395991127276268,0.0043882607271500534,0.09283533520294261,0.3519362230685535,2011-09-26 15:26:14.265286444,12.110520730
49.00071500587465,8.476539575448061,121.47783518097806,-0.005059346446601165,-0.021352991895029733,2.2954950593506105,3.190766787000874,-0.2178341104917667,9.730180715526856,0.05140571062542845,0.03417081589376943,-14.949502769133314,-0.6818021428008776,12.279357817872745,2.939243870912811,-0.2904916822520853,8.311027908740352,0.059656879659455195,0.03317109763684629,0.08773598891145702,-0.06684342531040828,0.01755627081994405,0.41168210338784506,2011-09-26 15:26:14.365186295,12.210420581
48.99954559221623,8.483565852837092,121.85420425974841,0.09186202312992776,0.06479558861458966,2.7198508101261383,1.7507017830704221,-18.46175802020862,11.45776098225577,0.14193796582334284,-2.1517258817107283,-0.9745484298926925,-1.5890473080287284,22.89172236496608,1.1456065374731652,0.19810373613158164,10.072567808853389,-0.11848540391172886,0.021109306105543513,0.05157816327329145,-0.01926526971175905,0.20444948247714823,-0.2540995595976189,2011-09-26 15:26:14.465201335,12.310435621
49.00931416912712,8.430298083296513,121.44246021395651,0.03986959695152398,0.042261260299276016,2.8535612017069716,-5.132627219373152,-19.306497987389914,20.05438485087646,-0.12365452426637477,-0.06178750987118847,0.6369044312897412,5.704284540816613,9.77694052548682,1.7908831171628978,0.1805689873322967,9.0070074592006,-0.024745267754150646,-0.0390655742316496,0.2165355524104043,-0.0662861733798788,0.01493579766515015,0.10293498805772973,2011-09-26 15:26:14.565209751,12.410444037
