lat,lon,alt,roll,pitch,yaw,vn,ve,vf,vl,vu,ax,ay,az,af,al,au,wx,wy,wz,wf,wl,wu,timestamp,rel_time
49.03017615372092,8.44265301177386,117.50414271919395,0.03913291664467752,0.09251699612092404,2.5137617302886768,1.5373298925709409,2.760241483005124,5.388608910243268,-0.03508782160990789,-0.28011888864377,1.3323340284724468,0.16599088983482801,9.213996181834075,0.8746987312567172,-0.6880878548113296,8.620138387653201,0.0043169717886305786,0.025549816936169874,-0.030523426477045118,-0.021822210121847402,-0.21837259736153636,0.22789953682122335,2011-09-26 13:17:59.293761040,0.000000000
49.0329044287286,8.43520676875962,116.0423248789862,0.03663710711966407,-0.0205554986435909,2.5974680971363853,12.785991880029286,-9.240747345422154,0.6965669339577918,-0.1878756861877643,-0.2607446757937706,-1.0051597018138716,1.4514597283772275,11.938325319659274,1.783333547659399,-0.11874353423619011,4.770818959746154,0.07928164287969584,0.12679378124285345,0.22994309612880368,0.08288757077596481,0.1085118475580929,0.052584040213733696,2011-09-26 13:17:59.393600894,0.099839854
49.03345604843819,8.4485658814835,116.57450464559163,0.03026576412628524,0.022315368477498307,1.0356646173421822,6.950110107987307,3.090792248362395,-18.085077889506167,0.6459028524131349,-0.014994586201263392,2.1380380498040723,1.1930723825613918,9.148263245357601,1.896755914771088,1.113041027313083,7.834645151155078,0.051768324913271,0.044635666535641286,0.2512891725705392,0.06760887568264347,0.04432933024589791,0.06108867839712476,2011-09-26 13:17:59.503620820,0.209859780
49.03276102581126,8.441487287693972,115.63583211860008,0.02765326106427219,0.041511196528505975,1.2609024816981487,-2.335136720621734,-3.61335722303064,1.509864265995735,0.05216650898113502,-0.10945507152058992,1.28717306393107,1.7766143000817964,8.977683483304514,0.7354317175832709,-2.8064512010885165,8.466623021887832,0.020345570328209404,-0.131049760554746,0.2871327072112753,0.03874592659658983,-0.15285958310038752,0.12388682556081668,2011-09-26 13:17:59.603627580,0.309866540
49.03232591965816,8.434128671474276,119.6888271080238,0.03514200075204399,-0.0034151808645041214,2.592780451168313,-0.5020820976090019,-17.99317616049801,2.311819262607548,0.08028800825586589,-0.09633099923343937,1.1699481151992015,0.2557451208915946,14.588892620031464,1.5183045118838359,3.1751282877546143,8.27212181125951,-0.005522464883917437,-0.7625740429928518,0.04324990676892525,-0.037833246984050974,-0.011689195242254403,0.11114269713745305,2011-09-26 13:17:59.713670484,0.419909444
49.03158688007127,8.432207263329259,115.68037311111355,0.026737631358902822,0.005816354273047556,1.4428881126662307,3.2626811152330513,-6.329991023201515,-0.4096650012075038,-0.12437475204493278,-0.06392104152128505,0.21571459824685163,2.1109798335537104,8.842403684350483,-0.4767686617003887,0.475556976861112,11.615887123430202,-0.12125739674957198,-0.09310875420184897,0.15956799042522368,-0.010247465268520335,0.23268997581373257,-0.05389348197554575,2011-09-26 13:17:59.813642393,0.519881353
49.030144497231674,8.44215359482822,117.20793871612015,0.05260705223354988,0.04408317923717513,-0.5825434751464762,7.357576775821359,-7.19083572550875,-0.790170412401606,-0.2516425825384847,0.10984193632731176,1.6917318323096873,0.5980280885786247,7.32981036819688,0.25638209881215657,0.27334268211691176,7.817548697270955,-0.1647190545417048,-0.005523020525519368,0.20866568862615403,-0.03328395362654307,-0.04727050897773771,0.0894237663790479,2011-09-26 13:17:59.913621630,0.619860590
49.03106664721831,8.436581813136362,115.53918191797453,0.01928865604799912,0.020734735491331847,2.2673035335232905,1.6889683707388676,-12.193301844291508,-2.1421858601400947,0.6073212606412319,-0.07556141814219956,-1.6464903585403297,0.0214522871802989,14.232961332064168,0.1218706742526467,0.3383577472180515,9.589838576156108,0.012967991399705552,0.018939047251602732,0.21841541422789937,-0.296979377785798,1.1665120498914574,-0.039686993287042255,2011-09-26 13:18:00.023639310,0.729878270
49.03319473850182,8.481334574659627,114.43045085523596,-0.007172137028705609,0.02592330443839589,2.2925766457767014,5.471128568894933,34.37755288443927,6.181561224341987,0.7463495085538845,0.0638924229704017,-0.24061054422091557,1.331746754740812,8.910670442135284,-0.029207695459269017,1.8968914844987124,9.733881070063077,-0.04059826477464708,-0.12388817243899995,0.29934704920010524,-0.025197952843115254,-0.4684568902306874,0.040553348793532326,2011-09-26 13:18:00.123631319,0.829870279
49.03313606548658,8.435208212531968,114.17761148705621,0.04437661520146681,0.008613580837171342,4.809760620802691,-1.0533845922085412,-12.357881601925893,8.312478241648229,-0.014271381155291286,-0.5568117227455842,0.5329347985582314,-0.8485579331195312,8.899734409076078,-1.0277704921068687,2.13594716212045,8.268817158856319,-0.12171176119175109,-0.12229086830515475,0.03701241159639155,0.027553146808721632,-0.09568183002906565,0.007221958115516097,2011-09-26 13:18:00.233769345,0.940008305
49.029512881881736,8.43432067502238,113.65969383007096,-0.0042129451128639405,0.004822327767591542,2.532257795825048,1.7322281870934277,-1.675402739795973,1.9165435098854608,-0.17328967501659392,-0.5346443748777527,0.5223985931826807,-0.23357137731814182,11.499630795618963,0.5317103028833849,0.46457010920072905,9.037746471757613,-0.1631111494603975,0.002099116860607167,0.09207629862670899,-0.08335838237032253,-0.06661954720066293,0.48127365454217796,2011-09-26 13:18:00.333612586,1.039851546
49.03004692418151,8.432650924312796,111.73810812436079,-0.034945175444563464,0.03869041099041225,3.276637895068935,2.3237764758260386,1.8873083965734145,5.373885238931413,0.13139188805807442,-0.09721824925565699,-0.47043586705787527,2.219735370455298,9.926766907806778,0.40153023206882155,7.060472440141863,11.096063369938971,-0.02556222319425272,0.01807558888540002,0.16567698843496598,-0.03649221804753081,0.04061747029226026,0.06872876738868165,2011-09-26 13:18:00.433652902,1.139891862
49.03212645128569,8.442978040033147,114.44987927526972,-0.014248857699791787,-0.009198971088921874,2.925032040185728,0.868863011928132,-14.868856110150018,4.100009569381495,0.11732932767094789,-0.04227830626596478,1.343593774000404,-1.6011668756686244,5.3572501854870564,8.363879272024967,-0.9572130717458999,11.4149043834137,0.21595956618614925,0.04312528029766732,0.298541326271795,-0.06510945770976292,-0.2114369235924617,0.20518353963410937,2011-09-26 13:18:00.533595411,1.239834371
49.03269186809755,8.442473724725014,117.16374830855708,-0.0019183563017455326,-0.0187529215918213,2.461637419197052,1.9523324808417153,-4.0414107961370345,2.6208247387535435,0.4839599563971019,-0.057192952303877206,0.1919988863968813,0.3443891295848971,10.681169736462682,0.6852045237387894,1.4709074485987221,10.731840199317162,0.19031381362445673,0.10847012040942876,0.07466415049924965,0.2752056753839951,-0.1101848265027127,0.17407241476989915,2011-09-26 13:18:00.643681971,1.349920931
49.033127784519024,8.45338491626209,118.29601487638236,-0.017104225002636538,0.013381575757954674,4.2437458985127,2.4276365218130875,-2.3828719232835227,2.3421057760566826,2.9236667711648954,-1.412790329017195,-0.590710461257065,-4.5895797601929145,10.889302771893702,3.3774728779629153,-0.8223885937046918,10.769632796811097,-0.07385717408323599,0.2257868868877308,-0.03271937179014995,-0.0555184470632988,0.3321678617934186,0.08483707975001553,2011-09-26 13:18:00.743676333,1.449915293
49.03391020706931,8.428054715936833,117.20503266322072,-0.0029434489158159305,0.2176593459969922,2.143236734103424,3.6738366824142776,0.532743596783865,4.260972561849698,-0.08486679558308019,0.43982322630114457,5.742686144905884,-1.0678070498907333,10.790936083867724,-1.035419197987776,-0.7745355146173692,11.590351096522049,-0.06808327858169463,0.17837076692268022,0.013385916004468416,-0.003702640025838675,0.042525765489464434,0.0018229954830992915,2011-09-26 13:18:00.853667564,1.559906524
49.033017234785014,8.424241655586165,115.68492332933826,-0.03229809452547294,0.026664450240697742,2.910547827603795,2.4808027185302812,-0.8330396751231532,19.547425473917336,0.24008037561903298,-0.044224330028759085,-0.25710112247388517,-1.1660496766859345,9.181317086679128,0.10567801450338601,0.13534797282586902,9.43685735154382,-0.24118991751776442,0.12268183289222277,0.109441707112827,-0.03712046438230353,-0.04403502585064703,-0.0729930544052951,2011-09-26 13:18:00.953642273,1.659881233
49.03689707069625,8.431724068507847,113.91518182727164,-0.04686355132743583,0.033309172490055605,2.4836992656709467,4.286178023871824,2.5517086372967634,6.424752904580929,0.18451840536676106,-1.2428284669388818,-0.5173381047513322,-1.9206491561089227,9.687759982178305,0.3356227912287215,0.3901105941829437,8.693521988568998,-0.5786845025746786,0.12877059767414178,0.0400240010568837,-0.09283384023463662,-0.03924662099870489,0.028991995278670815,2011-09-26 13:18:01.053659923,1.759898883
49.033426972972975,8.420182781481321,112.7590225741956,0.023816177507282495,0.09532991197995909,1.8737677510800421,7.259194150845199,3.2962074145835687,5.938697415619021,0.48288767866946514,-1.0437619523624533,-1.742325573247426,-1.4603440647185948,8.89946701854954,-1.8937353213588808,0.5095944163528414,11.276681930970444,-0.010161787382091399,0.0392289744723072,0.09881093614417973,-0.07568883486348085,-0.12032167379187507,0.11799498029931024,2011-09-26 13:18:01.163694578,1.869933538
49.03327492562306,8.438660498635334,114.4534540862421,-0.010124538168106208,0.07453841128877955,2.871829786712566,5.2710320725220825,6.574678332032904,4.174623725013686,-2.136329045635123,-0.042850028331683054,-5.163784995598582,4.718857127393003,8.057442183202284,0.9521046825918508,8.060237506041005,9.81581734425496,-0.07423227737695828,-0.10585936550065136,-0.06925637136282381,0.10081255134296824,0.008405863012349697,0.019227682314258705,2011-09-26 13:18:01.263948336,1.970187296
49.03207388773841,8.440618745815458,111.5050534729948,-0.039998074387738385,0.057710450979005706,2.064928308877457,4.923952203188964,-2.3182743164770407,0.9826796753592597,-0.34787347431186855,-0.4246559879851899,-2.006314167612561,1.6276073297365214,9.147734389996431,-1.2388553602229257,1.3674076332535106,9.532412695186018,0.03277137963739217,0.040592123629861004,-0.256208429364233,0.03951554656108644,-0.22997702131301423,0.09478009144824491,2011-09-26 13:18:01.363700511,2.069939471
49.032046867706484,8.44481683390402,118.8189629811393,0.025017924076999452,0.038322731039012764,2.7207883521704375,4.744358100229223,-6.3477543416265885,10.17603909104186,0.340025811032434,-0.8223048348553958,-2.221089234896481,0.7967265564434869,7.9118468257544485,-3.9395019894407235,-0.16807874049380778,16.814972057075384,-0.0755170202174323,-0.3451832386722852,0.10292161682653848,-0.04780069999982887,-0.3917954240735132,0.037621606779376066,2011-09-26 13:18:01.473655315,2.179894275
49.032183445142294,8.484032887032367,116.5271959681933,-0.036328054318165146,-0.001056618453454059,3.4678330067738177,1.3490836923472533,-5.976613581304162,-0.20447732255872086,-0.029630462696430514,-0.6391189160247877,-0.3591605888567107,-1.1630437244029455,9.798932602321116,0.4980404024252105,0.4009298031566196,12.282879532920424,-0.10243348064677366,-0.8245966357867717,-0.2299771230343967,0.04892499788739972,0.01856336636345471,0.044849163100116274,2011-09-26 13:18:01.573726175,2.279965135
49.03169847167962,8.439330567413158,117.19327215414312,0.00594378770051384,0.22560986824230933,2.636692027796518,2.048265355635431,-35.39935042831661,1.232730946308278,0.05427987984932994,-0.25568607705593205,-0.48441744257166586,-11.73472612646831,7.524281552183107,-0.25920396241291066,-0.611275600291522,11.395893116692571,0.054884903398845844,-0.19020361803422842,0.2308867096056008,0.25516665321585014,-0.19359909279132081,0.09299401864827732,2011-09-26 13:18:01.673740857,2.379979817
49.03067317865598,8.440619989174733,115.44668509802962,0.01787145751516926,0.0059464850031659446,2.2150992105587997,4.5333616519651505,-1.486373055978265,2.3326737191807774,0.35059321545726285,1.0999982657831364,-2.546372452454666,0.5158846918287567,12.78507000619245,1.4136560204828288,-0.13151318372881182,10.882959605210685,-0.44021083423398766,-0.12078894885774308,-0.15527631384520277,0.058726139737635234,-0.05896358539129818,0.04911979106902969,2011-09-26 13:18:01.783763073,2.490002033
49.03462865980566,8.437224578997073,113.58503202453848,0.014949567062476432,-0.03384405331378687,3.404970104487016,1.7425118369109716,0.2143628004169642,7.279509234567669,0.18296562899860552,0.032100206029753525,0.14260416246181,-0.017183489457765155,10.722561343533478,0.3683480580850436,1.1466805749025593,10.570314685308231,0.10906688689010345,0.16680176103388325,0.14124657937747506,-0.0011423492889545556,-0.0831885159366544,-0.09639565103187661,2011-09-26 13:18:01.883662231,2.589901191
49.03304680683053,8.441697567264647,112.83738435357222,-0.013785151013737389,0.020627491940553556,3.2403944221756724,4.203198037770673,-2.0692689093128784,-35.66063544192525,0.3893591670501316,0.035306769765648366,0.9651451426417714,0.34072984336577256,7.216832777684425,0.14210200729452496,0.44055823005638295,8.205700363356401,-0.0791128438380546,0.0002938906618709519,-0.2215425700580207,0.07507427551305183,0.2691986959968955,-0.09093156756445796,2011-09-26 13:18:01.993810233,2.700049193
49.032918153412254,8.47302194271427,114.64384765482765,0.09068635562424401,0.023860376023580022,2.616910570131886,4.610599481598877,-5.717024842723022,7.329509371910442,-0.2590185410106243,-0.6397488667601984,-0.6655001286610966,-1.087866470355976,9.72878577122162,-1.242955491050349,-1.261976742697239,4.394104212104265,-0.038407888928412424,0.057476894154984824,-0.1306749599047656,-0.011895696856315037,-0.11300004725978485,0.08510653007728455,2011-09-26 13:18:02.093724349,2.799963309
49.037629864279936,8.426868181617536,102.7752123869676,0.01162901269398189,-0.004184172788109241,2.085447343170883,2.1577095143807234,-4.050287687916656,6.44031616304543,-0.10737465760870946,0.040002350952873196,-3.702972056306815,0.9745511761710052,8.325560216167014,0.9542074265214759,-0.9124783314187064,8.799327308405287,-0.3835097004737815,0.025135105818278002,-0.05610818610593443,0.22404902207742844,0.019315683838686135,0.16398679529634255,2011-09-26 13:18:02.193810715,2.900049675
49.03359834268766,8.435311310019271,111.42274513514153,-0.05655553297297935,-0.06336715320296453,2.7201512194426005,2.1488112350293433,-15.147833410737219,7.570537287726866,0.276132369394314,-1.1946996586241472,0.7467826526618934,0.41083230749335514,8.51261142602919,1.5015774369304054,1.9636221968464418,9.248783373621666,-0.0034465936622714993,-0.007849127137373953,0.7878859921385382,-0.04700319841016358,-0.16574742849610555,0.18425537075342902,2011-09-26 13:18:02.303750233,3.009989193
49.032024186378756,8.435504013757582,113.11448658414496,0.0004510222881549293,0.0003476675277805856,2.4202486571974617,2.7065669691723286,-4.076666571030466,-2.97802186052058,0.9373989925355045,-0.07426886517911156,-3.4969714690373315,-0.09135231113479392,10.679429253768301,1.736117671912865,1.038984928329076,6.8988917850103775,0.08708546261001983,0.09768113125126761,-0.07613409463197947,-0.12336956390923758,-0.160697634157259,-0.17602476963569896,2011-09-26 13:18:02.403670366,3.109909326
49.0340006088773,8.440335439998815,113.71846910037877,0.048067084927618874,0.011340316499991957,5.954499571791127,1.4900840973695013,1.1293378187621324,2.6187064524921415,1.2614831119316086,-0.16122723744028752,-2.307921976910217,1.207873748690081,11.96915564723928,0.3633028737526612,-0.38466780681657936,8.566122409652586,0.053755514304366425,0.08348982739183874,-0.06261880724052915,0.06894462983631686,-0.95325191964734,0.02465655173346308,2011-09-26 13:18:02.503695584,3.209934544
49.034263934861826,8.442242264710485,114.69717009939794,0.006392236712796714,-0.019335446068555112,1.8755406268751977,5.747266601046068,-48.755855383042025,5.48196925063822,0.23093187067070928,-0.07995064581757937,1.1786038170523907,-0.6881932626734331,11.990496296583725,-0.2819599545541883,0.8019015685945019,11.454165734389093,0.11590626168808903,-0.02168668866178026,-0.018662591262337852,-0.020335467964371454,-0.03552099589589408,-0.07599567321209376,2011-09-26 13:18:02.613669277,3.319908237
49.038302183432805,8.439029469226618,97.47918015205366,-0.03509345385971244,-0.0023771938928769318,2.4605250673155097,-1.1929169128335477,5.151321102418626,8.032324642868776,0.5827638852342214,-0.482056537764216,2.443620837957145,1.0945410270368878,12.657492082089998,0.3317183692833211,6.769582971238523,9.856244515891781,-0.026043083223226335,0.08351410813519326,-0.050005505104299366,0.07043171829269687,-0.07913251998462646,-0.07132353458027786,2011-09-26 13:18:02.713862335,3.420101295
49.02988610984383,8.431203876859131,116.75473392644535,-0.0004917555930895028,-0.18052489657903698,3.021693989790659,0.2088115140952267,-14.749900560992987,8.261975657795155,-1.2220149668605642,0.04069244778095704,2.1004902311589744,-3.764002985928905,9.625289795711957,1.7333984949577474,-0.726020107776945,11.936918623578633,0.020825556093659103,-0.27992002452052983,-0.011230355248928663,0.050442993151980774,0.14763635057089416,-0.07237674841278477,2011-09-26 13:18:02.813738951,3.519977911
49.033013549462446,8.437388223045295,116.13967793545196,-0.036032408937175284,0.029970583719513166,2.4195114320335307,-7.6417772674688615,-0.9193492630533062,2.7603353657624505,0.5869712361583361,0.4839938419734032,-0.44299166892085384,0.6371190582944086,10.12032985023074,0.9697152574045114,0.11463264630984689,11.004835594093452,-0.06250753879418618,0.029054048270622142,0.1369536997600616,-0.0511838675421715,0.02643544835183563,-0.08611859034716726,2011-09-26 13:18:02.923757847,3.629996807
49.032621361000785,8.438553841984016,112.9524659279737,-0.003592989771078187,-0.0008263346852029167,2.857241566446105,3.3767736445330745,-4.778609523853056,-0.5391356828167755,-0.04406731545465123,-0.05511319320504483,-0.14250097145121599,0.71066192496009,6.694956290627465,-0.02782604484476703,-0.8634522870962177,8.336074233405013,0.16039694976965313,0.04874868188864424,0.03341445752978008,-0.04226939654894812,-0.012757596112921106,-0.020455183597290642,2011-09-26 13:18:03.023799275,3.730038235
49.03300362026157,8.456184414502747,117.3922960638826,-0.0011435452151572702,0.017210227184832984,2.5242111641193783,0.3356745181531564,2.165998207570067,-20.885359321764945,-0.04005344235805165,-0.17332491573561504,1.917268383719934,1.1492340857243561,8.273471875470642,0.675081429291576,-1.7716277157856006,10.310240767422505,-0.0631659727703923,-0.1958868401244323,-0.18530704207057225,0.05137121506927336,-0.15907933217368914,-0.07879366294825317,2011-09-26 13:18:03.123703210,3.829942170
49.02815614723847,8.432609129741666,115.40590456179666,0.4232569158611396,0.02406001622502614,-0.46467337249122664,4.8750248223393235,1.7899761194624508,8.495984622229198,-0.10603230893663884,-0.25066938472935973,2.5889480506123355,-1.3170599776121157,11.334991260592195,0.8945842555691769,0.24092328571108895,9.33367308553762,-0.012368537179202029,-0.1603661986529171,0.06674973240437425,0.009195736882854041,0.06557008735497545,-0.012388983586820702,2011-09-26 13:18:03.233837510,3.940076470
49.034400477640155,8.443739464233591,114.73137529835303,0.22539295516026717,0.019562309776132186,2.821129220602718,5.127959535221551,-14.072807437488564,-1.8274535309952817,0.059746962773184656,-0.12015504902471552,-0.11346067902288604,0.3527247392534729,11.594694298767337,2.0810488937538585,-0.6367355640283947,9.60117351330148,0.12995295205830745,-0.03339206131741365,0.27809028574903455,0.06039104286648773,-0.040665524617921965,-0.12459955573067422,2011-09-26 13:18:03.343788999,4.050027959
49.02420026112612,8.444719857135027,112.90813898989998,-0.019953259281961854,0.006094981919064735,0.2337268357447262,4.798453447122075,-2.8905114406704637,23.660631032791745,1.4657266806122664,-0.26141369206125586,0.24534478234680135,1.2684845707849783,11.338697511870699,4.823879050115803,1.533741365443933,10.770112549681983,0.06531694932610474,-0.1004198399673008,0.10222980559053448,0.0045944040512243215,-0.1088114827092748,-0.0646191999505171,2011-09-26 13:18:03.443788114,4.150027074
49.03334353428565,8.435754054593941,115.23362866418081,-0.02790692350502489,-0.01454139806520439,2.5777803903790666,5.059454464564241,-10.907432616762952,11.06815872751717,-0.1308475509790531,0.06132495228975642,2.8054985130339336,-0.09244595033865,10.906239602774011,1.6356160271113893,1.5435063533481488,10.035039332775549,-0.3668989818761027,-0.20580274801169252,0.6535626204949984,0.11725560466304423,-0.41594978398058857,-0.0015503268133282427,2011-09-26 13:18:03.543834756,4.250073716
49.03288766267745,8.445248077647287,115.66706621366117,-0.0307588796550837,-0.043313709734511596,3.01227937678268,3.8141354764600024,0.6423176192479003,8.417793605023057,0.04880931461681227,0.8588958176067473,1.568137725734882,-5.423806008850223,11.577275176030351,1.4286468934390126,-0.5948460933055116,8.922303802511623,0.06492775854155303,-0.0016204596105873533,0.015483923389213054,0.004737619339819451,-0.08478980281322435,-0.33792526822481006,2011-09-26 13:18:03.643788145,4.350027105
49.03112700892747,8.434652327735138,116.30272633211484,-0.03766116959960047,0.003757313586016386,2.619273411423858,4.543032630904401,-8.906337980889667,8.845060488733058,0.20791370097992348,0.13082321134315747,0.3481650711776314,2.071340293968661,9.922697052366722,-0.0760598405648063,0.18269587604601806,12.240529353762096,0.19934314097032488,-0.32600107417960783,-0.1784949354429465,0.4086369801735417,-0.03317996762621836,-0.11025143049776384,2011-09-26 13:18:03.753848180,4.460087140
49.032862184260104,8.434454386438272,115.50919635662544,0.03089771566919477,-0.0034399250746047607,2.674293615737484,7.74224783366538,-3.7883156465672077,-13.31745375229335,0.3325541345078836,-0.36230000014395836,-0.8363049516345644,1.3082484918471047,11.040991032829291,1.1331843774876948,0.5453262284005519,10.967058290346452,-0.009170366089494427,0.1342322887674739,-0.02566162302614059,-0.19475746690070975,0.047073308151527465,0.07802163908001634,2011-09-26 13:18:03.853799048,4.560038008
49.03360120599224,8.42841895670983,116.24384588334892,-0.0050840283236295025,-0.022876612131100735,2.758912924286693,2.3477214100258905,-6.340088572698705,5.386650111040101,0.22104255496613098,-0.2837921680472757,1.2943309447374705,-0.19932244806225619,8.58361607802446,-0.9564034019857568,-5.351796595333086,10.145597713443994,-0.01847462191772399,-0.12188497542064723,0.0979642573760886,0.01864798608142633,-0.5352318615606969,0.1327903363190524,2011-09-26 13:18:03.963804761,4.670043721
49.032007741167405,8.458725255580402,115.75699781346238,0.02186420274441438,0.034528065791497746,3.0491050413939775,4.5424666067339885,3.9863539784960125,6.724941855654065,0.432504868136341,-0.11583540249262439,6.07920052184212,-0.9148467983526545,10.051349166026021,-0.4678951607951334,-0.39728243013250786,9.750724165209505,0.04606178388269752,-0.031846423602114864,-0.2018824824215777,-0.04156623305194265,0.07228204622402265,0.1804990771108063,2011-09-26 13:18:04.063841466,4.770080426
49.032585785164855,8.467252941453545,112.72402032188647,-0.059340826858665305,-0.11840570067612056,2.335730372709243,5.352229048820988,-9.728046721726653,3.549667451273805,0.09343253235016709,0.26467546353934146,0.9942443154119278,-0.645783055918733,9.368712905333483,-0.8013907621505001,1.8041488669063122,10.170345145917944,0.008708460415307307,0.021095145501995843,-0.07078832768137086,0.006170076605532529,-0.08075602239413567,-0.20027834868602407,2011-09-26 13:18:04.163824904,4.870063864
49.0318306672894,8.44192681835302,126.88300993566966,0.015219291901727909,3.272922803233824e-05,2.205561098899266,3.6279902794229706,-9.318004171597853,2.727929986629691,0.8464194760031036,0.09947492053550674,-0.7321930230591469,-8.260692473885708,12.083596552233814,-0.8685414956762966,-0.27846056312259415,7.929003155747691,0.004577659124831784,0.040924429580854606,0.0354042140490853,-0.019239371015642243,-0.010826798477332297,-0.026091817917945327,2011-09-26 13:18:04.263857596,4.970096556
49.03212594825583,8.431395506105403,116.63304091532741,0.023848604972415567,-0.004445719329645504,2.0035294617166235,1.2064256867246335,-3.8744719526788476,15.889139425308628,0.979088282543401,-0.2217251416020803,0.3991576583500988,0.4753017097123927,7.774488886195899,0.36139127726683595,1.6077207283756885,7.878922071608122,0.17206625059419017,1.0377609404193069,0.22647990567443643,0.08585660234761228,0.06784627542610587,-0.10522996764644912,2011-09-26 13:18:04.373854609,5.080093569
49.03251565964243,8.437336520452636,114.53257446119562,-0.05959885078659703,0.0027393781214325487,2.3554888268928225,-2.1645136446269575,-4.803484472510329,32.93638180074315,-3.398191006193969,-0.3784611627027261,10.1480957555433,0.5768944220866282,9.593534089775996,0.23607484340693474,0.37562417781688845,10.100755459127836,0.34688553917451453,0.05206042102374041,0.06005162981220942,-0.04742457926527127,0.5192901228058265,-0.023497953760035134,2011-09-26 13:18:04.473808813,5.180047773
49.03369826743401,8.436674717397214,113.43363675809297,0.034928576355898064,0.04131211872551221,2.5942137170426576,4.708841217160457,-10.30924751691923,-31.084699963962855,0.09089649787488274,-0.06977110608592663,-1.4950313507662496,-0.5056979976764773,11.452430027412152,7.572595995281852,1.9431724286044019,9.356224136844789,-0.01277735656152091,0.00910303502810229,0.13828689313818632,0.036097670825767536,-0.1008108036885513,0.0961203442028567,2011-09-26 13:18:04.583859281,5.290098241
49.03432638622419,8.432561315229703,113.9803607371339,-0.08407005806577283,0.022933061656051204,2.651362783685061,6.659351722470674,7.052849557486336,5.511526296357319,-0.1688191315167957,-1.168312539454582,0.7305011380028571,-0.7079295141997115,13.40079715024909,-0.015539866932606422,-0.34272611310001827,9.34838841171013,-0.044224262404754494,-0.00924259885075493,0.019932475064773622,-0.043121091267877366,-0.07952092698105061,-0.21273032882053827,2011-09-26 13:18:04.683869212,5.390108172
49.0316494858522,8.47484536561319,115.12302898470304,-0.023491473421638716,0.01613080450150279,2.0934938392957605,4.794016630913778,-0.9940161261066587,1.473123921599627,0.9747020063632056,-0.18652875654517892,-0.6816049919669629,1.2070377215354335,7.705571716907801,0.562677911106983,1.2219394453725159,10.611061154073433,-0.031216831244885272,0.057557191467229235,0.19420761858473456,-0.23870847208473917,-0.11773261023629579,0.02703980861045297,2011-09-26 13:18:04.783885407,5.490124367
49.032041402049,8.445852536928042,112.6483763140893,-0.0407082898659868,0.05126976675666968,2.837880887922481,5.27450701433155,-3.4400862116494686,11.395007769955484,-0.09115140986590241,0.22079058117291822,-0.43149474804326227,-1.4536409118032827,10.326817363327827,-0.40382630854092477,0.6291095651262479,11.086867458044704,0.026726892979253153,-0.03000265880073576,-0.04934496283531383,0.0975928950628278,-0.04285145965816254,0.1373990751967574,2011-09-26 13:18:04.893875352,5.600114312
49.03305520087142,8.436853651628333,114.9658405911567,-0.07542531525291304,0.028661695073982425,5.023836418384565,7.876759801746191,-4.844469761551136,6.69227734383892,0.37454841429647345,-0.09011486156855075,-0.618367027114157,1.6411736207312153,12.318581403694624,0.7038697733796291,0.15948185868112108,9.546751111253394,-0.024182310571727605,-0.16123542526432671,-0.6499937112616917,0.3364144495343547,-0.056352389054763946,-0.0038578248942360144,2011-09-26 13:18:04.994003896,5.700242856
49.0308800161237,8.441430218527282,113.62020085698103,0.04650093613565802,0.013616764182568936,3.80457338501703,2.6396609803622395,-1.800925521868359,8.10170224790252,0.17214370183118347,-0.4208072531839009,-1.3681300356523236,-0.42433030115050147,10.033467769286915,-0.17468724985158346,-4.308202019906389,10.436529768709992,0.005106736582614173,-0.08436759472977157,0.01320680020146181,-0.012889396358133085,-0.030424736263058555,1.1266785267916388,2011-09-26 13:18:05.093978157,5.800217117
49.03280680055901,8.438618304059762,129.196966909471,-0.051334565797894145,-0.04965934756371242,3.6073134828111533,2.0702039086349333,-7.73715438306677,11.937368498788565,0.23736893360535127,-0.09832449591312077,-1.4594543238665008,0.8427589780347835,9.84787568546062,-0.12884486206689263,-2.0506924496807097,9.234562449669012,0.021687555388546217,-0.0025697203256242543,0.060704233220509926,0.05899795944736565,0.38780061477315897,0.28778332317980737,2011-09-26 13:18:05.204001216,5.910240176
49.03209487617627,8.448567925742676,113.41354114591968,0.001540538113469458,0.032459547550697146,2.2161442020497364,3.91487185831808,-2.960820820890343,6.856672400167748,0.17471356719670683,0.007814687916752203,0.5157950729929499,1.5952157882507199,16.25292960228196,-0.9409363889606812,0.13209883946727113,10.64453977780191,-0.31324154210145355,-0.028043549463639204,0.0056754888801310854,-0.44920645938493614,-0.0721084042959228,0.03315669666774194,2011-09-26 13:18:05.303844698,6.010083658
49.03377470177938,8.397429365233583,113.53746791189984,0.18358474933368726,-0.010876066282780606,2.1530682700281725,-0.86948829901685,-9.935021552437645,9.741632416534916,0.9870803181615055,-0.23755840496316818,-0.4705752044971737,0.22948593795644676,13.651278335269177,-0.32978049310286006,-4.397353293342333,5.252120758877229,0.07733978119342291,-0.0017727143574421227,0.15398684261456747,-0.03516936793105928,-0.1715099465172469,-0.004234377516071343,2011-09-26 13:18:05.403814787,6.110053747
49.035751138777826,8.440687930404229,114.51269059381002,-0.14562774917428675,-0.034781315790069205,2.683137926495732,5.444054752249598,-4.024090818575887,13.763565172031383,0.6640980231479509,0.3073666144189955,1.7048184180908927,1.5861755995180216,7.883462435413573,-0.7781970951237317,1.5652561093767114,9.246921806520566,-0.030606019923422892,0.13094368101289225,0.037851863506980436,0.181596715977243,0.020114104424204055,0.5064801268321754,2011-09-26 13:18:05.513837781,6.220076741
49.03285558072285,8.439653109191038,102.99654337207659,-0.14689517851873762,0.19627771012032696,2.2489369077706862,5.094686602327936,-15.678696303233487,6.104304359479023,0.3563214107799143,-0.002333305415190188,0.25578977999943797,-8.336436159957072,17.96637466391825,0.03933808637669378,0.32034394880549544,9.007963817647402,0.046550725094338816,0.7337648790113267,0.02188097963763657,0.3335679541183132,-0.02224982807091068,0.08947824832834225,2011-09-26 13:18:05.613806946,6.320045906
49.031951369604975,8.434821052050296,115.46354916093492,0.002807508972545017,-0.15029822888727626,2.398843935648061,3.7055995994758013,-9.001318665267009,1.6075462625534405,0.3545729944798532,-0.422342964039499,9.086661887248862,-0.3174675526123101,12.589253434711933,-0.8374983693254044,-0.14829293658025489,9.241880134845283,0.055036950569091955,0.16264078637555418,0.8743606873200409,-0.09976374015538449,0.001469836282439893,0.39803022885604555,2011-09-26 13:18:05.723961700,6.430200660
49.035404189141474,8.413161291223691,114.54153440888005,0.0042449984782970355,0.014041689150020312,3.4239924918463256,3.3190943914112823,7.341258406591801,-13.396109145125148,0.12956253649989016,0.33201005163864983,-0.8851174866466853,1.6649063531506976,8.851921385891412,-0.1796315333015907,0.32789577665743586,9.79622167890427,-0.004865159852931557,0.19519347051854744,0.26151892639748614,-0.07861637978903575,0.09658775764766814,0.13665352083271293,2011-09-26 13:18:05.823879725,6.530118685
49.032936176428905,8.406351404553241,113.86402531157223,0.009698015783757612,-2.9706674400505062e-05,1.773657370752795,0.2255755322558941,-2.1495091423484767,25.56188135020211,0.19001474676204572,0.1256612749317807,-2.7690287305060832,2.4373365383224974,8.878900220087015,-1.9373380917502765,0.029965815652891803,8.64377063079893,-0.008852150461104576,0.08105741156392236,-0.07557109758755105,-0.08225121291969421,0.41973158566103264,-0.20970657572824297,2011-09-26 13:18:05.923851020,6.630089980
49.03332907369818,8.437091315669862,121.4308952830646,0.041970563239620985,0.015728752482723606,2.8831535019426893,1.1946038241935617,-6.47023446743789,11.34874161829397,-0.0718880436583451,-0.03555250417145285,-0.3834913484877478,1.5881622156590112,1.325879425331138,-0.4414326427026193,-5.335298848550338,8.096104232713603,0.06643755098622912,0.17310611924291947,0.16773069800540452,0.10825449768728165,0.25782844152602474,0.10669740824127548,2011-09-26 13:18:06.033827217,6.740066177
49.03395127357185,8.438476710680497,115.12399714008497,-0.040974930986598726,0.025108180755319447,2.7768557872675035,-1.058461348193715,-9.123754054309398,2.30418411002071,0.020156488774469225,-0.12308343144351694,-0.7746596224429081,-3.464503914635973,10.17754842429504,0.74380772886502,0.5371708193855977,10.910217084598976,0.046119459420316186,0.015312711738301905,-0.060989494803804306,0.04374801624378974,0.012594533442384287,0.1887350389367993,2011-09-26 13:18:06.133878427,6.840117387
49.03314733086833,8.44280543428802,115.01183310048162,0.05381680876621661,-0.006815795187880185,2.0724066230908695,1.799572431032056,-2.1290877188779906,11.288713947086215,2.447361788975659,-1.3052213756843338,1.4613294847478728,0.4853398028225659,7.761223836281866,0.7978631831737679,-0.4264216273972592,10.361749412198977,0.033330474541394935,-0.039634760637194365,0.3073924666662918,-0.0561242069074743,0.0230549183961609,0.1778015223398139,2011-09-26 13:18:06.234030462,6.940269422
49.03232387700336,8.43980824498462,114.09535947191407,-0.014987547149054615,-0.02582243448621431,2.6983673927908782,3.0769433870159877,0.48767663632090663,2.5223258897713476,0.13728061137222078,-0.25743881859003803,2.9210568972308586,0.63786540284908,9.912377401256185,-0.5470138413053056,0.541792233587935,10.002522562373205,0.17673917747185974,-0.02204729825013528,0.36263495810772284,0.0767161470583213,0.01645456820565603,-0.12298110397334541,2011-09-26 13:18:06.343944930,7.050183890
49.02986383593214,8.437609958059952,117.73416263792487,-0.04696965376797071,0.012582094546732682,2.8763618650161007,1.7720104024654013,-3.891212002136057,8.524518980379156,-0.2089953744065502,-0.4220805603631,0.1122726128804189,-6.083300443910588,12.599228876899076,0.006973662511931766,0.8776952698790825,11.760290183849758,-0.6305259694900696,0.1435021766126777,0.10572940043442484,0.005090274810878332,0.04056809002023558,-0.326709130979211,2011-09-26 13:18:06.443922279,7.150161239
49.03153634617537,8.475076262704222,114.71663107523494,0.2589746781442202,-0.0029178864065555615,0.15355524399870912,-8.007903877842704,-8.956093531590621,5.1726958418489675,-0.30256013780336666,0.6568379157548351,-0.37842822898876244,0.8910116202022826,9.215911144739085,0.16342866563916647,4.088960294917183,8.075790032608824,-0.05572713915338296,0.10854051259178554,0.04958947399153356,0.11468139903035413,-0.06790756673519806,0.07735128098331462,2011-09-26 13:18:06.543938412,7.250177372
49.03298044982636,8.438467723830367,115.51303381583813,-0.0029874177978564675,-0.09597933664273602,3.4067166042355934,4.0297180051598165,1.1169326262296675,6.43939814822479,0.05138792893958693,-0.3882414680151455,-6.012213039965725,-0.8502882350931984,8.208100443434764,-0.34569244009159783,-1.0419063994463769,11.950034363769916,-0.0831235154487103,0.026113698185066293,0.02689336977075872,-0.042914749436673755,-0.16938684567143736,0.006618252629130822,2011-09-26 13:18:06.653896495,7.360135455
49.033332278972786,8.440094695627149,115.57412121599491,0.022041477323660207,-0.030485075501516138,3.034816818245648,0.8540290596379334,-1.7543931885602229,5.062467980907034,0.4469881660220447,-0.16619618149250254,1.9112748464598015,-0.41686567516727663,13.5257092281918,-0.10707593916869579,2.146308947984875,10.418902580121067,0.05909298819147775,-0.039759085621386296,-0.04433233867135378,0.06163032902452044,-0.06947600787358994,0.10736455343651632,2011-09-26 13:18:06.753917146,7.460156106
49.03705267323318,8.434532548974584,113.8859179872043,0.006975499299311981,0.03799296854465335,1.8442276056371854,3.0597006459119926,-3.8360771546898276,1.7736936087619224,0.39485047395372497,-0.38302145736361687,-0.7789396806363231,-0.07882097600151405,9.590550818825756,-0.0028867633838288165,3.865912360824036,10.952138190242916,-0.01973071735337119,0.15720207475315018,0.002471509223839763,-0.01484795190914433,0.029560838438454574,0.1792120500102404,2011-09-26 13:18:06.863938535,7.570177495
49.032333263289466,8.430763766434723,114.3619447684177,-0.011589160402558495,-0.000130535279406499,3.099407920513258,3.6658510607815917,-4.305085383816159,2.1244966146266586,0.668822791903289,0.025720116284971464,1.661747709620487,1.147080256158116,9.672825532014919,1.1258352265555622,1.508044264267199,9.635947142835892,0.05916193869972737,-0.1876325900250725,0.031402470901980825,0.006938102762429494,0.10415921864077772,0.09552909582978666,2011-09-26 13:18:06.963923135,7.670162095
49.03218346509709,8.438665039018156,111.25018728451369,0.0354683298304062,0.02276535611966049,2.884766679747432,2.8149413070731493,-12.977678857884943,7.3815101510713355,0.10262661531848291,-0.021595158458675656,0.645522290805891,1.039157049002663,9.728378068454306,0.6168037157381433,4.530475012459066,8.793164688357749,-0.0562430086476797,0.0663350921758418,0.16831386294854103,-0.023479363277439165,0.7405022372022604,0.07634568245589124,2011-09-26 13:18:07.063984820,7.770223780
49.03144454854896,8.439495404790566,115.463325354556,0.015241302021760713,0.038820184699897835,2.8648364640807493,-4.615980624125503,-1.4289813642570612,2.2860206262780762,0.00725030257472048,1.3545288662230912,1.0980235703767998,1.7467773775047597,6.064332449208722,0.46181484216394686,1.3879239232478737,8.726794481202678,-0.023114004019987117,-0.014213823324416553,0.025349275903198576,0.08261872620220578,0.11925520320160517,0.022673594390559854,2011-09-26 13:18:07.173929175,7.880168135
49.032161252031685,8.434661785752889,113.7644991258021,-0.048768070539414496,-0.16805227579744403,4.5793638537831445,0.37717132069449955,-7.065068207223632,12.03281983320155,0.3055921049689534,0.051583927106919045,0.6397110314205422,0.29259832478808834,8.988227683568285,-1.7225858411897939,-0.20601994857021955,9.933857988100836,-0.0023852844615603764,0.1109909769176071,-0.10285151385507522,0.014466291620795595,-0.23219404463388651,0.10270650387167678,2011-09-26 13:18:07.273981178,7.980220138
49.02793137610302,8.438912199299478,112.57526731732338,0.02358905656423628,0.015327004772746951,3.458511743688112,1.9105913202704958,-9.786781204434568,6.094896125200268,0.49837767034894664,-0.031753974616064246,-0.7919841877100302,-1.193081491210478,10.570081065259062,0.05621811293053339,-4.406351825041201,10.36121362359169,0.02600198558127371,-0.08130723425065112,0.32354750033307667,-0.4547474545009133,-0.07537496674399104,0.06486979789603327,2011-09-26 13:18:07.373973062,8.080212022
49.03273000011024,8.439806108118976,118.0234758495323,0.0027291721120330965,-0.03134717633487181,3.0709448377372492,3.8067366216101846,-23.735902695517122,6.89085656814741,0.2633869945485676,-0.4470034324578721,0.6873856729686951,0.7064480992173319,9.719080790649233,0.39674520582079126,1.3012850865503105,11.720200015720403,0.1876136644470891,0.03263696533127465,0.19774113616909028,0.026267949460093233,-0.12887696138586593,0.22917800704664626,2011-09-26 13:18:07.483957158,8.190196118
49.03388539381425,8.438058228836098,117.05733609003357,0.016953862633497466,0.048080893259979926,2.3667533225968205,0.17359951029337317,-15.252680289620258,5.41670841136448,0.19982759108656215,-0.10629465614301799,-4.403490788989026,0.5066261519284069,10.497992686550093,0.7426882616708418,1.0595216141818729,18.189143087633074,-0.0039029575396594147,0.1434371684478798,0.11637318717642549,0.0653844626727591,0.3415982480587672,0.1407570529204356,2011-09-26 13:18:07.583952411,8.290191371
49.030969560826385,8.438494779053897,128.0463288427491,0.0837007580629343,0.026326589621828406,2.506771993204309,4.423484059449821,-1.4346422212254915,22.575985244168184,0.11118567435486822,-0.23386016257078202,1.362423563252063,0.5424886586933476,11.620376034215257,0.20101050125537245,0.7808059861821675,12.437980821655415,0.0023931860117086742,0.122697920903852,0.4085317545132956,0.08492472325072686,-0.1722583709219215,0.30312039697014276,2011-09-26 13:18:07.683957555,8.390196515
49.03309783987009,8.437976204440861,115.44578383182571,0.028816126882877748,-0.02449032922563478,3.1654334599601786,2.1860511214247915,-10.896143720879417,-0.09977775837749991,0.3087980013068425,-1.0374481023206659,0.10814822330227705,2.298907587697343,7.265477593508621,0.602077340791848,-1.617478627305704,11.41620492859416,0.05375786467017084,0.04228681962426946,0.05972402479112479,-0.5236494328588683,-0.10804080903859772,0.10423978449636181,2011-09-26 13:18:07.794061162,8.500300122
49.031527049637646,8.43032880234998,115.06727734197331,0.004628253814515863,0.021029335166671142,1.603125416447191,2.4777143649428344,-1.20351717640614,9.07774884095885,0.058181683092136185,-0.9957054275718852,-0.518833395192901,-0.29407095550823525,9.22045413767064,1.012455352245796,0.3652013418617046,9.756280925389934,0.12096556748907396,0.6377110031502673,0.09284888099953978,0.07742548355369207,-0.006722687812996519,1.8166167887930156,2011-09-26 13:18:07.894142331,8.600381291
49.03246473288262,8.436520683515056,113.59571293525633,0.005986183212413159,-0.00236380986062343,3.3928418464075834,-17.223746207831034,-14.22351283162129,7.521510188740758,0.20284675360701504,-0.130892350858529,-1.407024487372284,6.560539100998366,13.632767810830906,-0.805077401422539,-0.3789318264696814,3.948289911569132,0.06129136652959542,0.005085234472050514,-0.08781191518299043,0.1653308587359358,0.27407882724951566,-0.20738737815821834,2011-09-26 13:18:08.003931657,8.710170617
49.03223983735746,8.447935889316602,111.4273980930632,0.1598607561055344,-0.005181140967887288,2.296380465763013,0.6540233510146571,3.299686702585623,10.995564393646346,-0.8470693389897753,0.1796278865437971,3.069763747837569,1.0368910137372356,8.700476286909973,-1.1845659266453437,0.8324304165999092,14.948040038300428,-0.04758510412840705,0.713466850485154,0.013241350859138537,-0.04682707549700173,0.25775795350130953,0.4144360081026413,2011-09-26 13:18:08.104024942,8.810263902
49.03230314187705,8.439940977164326,112.6588878352977,0.056557734182897314,0.023260920549756328,-0.12628691147682458,3.0921549907615486,-5.703017445750706,28.944874390478446,0.6894278059708474,-0.10659457519982682,0.406470278141695,0.8620925013291794,9.02808388329048,0.8700820217495655,6.875409554073451,10.427246066059828,0.0010692134594319572,0.39202929840398093,-0.10214136748472386,0.014516041990122519,-0.06855204888822221,0.3384786698987852,2011-09-26 13:18:08.204200459,8.910439419
49.03188014089625,8.430474648464282,117.06447900075685,0.048887691813042256,0.018575858633495358,3.1508035381658535,2.175030492448591,-4.778597651820211,2.4592109647317955,0.8600931386218603,-0.05721887562017891,2.879097737384433,2.8069968689423654,10.997066645223263,0.6490501804572516,-0.362007904123674,9.932004985209169,-0.5680520961113582,0.022850554058554403,-0.0023859609510833296,-0.08450938205229461,-0.723967589536236,-0.2236636944106034,2011-09-26 13:18:08.313998338,9.020237298
49.03208463240805,8.44230286555698,113.79327285240242,-0.008103975783596534,-0.04274235118795957,3.228680299019124,-1.212764753189798,-3.4971749631959077,-17.60075583141806,0.08412992326446855,0.06544071577922492,0.06224963135497116,1.0313740456473535,9.057701852918354,0.8958689270836477,2.369607760266203,9.641313669376801,0.02174917416974963,0.09799924327540718,-0.09695712846911991,0.014948797063780927,0.04790111395216558,0.04221405222089717,2011-09-26 13:18:08.413972294,9.120211254
49.030057785816346,8.438467224339947,118.91794855423862,0.008745461421956563,0.02069178949196613,2.230120243219968,-2.807264255563055,-4.42951672598911,-1.2763458738329412,0.14807908185778285,0.07255601367304136,0.41667186679192464,-12.132817760032758,9.815079027197562,0.3364961714060809,0.6374954709187787,9.66001819309292,-0.17693054390020715,-0.37627748334839395,0.05402252560605948,-0.01819315906226615,0.27789668306621274,0.1540414995345924,2011-09-26 13:18:08.513976808,9.220215768
49.03310968398287,8.445665120411347,114.54949655304422,0.027896193966755623,0.004643479837386806,3.558963675961535,2.927910084549002,-8.775828783071454,-30.25783104168237,0.5913315964220075,-0.17743173130821563,1.1973731366462825,2.8837182744210366,13.596341158416784,-0.1284500210976957,0.917986714811375,10.275442757660784,-0.016612670014620932,0.03827321219733641,-0.013023455365939345,-0.022503609108208967,0.05169084519893484,0.06034119433109543,2011-09-26 13:18:08.624043380,9.330282340
49.03672178988058,8.425218452320525,116.77816077502496,-0.041457160792731554,-0.021155431676955792,2.5711240661996726,2.502183629797944,-12.1395152305959,1.3073518541131506,-0.43576788731238847,-0.07095113713066116,0.2365352131048245,-0.4102434488817478,9.162839847639503,0.45921226557087724,0.3528063330683544,11.539679843714495,-0.3978589143664779,0.17268846241321809,-0.06554975090728625,-0.12697875818740934,-0.02302321844903942,0.09319138479856257,2011-09-26 13:18:08.724085724,9.430324684
49.03612167580891,8.434928009077295,109.70890305671595,-0.011987896182915424,-0.006849689917640227,0.6936973070896197,3.5988777297659222,-10.37080899328026,3.5943645801872863,0.23431726021621285,-0.07594404534144154,0.2761472001986392,-0.810563350818726,20.042911104297332,0.4196590340738076,0.648231435600341,10.614679555001361,-0.025926804491743876,0.22781596393731915,-0.14223360320227396,0.12953728171062306,-0.11897666447389499,-0.11973248234524266,2011-09-26 13:18:08.824058591,9.530297551
49.03265685988626,8.4404531495595,114.0776903841445,0.017275198479065276,0.03950432851177671,1.6432979023340395,2.4702921287939748,15.180240106275232,-2.4934899252980367,0.08878058026334729,-0.13629682862803089,-0.5580955798463468,-2.1610231194237315,7.898973742549013,0.5594139431563909,-1.7298682364267175,4.732535848825417,-0.03754898285592974,-0.01947513940107551,-0.06750389332109254,-0.024204474467891823,-0.1812123989286359,-0.024684011530854075,2011-09-26 13:18:08.933995195,9.640234155
49.03227289022744,8.439739878071986,113.48740905921541,-0.04167508895143545,-0.01718057577640559,2.0073713035382146,9.103348590967315,-9.3561953775504,6.9554318267854365,0.1010637916110813,-0.23438266797868904,1.1926797172823234,7.110267553156708,11.391439689196709,0.5168920029666666,6.022003264195709,10.949410234614856,-0.026769520983117183,-0.4750069963692346,-0.02942480880017657,-0.006630296951285067,0.05234699765109069,0.21049064183907945,2011-09-26 13:18:09.033943766,9.740182726
49.03190079843042,8.442221234771573,120.11323509651274,0.059710509485798154,0.0036544740201107234,3.0799700542046042,2.1693193472859633,-8.808479937801904,6.934893415865568,0.341310396372155,0.04560791150296381,-1.9656178531076376,-2.2899584730567955,8.86467248508806,-0.6273927385656103,-0.9169212197673974,9.877783148012169,-0.009861493573556954,-0.12073259494312906,0.909530653536951,0.03323431311921386,-0.21860985789699905,-0.09593364206817334,2011-09-26 13:18:09.144014546,9.850253506
49.03341405504493,8.481340830590872,114.60106893939721,-0.008265796489548406,0.0036750777753577143,4.889235932267936,1.809826324245675,-13.529905171954066,15.095359853001227,0.3656907845445438,-0.04009416262827224,2.5501679557510437,-0.8279696371726188,9.340043772042483,-1.9532932956468465,0.22403935088730975,7.083828804696922,0.015690090404655452,-0.37903634205475106,0.00443715708983792,-0.03514372172949424,0.2832498839643906,-0.03379406318431029,2011-09-26 13:18:09.244213231,9.950452191
49.03260340237137,8.439346351046936,102.33717267486816,-0.0664502008110278,-0.034764998666291874,3.137802321582737,2.262439368738989,-10.688803405073077,6.987661389911794,-0.2455721224941761,-0.03593011927996502,1.7261783958950063,-2.8091185962254936,6.8192328705769985,-0.6482060672018161,-8.235316362836217,10.973382788202777,-0.06469557002155805,-0.0047011748376079455,-0.12302421355451366,-0.04527206828032131,0.012239765878733096,-0.23576339424520448,2011-09-26 13:18:09.344041127,10.050280087
49.03283639607686,8.420875845244376,120.85155248208233,0.0011546873334688304,0.3146809496528882,2.1501832444214672,0.7806784312744741,0.6342311979456134,5.65956235811508,2.955638793155289,-1.163762514257288,-0.41938300596990596,-0.7383237391622416,8.371940328256402,-1.129538077805734,4.449310285744077,8.657080783495537,0.0756687106233091,-0.024090560904759688,-0.03517697667406837,0.22878844798744477,0.01101345791394553,-0.022285907688431066,2011-09-26 13:18:09.453953534,10.160192494
49.03155845709271,8.444413820691047,114.02920948750298,-0.014455547814135711,-0.012325785688370696,-2.7077492132689422,-4.829884446709987,2.4932148850564655,9.527489049156863,-0.45981777342281616,-0.38684819750599586,-0.45434144591983594,-0.9634751288022815,8.469872013278632,-0.5039714627363068,-0.5910431027938005,13.097198214374515,-0.028915558576933315,0.003607269730501698,-0.07263022031776253,-0.3907209714274404,0.0422138885455686,0.028390513316685326,2011-09-26 13:18:09.554071270,10.260310230
49.03236408771274,8.426199303627847,111.94709882845174,-0.02844885265157367,0.011018420596285744,2.824636497618738,-0.1234392409690368,-5.496742592972975,2.720788933014827,0.18850507202947733,-0.1013611428444027,-1.4213261046473735,-0.15480027748375041,12.962166216524786,0.4376343529723214,0.9877097029333112,9.833583025152382,-0.014242253249008689,0.3155388320467762,-0.06727641591808196,-0.10805040477259643,-0.06767695505545972,-0.12679967699712735,2011-09-26 13:18:09.664080363,10.370319323
49.03242890419981,8.435928025956848,110.4798097715583,0.01192228576976689,0.023587808840869154,2.996215142561316,-0.9456232511572937,-2.805906240901253,10.279884858056159,-0.09513722179062638,-0.312192787632088,-0.2424201417811093,-0.3847220658854002,9.275646410745425,0.6176922676357216,1.1812069689784284,8.612724929357473,-0.06672533358259217,-0.024049333247798406,-0.04308916450294811,-0.0005658690644617867,0.05401082027436025,0.12199036664292322,2011-09-26 13:18:09.764108368,10.470347328
49.033565751302305,8.439314717217412,115.25156377029315,-0.29685976302134215,-0.23334883650321134,6.252197578007145,4.063447121218415,-12.144618071374833,4.1276410000880155,0.0001638685798422551,-0.16134346328076932,2.0225781327752923,1.4380568077377456,8.72287068651559,-1.0437508065896655,0.6841031200924259,7.261065184111201,-0.10306136385481333,-0.10029481245352223,-0.031054217856175743,0.13764674637434252,-0.004965052306929579,0.0421382498296711,2011-09-26 13:18:09.863996931,10.570235891
49.03209343344417,8.437820004681862,114.71380531399332,-0.0025671406741197937,0.05430505458515737,2.509395660836349,3.9694387099510333,-1.0974178172499114,14.810613808216218,0.3322935323455479,-0.49860509743989706,-1.6266209183880462,-1.6389999008651701,8.427500463987494,-0.7785941734141744,1.4295465356317913,7.879830085282311,-0.10339616106572078,0.1267587741485955,0.04529997278798787,-0.01746118187928077,0.7120916446391906,-0.852100252550433,2011-09-26 13:18:09.964015512,10.670254472
49.03246814722082,8.442982491398682,117.2602897849842,0.02606687415727961,-0.07279120098847026,2.3530520439536464,3.878493431402479,59.05250924034417,47.836821632921165,0.34697246015449357,-0.30683152793407625,-1.7587435653119299,1.8120532292035882,10.28265973828557,1.2862342946849652,-1.2138288766216616,8.614475019049092,-0.4360645499562238,0.03673218825157669,-0.9854786451835404,-0.0433304568761739,-0.1296504779054105,-0.012951235050431865,2011-09-26 13:18:10.074046453,10.780285413
49.03222669274162,8.437524621476811,120.71028415451283,0.044840810786861265,0.027889353778889098,2.917398495886164,-1.1614201355220093,-1.8616597229621092,5.944944321618733,-0.2454072134120825,-0.12213075152584786,0.0924783879327955,-0.5097174634334516,9.26679073662537,-0.4476415451885716,-0.04713272414225462,7.256893225635004,0.05090282269587145,0.008693641889862306,0.012009203620926725,0.1729773267901211,0.3144262393629213,0.3271748907171547,2011-09-26 13:18:10.174047807,10.880286767
49.03197377420415,8.440551306881327,112.94227488556679,0.014209495380731288,0.013203027959158672,2.691627310909863,-0.6553668280297473,-7.978470782724286,-1.18198710158602,-0.10991309513039109,-0.1027786986311429,0.856795581980303,-0.20946353626437308,9.41157386255957,3.7587562425119145,-2.3949870080455673,9.87251041420682,-0.01915778817001479,0.061677314325436564,-0.03228044123150321,-0.00843390474845481,-0.038655309834906997,0.023082032061905587,2011-09-26 13:18:10.284126907,10.990365867
49.030456888379646,8.44909785721073,113.40280257909312,0.08918463129564218,-0.0024095280417144975,2.506062971089988,2.490398812140668,-9.001627004916406,10.7660772045631,1.4031428505845183,-0.7103812578352751,-1.665671236151908,1.0407457866574643,9.441011861898318,-1.2807905611864656,-0.4869799084333378,9.39530491386803,0.037202879453670165,0.22989397157697877,-0.0032858019155356886,0.0649823281159356,0.01934738222271804,0.06743004817150951,2011-09-26 13:18:10.384106856,11.090345816
49.03291712353458,8.43923398664058,112.88583587710289,-0.003446521107159822,0.019780426180229665,2.501745668997561,1.6249864097505151,-7.0253926207448085,15.809282566048662,-0.376277099741848,-0.4739417005994273,-0.03230414854822533,0.07331509812510141,11.606626060639066,-1.2191660003800666,-0.3768925143527814,8.69692269312613,-0.007198933166029717,0.17917707931033383,-0.024603517370763668,-0.02070073920825263,-0.12928120544023655,0.007977224121422294,2011-09-26 13:18:10.484051376,11.190290336
49.03213850967236,8.43568067801791,110.46228660679722,-0.11666415936112899,0.0217340135477808,2.9912714131485516,1.5516951018529812,14.010167324115319,5.004398302966409,-0.21756789152856237,-0.2700774926571837,-0.21445258207338935,-0.46682159358516806,8.259706988767725,1.1345654256542868,0.29605078311719657,10.419925956336368,-0.035349485365065214,-0.1418253041214482,-0.012417927404829346,0.08322315526783226,0.059882336444172804,0.05653516419157675,2011-09-26 13:18:10.594198234,11.300437194
49.03266216742332,8.437326398876065,111.03929333920753,-0.04512167075079926,0.04248438080071605,3.31741364787276,2.092325287584478,-6.661842451994281,3.1491676434630778,0.7202012690118964,-0.2533195078116256,-1.9148583930793992,1.713741390118111,12.316894279449613,2.2130000299012096,0.9385013055244954,7.722335101234342,0.02456955606666609,-0.05456071737031758,0.048027060865138665,0.07939260685149774,0.28011909197884455,-0.04241419505258773,2011-09-26 13:18:10.694284274,11.400523234
49.033456418413095,8.443648858319467,113.2660138979407,0.045801352549279514,0.008191204672403012,2.1675678326359593,2.483713814165473,3.002015656211472,1.0996925487549039,0.16074574508296133,-1.45973324724475,0.040043967670397564,1.1342874969144778,3.2201296533805124,-1.9168326308449797,0.7187068340331957,10.571627533985874,0.043436116703069585,0.14392986567024738,-0.20718849468603445,-0.06497480484744456,-0.31490937731393803,-0.16933689864894844,2011-09-26 13:18:10.794284994,11.500523954
49.03285498680273,8.43626393877968,115.96426000954587,0.03643764734861785,-0.01621688491866448,2.7971337212063894,1.5375491082802903,-11.239961468642752,2.4375850996590636,-0.12896666086229508,-0.1062617157623097,0.9222692738086082,-5.147504236581471,7.527393953781212,1.2086758856900484,1.1936856630143178,9.870124744305825,-0.1368019033319968,0.08646267459589493,0.14080946495546434,0.03288436666430986,-0.07799363050096685,0.33340578785550384,2011-09-26 13:18:10.904112544,11.610351504
49.02664219139232,8.455716998050022,111.89805306363799,0.048348500379982465,-0.01768443868160275,2.0760103446898963,1.5965236244386978,-13.281589349236498,6.879414643240526,0.22892060263193115,-0.27373367049938835,-0.8244095551115402,1.697138372450269,8.940790183111677,-0.8360940731114702,1.105316283267839,8.862757789245041,0.03510751167603973,0.14920079983633805,-0.1284037993938928,0.05101675649089028,0.31322174885727444,-0.17843361125486618,2011-09-26 13:18:11.004063905,11.710302865
49.03408002995481,8.4445441917646,107.02125092556729,0.02694285010575913,0.004246689927810247,2.684909575904098,2.576035365694705,-5.675151305381354,7.387191556401614,0.04230745397188908,0.7257956824817356,1.6186557486760982,0.29655393387188844,11.054350066732992,0.5464007717133469,-0.3440597545471272,10.577826295138802,0.15469218261912937,-0.19872972642301923,0.0392263051298276,-0.04834965389261193,-0.08667336393911733,0.07377477405881223,2011-09-26 13:18:11.104149389,11.810388349
49.03388330581656,8.428788443004168,115.02028730581483,0.020582511371513547,0.009939643735757455,0.8021427000935755,2.3912824640458172,-7.671485209400666,43.0742868419296,-0.7358625374318739,0.05157331392850836,0.01332710577620308,0.06656288737355101,10.031265596517697,1.0075448424553275,-0.49810036759229886,8.873992814003357,0.010697521283206437,-0.03286235976361189,-0.08687808959597268,-0.029345873429207355,0.0031327652756594857,-0.07308751663841156,2011-09-26 13:18:11.214302303,11.920541263
49.031694734038126,8.440232240463875,112.32381891396054,-0.015404458872159514,-0.02059231388497676,5.774545280267477,-9.970707225004196,-8.945019507346139,1.3440424046426411,-0.07186277185339796,-1.7004907742563822,-1.697034716826685,-0.6315233653124274,10.050212697464316,1.5000898637046856,-2.0928880371358756,7.098022982888765,0.007821671000454137,-0.02208266258230808,0.0643211301859241,0.0889630062814366,0.1231129612140686,0.19159835860185975,2011-09-26 13:18:11.314143700,12.020382660
49.033119343260154,8.438633429812189,122.68126791668139,0.007607794487951982,0.07633638128893004,3.163797892126843,0.2792671216113338,-2.255761296231662,7.7179938445584835,0.1540095181902786,0.09362504560035836,0.308289669279631,-7.398064584405889,8.95729254080528,0.8819085944726424,-0.42696712465103825,8.696793475327325,-0.02422406056706186,-0.19699464320512816,0.1249505533776035,0.04367901114001483,-0.18707415119440646,-0.07057196089721673,2011-09-26 13:18:11.424124644,12.130363604
49.03251247268506,8.435066447915416,112.90491715227029,0.04695074571672304,0.008247782964567818,2.969646456134809,1.9871447788758514,-10.865326560997904,-7.528145228501978,0.41647262436917043,-0.13987063375594277,-1.0543191534752265,1.1111859069764674,11.156707777617289,-1.2379563455831788,-0.8818697757875845,12.221405851978052,0.011273508262650458,0.009097667342168714,0.07045993893057839,0.0831991144572638,-1.1239122882379984,-0.028073256999744653,2011-09-26 13:18:11.524116399,12.230355359
49.03198786346536,8.442674864482887,111.57866478570418,-0.014519970222976068,-0.12721230326161664,3.0188990025220384,-0.07800477262462113,-10.629002931644754,3.5885205528556257,-0.07604864579119755,-0.28118028494363567,0.4302002489152674,-1.397662943408757,11.533131972466897,1.1430461840263444,-0.013319477869097818,9.653525894574337,0.15583220865222602,-0.18589610872081413,-0.6897963723137293,0.08025530626835237,-0.11118503131583712,0.14545708827486525,2011-09-26 13:18:11.624130662,12.330369622
49.032633430275396,8.433842169575595,114.84642491484077,-0.002763164494594364,0.03535040845545234,3.384338386213853,-2.9528601238024885,-6.151158431363474,6.297445547650258,0.41758282958270765,-0.24072273126821936,1.040861779862278,-2.0194368043769906,10.853334222875331,2.064342309362879,-0.7179511965480486,11.9543953850889,0.0010680741778278657,0.1945278433286927,0.03626202391568613,0.11537860050148611,0.06511935083016512,-0.23827184744585872,2011-09-26 13:18:11.734214871,12.440453831
