lat,lon,alt,roll,pitch,yaw,vn,ve,vf,vl,vu,ax,ay,az,af,al,au,wx,wy,wz,wf,wl,wu,timestamp,rel_time
49.03355806078881,8.443399237942591,114.81196591080932,0.23998561058990336,0.0031452800743912487,2.4580291890122745,4.612736711491557,-37.92678114808205,-0.7375301694909551,0.667133064914244,0.06849758371089268,1.556891447338213,0.9527719618550107,5.765722138712591,1.4185268259511676,0.06712088499014768,9.267435288245398,0.01594249509486953,-0.0048457705492261135,0.30164618977158497,-0.021549172870832946,0.6589937330516047,-0.9571131182063796,2011-09-26 13:17:59.293761040,0.000000000
49.0313437889909,8.44068882113589,114.54874179854384,0.11139726937537557,0.29798612854823714,1.7693131767346884,2.802682840990525,-27.33099030147989,1.8883786358833228,0.489250977962749,-1.5458797752517721,2.519141531057592,0.8778762510637819,8.50921661976618,-3.330853287100031,-0.5132450698327863,10.473711758583747,-0.00020522920111967768,-0.09849375905285557,0.30494223705448154,0.13792070860417213,-0.0074774236584676974,-0.028794173248659544,2011-09-26 13:17:59.393600894,0.099839854
49.03356573785356,8.449873954444554,128.55026957813425,0.02829375031873398,-0.0542770340754443,1.7970606725585,9.248210495763342,30.018363833600635,3.0054948802338948,0.3221879835682256,-0.12895054423755503,1.1532598535793064,1.4530762540452071,17.497581629373016,0.6135055681690023,1.850560025204197,9.247223783138569,-0.0028549531072059736,-0.033234440363473006,0.28664230758852866,0.025249933378006184,0.05466358812554661,0.23168906221156108,2011-09-26 13:17:59.503620820,0.209859780
49.03255077881387,8.436474401791433,114.94246235922188,0.0635870538016188,0.018611494317261723,2.4031353111255234,1.412516293322747,-4.228453928763132,0.4407680011605102,0.44146052557005255,-0.6626881872888256,0.4534016576178356,3.957346496678327,7.661687047388735,-0.0869438971250871,1.3146259488551022,8.818976842711262,-0.042771850882385366,0.081667248223628,-0.08064713390531478,-0.06340416722584553,0.06199092324290338,0.11217212563977842,2011-09-26 13:17:59.603627580,0.309866540
49.031396546697636,8.467872163388293,115.31988484637749,0.053642231410766794,0.03607591680549397,3.157977861002377,1.620622539532851,0.31955246763823597,7.091789328498412,0.24720106828736454,-1.8436040144290236,1.6387051693146204,5.6892795678291685,11.8050087145186,1.4442805039758524,0.2192729909208857,7.322511351758028,0.10399685347641438,0.31371835158794276,0.13262681200058699,-0.11180478629858309,0.020203883667498486,0.22719263218132316,2011-09-26 13:17:59.713670484,0.419909444
49.03253860403652,8.434664186032924,121.11295507810138,0.047923934968674406,0.08083358126307345,2.0882701460262334,6.009049839477459,-3.6599014612034355,12.35072300985342,0.2903766764894685,-0.21810692163741383,8.001394697944919,0.9029128563608663,9.005504044121508,-2.483898855589593,0.19724796782163612,14.418506581238452,-0.11661999187914046,0.09292745196322916,0.30807815584440834,-0.05063771112099855,-0.03157656239758433,0.40220219162933135,2011-09-26 13:17:59.813642393,0.519881353
49.02493017544771,8.448501172370714,113.92767379784601,-0.007564455468522826,0.05542177787838311,1.496104810582778,5.367164362672513,-1.7484199314819826,4.345231893772717,-0.22254265831826536,-0.05787431239284404,-0.8180648944612074,-0.24611685855567605,13.443457132386303,-0.7991391340464624,-0.047062151558808024,11.000693715997185,-0.0317667938621634,0.08527658698627345,0.07608328103812134,-0.13519975524725955,0.15384678127476956,0.199448991481421,2011-09-26 13:17:59.913621630,0.619860590
49.03229009935808,8.441345714298276,116.59438549132256,-0.0027095623798883625,0.021399497045629573,2.588448137291465,4.259797186707348,-5.224480868603821,4.854334724137871,-2.126692193638196,-0.2024806866579543,1.1967745463986492,3.5780629224874225,11.703328748212007,1.5718171612316518,2.1273260494869577,10.814223373765982,-0.07654947225383002,0.1495117654818801,0.37411899848826025,-0.24955752933467473,-0.12362807410934762,0.1479483792777484,2011-09-26 13:18:00.023639310,0.729878270
49.0270464338248,8.437099096657919,113.7295742556469,-0.013278388125093236,-0.2145828471349903,3.013358307511427,0.08780282686398655,0.5518772615977405,6.638153140664621,2.2105993011476923,-0.24455989205189804,-1.165232424737442,0.9881303725757016,9.621222495525139,-0.42950720616469024,1.2610083905942182,8.544553904119677,0.02040513302355593,0.026648467555684216,0.4264498211308603,0.059958155590840896,0.13547204816843045,0.7208731617319483,2011-09-26 13:18:00.123631319,0.829870279
49.032500775515324,8.438935382268864,115.32896061626953,-0.017818979187691292,0.015315137995835237,1.5866974556495648,5.274825564715632,-27.3597889244092,5.844563688280849,0.08873903924422435,1.1049170872060619,0.36384924684394393,-0.7646043424483768,-0.28503389692891545,0.15382340737184919,1.422269171857501,11.267107199156364,-0.07170684706591493,-0.40950635080458087,-0.08835640483411887,-0.08082286915386983,0.20209647595022115,0.23048518055534262,2011-09-26 13:18:00.233769345,0.940008305
49.03169225780838,8.438329623932527,117.30551799617932,-0.011217514930605823,-0.13605218648545034,2.553634145402526,11.385134719293765,-8.566923839158681,-25.56959098512109,0.48579825987942143,-0.2204580610007175,0.3666492940854689,0.5608164445073954,9.418891292848153,0.9684663917944687,-0.20689200173258201,8.893539781628998,-0.12156565379755324,0.036076858725120065,-0.4095189629376573,0.002442302886423553,0.013781894554306742,-0.00450966985743928,2011-09-26 13:18:00.333612586,1.039851546
49.03181468106607,8.441691801049613,117.46847784535154,-0.017642060565940976,0.07114572379488034,-0.45002390956727023,3.1527246648062452,-49.12997660618995,1.6599655329567882,-0.7793994738759861,-0.2673674206849243,-0.6640563996689051,-0.28902622607197925,11.252273679293879,0.9841528462076317,1.4036059997252364,2.0621889939448295,0.6533597786643086,-0.01252099784743374,-0.021917329483082185,-0.130115055175525,-0.11646529352377803,0.409280714566709,2011-09-26 13:18:00.433652902,1.139891862
49.0334715997688,8.429978075386472,115.96430541346064,-0.005349815252192934,0.017050191708960095,2.933607350447083,6.5662148026671865,-0.5320525727187708,12.406660839102539,-0.4117003758789475,-0.7985983201436945,1.9359861504124556,5.179126179602184,8.995200554008962,1.1602616182941898,1.566962490788741,10.8121057682147,-0.07537221611641824,0.07458041344469994,0.13332568847834608,-0.07649485008153603,-0.09753839097043383,0.1586365790825604,2011-09-26 13:18:00.533595411,1.239834371
49.031420822625,8.439738523590906,116.37346823783925,0.027447107128451595,0.043715746150444684,4.188025050275972,-3.899151483384319,-3.229642022244371,6.73384399850685,0.2366976047439815,-0.11068501426404492,-1.3587808603462335,1.4021885338719384,8.203027092706527,-0.23300265289748756,-0.22635900404079468,15.545157731498966,-0.12215778082332496,-0.048130688117883846,0.8678765972138052,-0.4431848737463224,0.1343224592260892,0.061194328783706745,2011-09-26 13:18:00.643681971,1.349920931
49.033079547361865,8.437985846073921,117.55525240315446,0.07283850340573479,0.06638184502022516,2.235523449756891,3.6618499437399397,-8.30553113294621,20.879582889106928,-0.24756480069528633,-0.17949250453290172,-0.663183354323138,-1.831286846704574,7.842468806125659,-0.3445877213222153,0.4801658392585159,9.203209065857868,-0.05974435488025702,-0.053310464270280605,0.05995065425903127,-0.017131720436520417,0.052043375574613984,-0.15719592827624906,2011-09-26 13:18:00.743676333,1.449915293
49.02849986077367,8.430963705484245,114.35860358925203,-0.021740289836171618,0.08254922684623998,4.7318824155119295,3.2990167430876665,-0.42702372096862184,3.2818255781566075,-0.9793035948487177,0.06387234906323414,2.4162579599751512,0.09282167031694838,10.563009371734971,0.883671014015123,0.5151347626750676,18.801105698785232,-0.07239661323702618,-0.20283103894704407,0.1196108783638832,0.3847812696364281,0.05161386159740187,0.0004688227717259078,2011-09-26 13:18:00.853667564,1.559906524
49.040947020673514,8.447239887209259,120.94614264822899,0.019799126367037203,0.03372005680970078,1.737961390011499,1.1933460410245824,-6.238187168158577,6.269567682120433,-0.526151656015874,-0.031013442870423506,-0.550208890985352,3.2866664800448975,8.358542942798953,-1.1857142886387908,-0.2142637783087461,9.393262240853401,-0.03867845939538488,0.19756897645565102,-0.6816957934278107,-0.11902484982481093,-0.030498659863504973,0.042470462637340826,2011-09-26 13:18:00.953642273,1.659881233
49.03258696906936,8.42737642316714,116.72060111119471,-0.03003857529938403,-0.03686759092681467,2.2160648751191148,4.633065795074412,-0.5260276157740118,7.287412056443246,-0.47009571575281667,-0.24050108474846774,0.34525417546219805,0.7053728761931405,6.0760434046249845,-0.23182176048325914,-5.497850714554429,8.331915315802133,-0.28212801251579883,0.17039937874739675,-0.09533473052623902,0.04086258589440626,-0.07453870005042999,-0.12216171618088603,2011-09-26 13:18:01.053659923,1.759898883
49.03329356313494,8.440135973578327,114.93011057110984,-0.007078011139054921,0.04153231316888864,2.3357127717777972,3.5405336427714054,-6.624632769382055,4.79851671790946,0.3456526600078862,-0.13575778809535904,-1.0224018732222233,1.3407184771983072,10.126931906236793,-0.38861583582903086,0.43982911850154105,9.29777952043287,-0.010667549944615447,0.0306870997166258,-0.1570644253123315,-0.0665407587896171,0.2748729044665319,-0.014058163102443337,2011-09-26 13:18:01.163694578,1.869933538
49.033220248113025,8.439629459118432,116.01796645280469,-0.006954596218485396,0.06837947287957667,2.0873575383712297,1.7887801375744565,3.6214080285713397,5.707020872916517,0.041623367319245236,-0.27800831259496345,-4.154189149565136,-1.3657878425649095,9.814459476223101,-0.437501217184685,-0.2341029519267187,10.19654742392589,0.04728637157048064,0.07458164548671639,-0.14721016776100204,-0.3974254247956826,-0.13409089953489145,-0.023494612089698476,2011-09-26 13:18:01.263948336,1.970187296
49.0330021705333,8.433833907248957,117.10599131643357,0.0019805878631597197,0.02432561039016705,1.628204033528986,3.340503902354755,-4.961863252143104,9.056625468201897,0.3982344640251243,-0.42528784474198755,-0.39302832443065705,0.8042222106825099,8.556182576470775,-3.396619765562956,-0.5469698530736933,9.122263986744285,0.04980723550475703,-0.31114768159648715,-0.07595713339909717,-0.019457432746072513,-0.0776065862602603,-0.0765644928547023,2011-09-26 13:18:01.363700511,2.069939471
49.03346197458013,8.441647505529664,114.59786844330357,0.027960469669545386,0.02526276545596553,3.216566702117664,1.6888365812733581,3.7421044803264896,11.237874921622211,-0.30821674405954463,-0.2620413396410041,-0.7829200450730268,2.314217036815676,10.590927961123102,-0.6277816749176908,0.7011358263292593,9.746174154801166,-0.1331117553211582,0.42576152828422864,-0.33287557827271547,-0.06792332091409842,-0.11403505472939156,-0.08278481203526764,2011-09-26 13:18:01.473655315,2.179894275
49.03347371874529,8.439921576051157,116.20723472513652,0.004300890192619745,-0.014449573158774843,3.0788299754508333,4.510441567093023,-3.19758870463437,10.242542989903768,0.10847513716073517,-0.7032265297251228,0.1998112761791013,-1.32123112891805,6.4181141237510335,-0.28885751232781676,-1.2042708062243528,8.140196798866407,0.2227516421064979,0.3494772941381895,-0.09055685784684765,0.18551486999653566,-0.17083620528993607,-0.10980535198245188,2011-09-26 13:18:01.573726175,2.279965135
49.03226833414452,8.433705088162196,115.06286221333214,-0.054971232336568254,-0.01269102630155668,3.6436484329804815,2.5688506287372066,8.922221898674564,8.040997902618026,-0.18840034294255043,-0.23120939798839607,5.784791433739235,-0.5434913917184955,10.781086630883431,1.068350557597218,-0.90649647545853,9.402566309023237,0.060757357349144975,-0.07389434392783334,-0.11617782263720933,0.07386046771739595,-0.06662339456285246,0.0628606202797964,2011-09-26 13:18:01.673740857,2.379979817
49.03889123583862,8.442379097024755,115.04508301200904,0.011180868767032105,0.013202417425380999,-0.433206138829473,3.2871775005191526,2.530749084193001,2.7668082986711826,-0.1896509225248898,-0.3278273901064838,-0.30815688137079417,-1.7427918099809472,6.440786999162703,-1.1995484182677423,-0.9028896101335835,11.76155942022567,-0.30203351981124293,-0.025042391083754043,-0.05648693646505344,0.09193309968261602,-0.00945240368632505,0.18402620313346496,2011-09-26 13:18:01.783763073,2.490002033
49.03384282494689,8.443166851546962,113.09741779030757,-0.030036013334597704,-0.0021127659176786687,1.9916656072685093,0.39411160126551037,-5.414493579566513,-35.42721705134197,-0.005982185296016643,0.24909114186646258,-1.4498860083070064,-2.372199438111849,10.823154718060566,-0.915546323589975,-0.38122852747258595,11.983360269391005,0.04166403266256075,0.2632042787692087,-0.10875296135318677,0.06244113192563748,0.16397006427043065,-0.08104029764963584,2011-09-26 13:18:01.883662231,2.589901191
49.028960859558204,8.438388913469282,113.70279458406827,-0.011796841219139539,-0.05816568392114112,5.876398473652641,3.652420837626658,-1.200463007405093,-1.690673809061015,0.1679992858327845,0.1389945327393082,0.7062551373218484,-0.6791106426363691,8.854666417539168,0.23082166761772036,-0.26967708941051405,11.329714343804495,0.0904597183086617,1.1236462766745379,-0.17481816514532422,0.1377041905744259,0.1552611524249614,-9.094093221698619e-05,2011-09-26 13:18:01.993810233,2.700049193
49.03202803524214,8.441019328182962,111.0614060567195,-0.018141374665622163,0.04355122165542609,3.090105925987072,3.871479892700843,-4.288538412047791,5.899079727765635,-0.22337045050029256,0.0029263079082717663,7.326794914590472,-3.748100283977604,8.841125602134975,0.31683809158888887,14.894562893924435,8.973047338009135,-0.1533260784782538,-0.03422602993433544,-0.23519949779297195,-0.10485771286394271,0.03338940891439143,0.0792880904852746,2011-09-26 13:18:02.093724349,2.799963309
49.03403286579229,8.455300345518427,116.47799466217442,0.03377387317527266,-0.012868622632562342,2.3209159823353525,2.5485165111005155,-10.334372014164906,-27.878203885644616,0.12433949026758506,-0.5132802413269787,-0.09608749560306501,0.2057133993245751,9.417238079838615,5.1394985253562,-0.3544741018491921,17.926670364096616,-0.029226620454516752,0.1170892905140431,-0.5558412769154099,-0.01496429565549117,0.5550564337736403,0.09040319571988294,2011-09-26 13:18:02.193810715,2.900049675
49.032615774562366,8.436376051272543,115.0674644255742,-0.012625544754654765,0.04145968578111933,2.2763006679311006,3.1506654476542826,-1.4576507594162247,-32.83048791174238,0.1641784876601535,0.1634812124024414,1.9011382346463686,0.4675441833454204,8.036947970176133,1.7312629240394062,-11.706172635399373,10.06797370615329,-0.005269909874350238,-0.04751322820274052,0.15817152925220038,0.09988319236717798,0.01731776943595196,-0.04956574970840945,2011-09-26 13:18:02.303750233,3.009989193
49.03995258254485,8.433800014916724,115.41066888296018,-0.027292887219265802,0.09373826495477665,2.5036259717943943,4.5921067750954485,16.225046493340198,-32.14779732505621,0.3352754572631981,0.14849753650331984,0.7683910735699291,0.06647555287802527,8.429146845625912,2.1784761122708045,1.3365283373136643,12.129688033125625,0.01718159495921497,-0.046049959800111645,-0.1847654119929871,0.14591574886640418,-0.1429831291567717,-0.09625312636408302,2011-09-26 13:18:02.403670366,3.109909326
49.031329092793925,8.447153251469853,113.70320933818958,0.00900931061014888,0.033463332654812335,1.7175749440706967,5.524372997668779,-8.050136896229526,4.944971026955171,-0.1772316321500852,-0.3842792208247686,1.005064453304891,1.077440217869898,8.624766598147415,1.3387998549912954,1.833676169720029,11.554016698712367,0.02164188807901539,0.08136786277924435,-0.07545008287705436,0.08313668214890496,-0.1850040750151672,0.06960157287507365,2011-09-26 13:18:02.503695584,3.209934544
49.03307759806227,8.443184981816213,115.47486908198545,0.0361347966185075,-0.008891135369623536,3.0632215160892624,6.0624430212037925,-6.56461836895854,-14.695419093685093,1.1456042891141063,0.7937471154261604,0.4046175664021902,-0.4487021458795509,8.913620385216642,-0.17013323956366633,-0.1321683831196277,8.852420672122209,-0.0550383114436618,-0.3376479612948899,0.015250296246510895,0.045280632541527456,0.08551410702206551,-0.010270084349057112,2011-09-26 13:18:02.613669277,3.319908237
49.03392882882735,8.440494869063633,114.84287213364749,0.015389899319212894,-0.001663795659324558,2.0179902768907296,4.679017591351174,-0.44743464398990307,7.465246410893249,0.4803628537425461,-0.17066822435210344,0.6649180609575409,1.3800545458771234,7.784068206224329,0.13949810770084192,0.5100206358668862,9.150781968365607,0.07542914563854405,-0.03365424967512706,0.2800639874967905,-0.024354149184768956,0.05952532438238582,0.001563075514703834,2011-09-26 13:18:02.713862335,3.420101295
49.03186007472421,8.438034916232715,110.95169174258255,-0.01547364635203614,-0.0019416085107486392,2.815912758461232,3.1583680085963595,2.2771351493765843,6.074233588949504,0.051417827968941336,-0.9826882725256669,-0.10874801286440194,-1.960726247252098,12.384814499766195,0.03178764781655219,1.331830621564203,13.641798067822407,-0.0418548463323877,0.17271111866943045,0.18110768637419428,0.010308456801138064,-0.08166061388985411,0.02089756536945495,2011-09-26 13:18:02.813738951,3.519977911
49.03351313158845,8.44408219045812,116.27098773326016,0.05343327822767638,-0.0013079720831064385,2.091378394044694,5.1069757027205025,-2.942560274757213,7.1435170988132715,0.617781605534663,1.1280736520466303,4.172564182817152,-0.08639601766331495,8.062909738050053,1.4004440513846426,1.918868125067491,8.531704610890252,-0.0030779336822514963,0.06613613149756671,0.06085273370149792,0.028338749206882966,-0.011243949213056194,-0.9167177696157552,2011-09-26 13:18:02.923757847,3.629996807
49.03587560497809,8.439452643774601,116.9109133147432,-0.014298884696885972,-0.0026004604188141506,1.989058112659774,4.13601246511677,0.10248539414704361,7.4462902452455815,-0.4364069230092775,-1.5212996014091165,1.0874656364075264,-0.05474319115884961,10.132936949562426,0.03546075008321026,-0.6522788899655128,9.353940070943528,0.0023795157019078136,1.2735527031034166,-0.05497374532027008,0.014309520544401178,0.14179927901380635,0.34139948711046075,2011-09-26 13:18:03.023799275,3.730038235
49.03248130864179,8.440457935489215,114.56621285889408,-0.0009316937994151057,0.004660546808243845,2.060693611461287,2.383015378925905,-2.3610786686033003,7.688779107022777,0.7221216330248132,-0.014421195244947234,1.7299704242669225,0.07820989959686411,8.143948687638488,3.708038736587083,-0.8507114630499505,8.68811548019022,0.04506010440145597,-0.05146899358631814,0.08914450475926965,-5.7665283944959705e-05,0.07474672836317514,0.05373401671580515,2011-09-26 13:18:03.123703210,3.829942170
49.03344738582806,8.446963332988926,121.3673678542298,-0.03912396047265349,0.04728168284500308,2.3181661058011818,4.240712300872356,-1.555351626772722,2.734483585366125,0.2166150735001319,0.04352638251248347,0.14929055235109745,2.2143575420409145,10.090814817748512,3.437525017163137,2.146107773759235,16.512555788516238,-0.0870000567577869,-0.0126105510705583,0.13995819280144314,0.05851714436148331,0.007619314750037869,0.1413235190463612,2011-09-26 13:18:03.233837510,3.940076470
49.032537755671214,8.440833057050975,114.6464157170923,-0.005409357642339978,0.018674443248498894,2.305320077270349,-8.101322430944645,0.44168963534898253,8.580372443341187,0.07394781499575068,0.18970966803920003,0.5217029673661198,2.6310509414486027,9.44706798780869,1.2443128441541211,-1.8416406525666567,10.122537044635333,0.023862217125486692,0.012236246479596626,0.22116220985813745,0.023629940824829842,-0.0832150714062479,0.25472509487037853,2011-09-26 13:18:03.343788999,4.050027959
49.029939964780624,8.439511030198373,115.75719596637582,-0.05931981423084974,0.025496313836449486,1.5120398113414184,-0.33598314057753864,-2.52894454873784,5.193446194315186,0.6303942786780734,-0.020159964553090944,1.7130860476708532,1.9934704671271228,8.460177813705018,1.5793537125868982,-1.0110913888284019,4.599613378180801,-0.10307624855085785,-0.018730992312057285,-0.04167231537808251,-0.012196432044731344,-0.059459280520389346,0.04643478703144664,2011-09-26 13:18:03.443788114,4.150027074
49.03417485245617,8.491717324194633,116.68000851262397,0.26258621490039696,-0.026561585325555415,2.8028658340260715,1.6190878294275266,-10.895602576066917,4.319530049055271,-0.011603293790564781,-0.04424565343532187,-0.7557464842075219,-1.6787477942534696,2.709509285365205,0.7973308922243352,6.549371945879093,10.793497154858265,0.008686353785101042,0.30180005945158733,-0.3154472114556939,0.029280608373589055,-0.012005922900761953,-0.10204332316105652,2011-09-26 13:18:03.543834756,4.250073716
49.0329783804124,8.438074296217254,117.37376964203625,0.002815798540214874,-0.03355498917441216,1.9508769382665663,6.9365507442198115,-1.5186985595933682,-1.2332716247739466,-0.0017118385480894976,0.2755974415893233,1.5325357513107187,0.5831841194996883,11.771422002053669,1.9569790224682109,0.5319021307837931,20.518082316504476,-0.09109745844599305,0.11600430634249291,0.05680233441815135,9.655478400968746e-05,-0.096334829685181,0.024280548442326497,2011-09-26 13:18:03.643788145,4.350027105
49.02880147518236,8.445225633119168,112.91958128946375,-0.06512101553727333,0.27706160343153535,3.1558846536625556,5.017479524675877,-6.437000010138575,9.893557308560892,0.015784174456871497,-0.2431508497824893,-0.29178640227640273,-0.7240585986482675,9.05226724414574,-0.583994811475379,-0.07586680063294049,7.415903065548733,0.25185832380723205,-0.02318792978514373,0.05872150718558482,-0.2153175548793305,-0.18251425057658777,0.2586557841774176,2011-09-26 13:18:03.753848180,4.460087140
49.03214570150987,8.4431876125519,115.32197331586785,-0.032418121510090936,-0.004072677933047191,2.0052841107599484,3.6464480496531606,-3.3688504341208843,15.721005083754017,-0.650337251204047,-0.17609171413121472,0.6106971571844024,-0.8630308122453154,9.337227443753353,1.7064548174162246,1.3453488630613455,9.641119272234267,-0.040738090475253584,-0.057569437981796465,-0.13273558200530813,-0.3624085100597812,-0.036053033942147136,0.08954573334357596,2011-09-26 13:18:03.853799048,4.560038008
49.03181275356323,8.457362856927478,114.90818480112105,0.003123250878467678,-0.17030436374766086,3.208695927636901,7.590268790160141,-16.85900098969167,11.521523474677942,-0.3325734915913711,-0.15697738740427847,0.8206331286782002,-1.4887465390969394,7.816255346196039,1.0027904993024555,0.2033611297842433,9.995551153187579,0.038501549904266935,-0.03869185170214657,0.051138317608074926,-0.016390045390373396,0.00469212011439112,-0.03465126540752911,2011-09-26 13:18:03.963804761,4.670043721
49.033141406391316,8.438902519180179,114.68182564253502,0.051198022079918346,-0.03924239629041048,2.5872869551419186,9.202446189589402,-8.126845269131264,7.129581053283664,-0.5543541840453371,0.023321262251837435,1.2317014312868066,-1.3584683621852554,10.572019730030629,-1.090176540805039,1.0313537800340167,9.51664825665225,0.11050252688099604,0.20417300872045044,0.09788889136362215,-0.0678312880056564,0.05362949966181209,-0.10917539347883629,2011-09-26 13:18:04.063841466,4.770080426
49.032011576644436,8.433520474773545,117.33802648613174,-0.036373310376977164,0.05567550763670771,4.387705304714112,3.268199874882065,-9.653403362421338,8.470992126072398,0.19362257199382243,0.08204019919185856,1.3456023095393668,-0.14794297270387025,9.938921473986083,0.9218428347947246,-0.3335045135097182,9.93570351351155,0.0002723355318336538,-0.001743286467742352,0.08197818267902637,0.00621365140272147,0.5703187258439968,0.46678033478291364,2011-09-26 13:18:04.163824904,4.870063864
49.0386856809288,8.434064877875139,115.93199528227017,-0.2720730516278479,0.03970123570725769,-3.3460547051097684,16.686277454796567,-7.005381887109749,2.4366490562577408,2.337901287143941,0.15103351201710086,0.4899221463377401,-0.08275027955740011,15.226386605320787,6.26518125712522,0.4670253199312042,9.083036219194073,-0.17670895449199645,-0.028586277287532068,-0.3421952085398108,-0.5419865573912296,0.10472051269538987,-0.19094719268579022,2011-09-26 13:18:04.263857596,4.970096556
49.03294271209756,8.438144321358582,114.36323536338998,-0.011042882666730883,0.07727275082957423,2.718514546574287,3.9788160746213714,-6.0824341976858705,5.5425932318522015,0.041071758572778685,-0.9455508333142473,0.9597644057384457,3.287159686998956,11.628373115895489,-0.009035357698499613,-1.6133936844242263,10.028803901850553,0.08619727474817143,-0.08562756782670732,0.01190777344250124,-0.004331717387394742,-0.008565751636177728,0.05897402686354186,2011-09-26 13:18:04.373854609,5.080093569
49.03373886473995,8.431874890377497,109.27161452485134,0.029797691132993603,0.037831975597519635,2.5664128819068175,3.389042491106614,-5.721687895511768,8.38389103283482,0.12674311591479015,-0.14132073779252322,0.5576550266188237,-0.9376082975887682,11.339128460638129,-0.04656490083681783,-1.3301189297208817,19.91215044508553,0.09241874511630474,0.009225806316114946,-0.08945129603284063,-0.07089949203540866,-0.003793342328946606,0.06406293956490317,2011-09-26 13:18:04.473808813,5.180047773
49.03303209472659,8.438552259882664,113.72732638050172,0.2582569136477882,-0.041043824565693186,1.6659682692817817,1.1289557547204105,5.133763327059018,14.827120727256185,0.318445304676392,-1.4001328635469106,-0.8042790975509996,-0.2803956998832263,11.200187065415816,-1.7038401603460083,1.1694360867728761,10.389018958884462,-0.0096700211919768,-0.08972692785824254,0.11478671452963582,-0.09757275991202373,-0.059860386662384725,-0.9270223609084866,2011-09-26 13:18:04.583859281,5.290098241
49.03500173998392,8.439210574439434,106.9065203080279,-0.0007799391015289297,0.0008047842865782674,3.4663905813605997,3.0006967363536345,-0.19517040485646042,20.69865466229286,-0.13568758405572165,-0.5781377616185707,-1.7412093361508094,0.7815144833939908,7.4029140596659095,-0.8175329313053121,1.3037935353893784,16.05084685452241,-0.014690178834026086,0.07005099266571166,-0.05942077612341665,0.015050636913608811,-0.0245855984517803,-0.07078131580794655,2011-09-26 13:18:04.683869212,5.390108172
49.03118725520667,8.432182658632135,113.63135632217897,0.06514432977535511,0.015807955425196262,2.695486088702038,-0.5270977504334731,-13.774714867633909,6.8749359265605525,-0.05019217093409091,-0.2506289017323272,-0.7277644935588468,2.0319039696694174,10.452622727348814,-3.4130399674583085,-0.6086535918890607,9.487829189197722,0.05141212660564221,0.12155708088037623,-0.060024663126563294,0.10774040386825348,-0.00666960625895051,0.0696384838666152,2011-09-26 13:18:04.783885407,5.490124367
49.032258278996366,8.443681168104424,123.38324659567604,0.025285812836129747,-0.09614499284699773,2.1194285549283425,3.8244002219906603,14.201427294802473,11.100527152052408,0.30563497413118634,-0.2206437601130593,0.36547416430698054,-0.15464321416600285,10.924351931462533,0.3301706664581744,2.618459740841546,8.940153211115144,-0.008747535027454435,0.03987111052588101,0.07176043523245809,-0.06778396190924267,0.036043690457079475,0.22563312666110968,2011-09-26 13:18:04.893875352,5.600114312
49.03246401121775,8.443268866624654,115.80897373641068,-0.008392319163981666,0.019956706404340836,2.815279477149104,1.8978788827143362,-9.60167638584498,48.53799787966956,0.06730349202476016,-0.7135849400875925,-0.4754090046252404,-7.175228027679116,11.288722847424536,-1.3000266754062706,0.9449473277530134,10.411993729113737,0.13576753385279636,-0.18627394961958207,0.12154095279123875,0.03812827580755981,-0.1846229318415043,-0.04621626832369717,2011-09-26 13:18:04.994003896,5.700242856
49.03234284044444,8.444186053517239,114.06781655557542,0.027379525883286425,0.0031551300116075976,2.8001310395654158,3.9927245402783296,-6.527614587050268,2.546820916565517,0.773966251521844,0.12121340666696545,0.8325198045476175,-6.056557902574611,8.801430835365355,-2.735410452505484,-1.5201861654616535,10.469960434783973,0.04468136446846426,0.07934567940153497,0.07893404335785018,0.004557573910990289,-0.03371565040718274,0.09348799739135082,2011-09-26 13:18:05.093978157,5.800217117
49.03287822935527,8.455114986133868,112.54974803562936,0.028599452031299107,0.015004886091862865,2.2905677917268883,4.065284944066416,-4.157928937918584,16.224914699969084,0.5748302278069635,-0.0860119978710725,1.7229544580121525,0.28917102324583055,6.759875340195265,0.5035884005084825,-0.9533895443333708,9.97408001092859,0.004096780522599093,0.13657622023558294,-0.4126080412668614,-0.010633645508421679,-0.09562692811649842,0.1096534290757315,2011-09-26 13:18:05.204001216,5.910240176
49.030736469721106,8.439859044860519,111.20029837179453,-0.12251924809952261,-0.06891498976595455,2.2505451976688535,5.548523055857753,-2.729649578753094,10.383919943119333,-0.11602908680510088,-0.23478831155524238,4.823669129246903,-1.5820511212418225,10.077554706810494,-0.4160919584774062,0.7816059173499699,9.298383246208772,-0.009428821282776802,-0.1928613536797907,-0.10573049107135418,0.03025077165823405,-0.08975094153293425,-0.13624106829135874,2011-09-26 13:18:05.303844698,6.010083658
49.034437623019755,8.444202931483325,115.08694412356239,0.013600184300731332,-0.01045035805663745,3.2321743195912482,3.4029074909073715,-4.419565753235789,2.2429286346161925,-0.12301441759317659,-0.3083178319980967,0.545464500782109,-0.0890881888220057,10.161755496703394,6.2805796208372735,1.3309847559847683,10.589026721062814,-0.12578670606974346,-0.13688687554532555,0.07939144772499573,0.08014830235894042,-0.08934108938743945,0.15440138778575072,2011-09-26 13:18:05.403814787,6.110053747
49.03910415843706,8.444991918143323,113.0341367697355,0.0317531274005143,-0.15507383066975292,5.486529078794177,1.1144634780520497,-8.540516223139502,8.771185960471936,-0.1877004199854641,-0.9367639062164603,0.815736000255114,0.4116523548909378,9.604676029579196,0.32751365868277604,-0.47180628511980804,9.202711425684477,-0.05793829056590704,0.0783297793799244,-0.1480049390700829,0.008783366833030885,0.03670253012182687,-1.088232137970116,2011-09-26 13:18:05.513837781,6.220076741
49.03206500193732,8.423598377236834,115.02161279276136,0.018304207293035245,-0.024305509917410362,3.039293141568934,3.214708615728703,-12.452672380459763,5.369170187152648,-0.5047939589338202,0.08294026356011996,-0.9948007569106213,0.6430341670814809,10.58973333855051,-0.7833536055653726,2.212702651885162,6.174100840203694,0.13485661528184048,0.22095240247636228,0.06253199805162078,-0.025293375095064054,0.1689121211222428,0.09829249352314487,2011-09-26 13:18:05.613806946,6.320045906
49.03312166814106,8.46324144467166,116.33311726072851,0.02950939771145726,0.0200383460908964,2.756634044483954,5.121361104581129,1.0112967631337746,3.3109488516642283,-0.6532128861923137,-0.18571923173525576,1.0431162290818428,1.2614132970699545,10.564906394928302,0.19808990504771024,-1.3712694154054728,11.802064046949432,-0.0076585006135275495,-0.29069612905208003,0.0566887952722537,0.03543718373472284,0.006614890837948004,0.06872873319668996,2011-09-26 13:18:05.723961700,6.430200660
49.0332040418253,8.435163225609662,114.81485164298883,-0.003585421843190889,0.006976812314643756,2.766671635575856,1.8622594097846994,-3.692597612429691,1.0905880324362602,-0.11388400462521678,0.044505540340860225,0.2401256904603889,0.5946642177167801,10.525198404511384,-0.4405720345419526,-0.07973170254562045,8.41172037519932,-0.03276836851089664,0.008202200605470233,0.2045727525022589,-0.01202198256393412,-0.7395578177859927,0.148493295811398,2011-09-26 13:18:05.823879725,6.530118685
49.032696221277355,8.441351928968555,118.03104402458477,-0.07191844367894314,0.018455746877879358,4.582509540923664,5.303089575539568,-6.52949322262207,5.030841914392799,0.13050075480909903,-0.15958823894575325,-0.5901082095556812,0.8947789440228338,4.2000278998498946,-0.1334418963869228,2.653338501386279,9.660677880700977,0.02011067461587733,0.006353055233268984,-0.027243001555338,-0.05122371302593007,-0.09419301266405324,0.2972901023887242,2011-09-26 13:18:05.923851020,6.630089980
49.0333794475106,8.434854057496537,115.62736236832356,-0.02165013141755904,-0.0010476116959153604,6.461416866715766,2.363121399477288,-10.277124863590071,8.332046700410348,-0.7137324616491403,-0.25617716861753237,-0.0344759157333637,0.7127037674292666,11.883353562974307,2.3899312127410948,-1.3878114528329548,8.524049230520006,0.002877321077172159,-0.3837675306934663,0.047432546007983654,-0.015943450827859727,0.09643560711226316,0.13684985791547838,2011-09-26 13:18:06.033827217,6.740066177
49.03211671286317,8.441109074501618,113.53771175849002,0.01782724828292675,-0.017457943145367076,2.7628837965925515,5.10194769774643,-9.451994919588703,1.7901596141882763,1.3485364386789382,0.05205616382735964,1.4978711690580995,-0.30026255343939057,9.490699920195032,-0.520130147537196,1.450154285483668,1.4357199409020591,0.015127028059341624,0.11560085556190189,0.16113292062339674,0.03421793820544355,-0.7378380421970671,0.07805744075682541,2011-09-26 13:18:06.133878427,6.840117387
49.032343614269216,8.438805155564289,111.8807670454364,-0.0035271694583600384,-0.003116922103900601,3.0546886678611225,1.9938636815693485,-16.63051332068249,10.339302235112925,-0.3359348210942782,-0.25244321640419626,2.057592179779318,0.6537782127385366,9.295951105819933,-1.1810431214933788,1.4415305793089552,11.500046895953668,0.0033411863610615343,0.09083155669284626,0.09102365477492191,-0.10745719981273145,0.14101125072681844,0.0009070429351763498,2011-09-26 13:18:06.234030462,6.940269422
49.03334865080714,8.448081364040194,116.03348566246035,-0.013481732675542092,0.024347800351339363,3.259867043748178,1.600076545920936,-3.1283883566002775,2.548036553038215,0.46785484370231895,0.0007123635453783472,0.22606301267825357,-1.86174557104893,9.39925017248093,1.0592828014218485,-0.23591283492307108,9.861614073174351,0.05642269196846044,-0.015686988015284717,0.21591161143799187,0.036789397616269544,-0.04115073217091693,-0.004199621690656241,2011-09-26 13:18:06.343944930,7.050183890
49.033261004027686,8.435312891020605,107.10115365953958,0.14504019378068633,-0.019088598161518772,2.3408403908605653,10.001281775513068,-5.8335005926941275,7.187078234392783,-0.12342928018948833,0.24669685195220287,1.252757040442705,0.8082651608280251,9.355056310858632,0.8227878518046291,1.1622267717146055,10.376160364936906,0.3718945443699424,1.0339130451451144,-0.15852444329090565,-0.06892605285763463,0.016554043780144998,0.03586665730306425,2011-09-26 13:18:06.443922279,7.150161239
49.0327588257076,8.437588139852615,115.18398856376322,-0.0003195408181169328,-0.06728241977378416,1.609878693829132,1.3265020556157805,3.431855517898814,6.522974160914083,-0.22702899088143685,0.36522998239283266,-0.676794641200613,-1.2685030256742507,7.323600892468457,-0.11620479188706412,1.2291969739671995,11.460512706837795,0.03387347155529024,-0.024718145645242294,0.13923482998067546,-0.05226484860620788,0.06100634692909641,-0.10397804577000079,2011-09-26 13:18:06.543938412,7.250177372
49.03323364834476,8.449052611727213,111.64997718186024,-0.004165677705865693,-0.001687410148695764,3.2267823953878128,-8.244932125303443,-2.1379745373663175,10.626802797452461,-0.05019873950519224,0.15275600686380705,-0.13004496645527958,-10.885675542940506,9.128029508891148,0.2423337689722711,-0.6281974658222058,10.92129751155079,0.007857469059060533,-0.05668478975351977,0.031797881067347766,0.006446067531297539,0.036987183655108086,-0.15084752357619188,2011-09-26 13:18:06.653896495,7.360135455
49.02987260783559,8.434550943294072,113.75567376212898,0.020409953338005812,-0.01177710267184237,2.757126657507292,5.171323294581569,-16.5693903715505,11.53499314969611,0.2838048203509643,0.06588478556151847,-0.0767573694551768,1.898877768845185,9.830685129356121,-0.6503651014277827,1.522310063222153,10.31281579116913,0.0014352474347310434,-0.09080589855631768,-0.11350170882992763,0.1742945680252133,-0.036457732312990626,0.26173985379720044,2011-09-26 13:18:06.753917146,7.460156106
49.0325618321707,8.441062749023267,112.80312869491756,-0.012419072312239487,-0.022548072420126852,2.6082340179856947,3.3707999045341137,-5.227394987489996,15.241102117486061,0.06902018227796879,0.19298636686812404,2.0657557032252947,-0.19175888506786465,18.53629793796154,-0.18333689801248726,-1.482086963469237,11.177110683655755,0.08079404799131976,0.08540290225303022,0.6089775276232627,0.09471217867277804,0.08694220503019366,0.005551426518641142,2011-09-26 13:18:06.863938535,7.570177495
49.032935877575696,8.439620495122465,114.96428832847974,0.2509816989777205,0.022295132072193705,2.5438081943204285,3.968710056640493,1.0701125969562924,-40.446703153156946,0.22636412138145912,-0.04474371315428942,-0.5999959055455761,-0.9654857586374813,13.50791208764087,0.6245369987687668,0.3612064045659009,7.366456891324715,-0.009737705457565027,0.10130183472913445,-0.04196726650524543,0.09405615130822208,0.11918315167018578,0.03785554246920479,2011-09-26 13:18:06.963923135,7.670162095
49.03285319696936,8.444747176383796,115.54760379753009,-0.011517897813090613,-0.014656300622061058,2.7962890292870304,-4.667094727752523,58.370951051092014,12.454235219979497,0.2334917473929446,-0.03926687106366629,0.9417287943526529,-0.4805966527169421,9.30903382716078,-0.5268465958293969,-1.380897130622882,9.266739259321943,0.013995160886583504,0.09162968365995082,0.176316060378729,-0.08843773423162479,0.19012952296109537,0.010774699921169154,2011-09-26 13:18:07.063984820,7.770223780
49.03311836123346,8.438712885799962,117.99042485992334,0.04634637667256706,0.008889223739975603,3.025597735891234,-3.527970220532568,-5.977517496682827,4.229451612915195,0.5823468155452357,-0.09486986896094053,-0.6881586890390321,-3.2991190917262365,9.17473957673479,0.0301921133511953,1.381108111666963,9.475965054134667,0.02960296064464424,0.1203788452781015,0.019135190003683827,-0.035284415077143,-0.09859938706920081,1.1892604353650673,2011-09-26 13:18:07.173929175,7.880168135
49.03170481189047,8.410865523176664,113.14069684142441,0.04727589846656583,0.02931354574278782,2.9538689408465215,6.282790311648258,-5.0101450832014915,29.069152775419536,0.02060823472014356,-0.1538665370618934,-0.713041588913436,0.1267148900055225,7.725373227268994,1.7727559579474215,0.49246234643464415,11.587011410602315,-0.02551380490844083,-0.048373230122464576,0.17884093520440836,-0.00251604254040511,-0.06561767314568437,0.4772206402404561,2011-09-26 13:18:07.273981178,7.980220138
49.03295298761318,8.44412388405965,114.429520399402,-0.061960966131138974,0.015461913262711019,3.1281873378972245,2.6478126522695824,0.5046715439760918,31.49939459733931,-1.8710850457361958,-0.20620729297031515,0.5630122117201445,2.873612517486534,0.52942700917278,0.23434454212926004,-2.212342748588181,7.393265770543721,-0.06191731133867443,-0.09598140037195546,-0.043222128372924495,-0.06422275804440683,-0.029594329435851406,0.13665464374567232,2011-09-26 13:18:07.373973062,8.080212022
49.031737868884164,8.444783959567502,114.39153364704937,0.01567734089831349,-0.08702639911333418,2.2219487672446316,2.224200202087292,15.333841139131383,10.265094799631463,-0.16216166238674828,-0.12841132649308934,-1.1612752600242597,1.626527666496584,10.659626290402832,-5.779285173943107,1.5723637627009808,10.503770653375973,0.08493896590301764,0.10686509358051785,0.13336759836005097,0.11301388836531423,-0.004681850392534513,0.1175936775960703,2011-09-26 13:18:07.483957158,8.190196118
49.032030709693466,8.44393754362168,116.7120712174742,0.05509207878135598,0.04672978640901772,3.179153274579966,-9.011003902316798,-5.572820762873508,13.442619263993972,0.3412137743719162,-0.08988866286596192,-0.7748830831814267,1.8600064381321644,9.48272925254746,1.0167057212700876,1.6178741996422827,9.397847163832836,0.01746441041858708,0.038965013442064336,0.10814111174825804,0.008332806472403656,-0.10299544702535066,-0.19514872576225306,2011-09-26 13:18:07.583952411,8.290191371
49.031891067920945,8.437834997711521,114.71904084444509,0.02086563071024193,0.12258544155792742,3.1612608810217644,1.630713918259223,-7.9377213508682125,9.471070002249041,-0.11267774919483897,-0.1036922217063391,0.3375557530898378,-0.07875966763319386,11.254778090493733,0.26125258617734537,0.9472183099287642,7.928113364929617,-0.34358931534723985,0.06613780391409467,-0.0937038862619503,-0.13025048924400098,0.022567874653388005,-0.08983071445813647,2011-09-26 13:18:07.683957555,8.390196515
49.03401746935801,8.438551508150132,121.33570909610408,0.03341845217927801,0.020416390606133226,2.9734479401043177,4.475651139359659,-3.541665272473944,7.021388196603948,-0.7747199672782554,0.08695218754600643,3.3601729391475033,0.6555863824524897,9.17496944840543,0.31317864108575416,1.1445770579220862,9.98629268445106,-0.06854318720698421,0.023642946851086217,0.07592866780724658,-0.5294993156165163,-0.04383258746886807,0.12317651367970726,2011-09-26 13:18:07.794061162,8.500300122
49.03273232717298,8.418236643878602,116.34980805303312,0.045720704687663954,0.01145689629342182,2.203311445060036,1.095833861250651,-8.279979353793284,-14.009330887201774,-0.196145689694263,-0.10249413077728792,-0.5698092343380939,2.44245262492258,7.453114511929638,0.8035252857822409,0.7838243063863131,9.454388789946146,0.007736401181668049,-0.017669833725345956,0.09681022597427287,0.015262323875155963,0.020843363924954235,0.20886347835601643,2011-09-26 13:18:07.894142331,8.600381291
49.027035572262605,8.442783294745972,114.78047259901935,0.04047008511770568,0.0046513564269066434,2.761560314878743,3.2530463481966088,-7.022115268186636,7.2808888866164425,0.34469721796611197,-0.3626862209721411,2.8813305272029615,0.3626871344831306,10.44477697708332,1.7310424763206966,1.9643356517459014,11.180541508447092,0.038774172437154995,-0.17306166554796673,0.1890075613455179,0.020796892979493668,-0.13190183633651853,0.1757033526979362,2011-09-26 13:18:08.003931657,8.710170617
49.033325045398044,8.406388804159928,113.67062594471531,0.012448567961082214,-0.0163908638863049,1.6388686104044337,0.4451397520218934,-9.975609126019528,3.842331745110595,0.7555539681331903,1.4375284304976683,1.150312792379409,6.4327979875061025,7.0899580972721115,0.3944291739860417,0.04376066393953287,12.01313683418588,0.07713688971111846,0.12431592033414848,0.26168665114394407,-0.056865148737263504,-0.22160319921496274,0.25590905153612375,2011-09-26 13:18:08.104024942,8.810263902
49.03336579615486,8.430371031559215,117.59724291470688,0.01800408507337208,0.01786719720129651,3.093895672922331,9.172350697602763,-0.4956685641359613,10.849320770479036,-0.20197249690079627,-0.10382808646512305,1.0220086458243338,1.8219108359969403,9.364994428584767,-2.3461692380227817,-0.3819341600873413,8.96658927016882,0.0170011358562364,-0.14439762017718907,0.13331155569490172,-0.05045037265665577,-0.09272802559866693,0.05995901018900637,2011-09-26 13:18:08.204200459,8.910439419
49.03343671221618,8.443606487182878,111.42906263423535,0.026904155566557304,-0.0009920725392500822,3.6865505258980527,8.205048971364219,-1.6026915500313068,25.70047401893687,0.030981913092596444,-0.3227847943012421,0.5278843760966022,-0.09918561666596937,7.593080418787247,0.2680680273199382,0.1893476796767028,8.372577089841911,0.11969168744080845,1.106054936930087,0.29358815855527404,0.017442398989427045,0.09671506000393353,-0.11257754140488964,2011-09-26 13:18:08.313998338,9.020237298
49.03339139057612,8.444080901438664,113.63089048997287,0.06927042370205107,0.013975343318979538,3.2665637281525663,0.7668401095520434,-11.414979027466043,13.204006704076622,0.7540888994207366,-0.2075259289249116,-0.7423389730034506,1.0534346031690693,12.174764907108814,-5.245237201331863,0.04411408850373655,10.25051435937685,-0.024893921240498204,-0.027343493172344607,0.14889636292348923,-0.04291230961400868,-0.02142609372028808,-0.3745149878798182,2011-09-26 13:18:08.413972294,9.120211254
49.04302824494296,8.44590793486783,111.5891821413284,0.004225811243438508,0.01785992805699406,2.954896849780246,3.0349694987020244,-13.803479399630845,5.504214739398348,-0.6366260304365668,-0.20928449566237978,1.4071409968152495,1.4358301141881271,11.050659651123603,1.4102406393782456,1.7028835754405638,9.28534968979213,0.11780923544307202,-0.14850013459866526,0.0015561667800209553,-0.07812838662907769,0.24142614035340498,0.4401901803593667,2011-09-26 13:18:08.513976808,9.220215768
49.032570132117804,8.471905992189527,110.70792995806691,0.06816317757619877,-0.00021006901381474472,2.3677080160658956,0.5261028359977293,-8.010938250195638,25.337290479756394,0.7204102877437024,0.09391541556731278,0.9636064721762246,1.73299908992001,8.29998190127403,0.07171601228380409,0.4428330292408782,10.204717012006366,-0.023413518248612708,0.09269423306572476,0.20361179410279248,0.0015957908297749273,0.08957712667253857,-0.02057418253349007,2011-09-26 13:18:08.624043380,9.330282340
49.032317521131446,8.43706583928567,119.72324655871155,-0.10297116621613478,0.19990026982311807,4.821943572331036,-0.6225053241775758,-13.00421177798587,2.9752118029904615,0.17786409202457154,-0.14354436136176085,1.274734485454168,7.099352433341796,14.952703209753007,-0.7217938946664781,1.6274076417426573,9.293867604713016,-0.09435305450390116,-0.06267574802144618,-0.542910150112154,-0.011943536123560309,0.03704538514755111,-0.17446903424648327,2011-09-26 13:18:08.724085724,9.430324684
49.03278997431082,8.45658691471716,115.6166901324947,-0.02913327411431233,0.033155676433435685,3.4875806002422904,3.0483038698565186,-5.35957406751477,52.75918018657913,-0.12924414883618518,-0.09601192304074559,-1.5691310659961641,0.16978194562857235,14.61748715308644,0.5156028130862463,0.8280461811624054,10.267558088069682,0.003708732816116271,0.16098307297346195,-0.8944499673923519,-0.11073759091941456,0.4124967975187293,0.01272695605075464,2011-09-26 13:18:08.824058591,9.530297551
49.03268742039956,8.444327566251902,114.36901637248698,-0.013407010973831995,-0.007701733590065266,2.9958980730434717,1.3603318728096712,-12.47028335758175,17.96374351325959,0.8462026514198668,-0.22362170319545427,-0.4329269406991637,0.2609136251720044,7.960402301599519,0.6378322429741433,0.32974722773729,8.342062248963574,-0.03929853126739727,-0.07795101013402327,0.10433028613552216,-0.008464361750142202,-0.17520195663049595,0.13445269871925716,2011-09-26 13:18:08.933995195,9.640234155
49.03293979191921,8.440416519413533,107.99684570270809,-0.003797541475340147,-0.012215033173716526,3.0440807247984636,3.380089455852308,-5.1336253133273795,12.634289122691069,-0.16920131663555088,-0.06356954528284119,-9.731210323593176,3.7756194225441306,7.911671020268304,-0.6315678873545321,3.0274064644081053,11.131969318554425,-0.09155806158803764,0.6766499848441666,-0.2007773109522177,-0.060479864149904264,0.08215016964274674,-0.10691293584774243,2011-09-26 13:18:09.033943766,9.740182726
49.037569776103126,8.436830626837498,114.91975394450895,-0.0031677022629297714,0.006758605983304455,3.8001410982463484,5.28556881013384,-7.145623830594503,-4.617982704580912,0.3890831796888423,-0.1843692894256633,-0.7689150734640262,0.32089574138856614,9.823860695456299,0.8426803076710462,-0.5382062518421445,9.53054886599357,0.003310268332560878,0.016564907633525337,0.15219042977613265,-0.04490037034084213,0.5483535406650407,0.10823072610646087,2011-09-26 13:18:09.144014546,9.850253506
49.03328243179165,8.43178108317364,113.58358694524959,0.01354890197328771,-0.027746810434636927,2.9570710522900288,-6.560988664964924,-6.027535050178626,13.519344211908907,-2.2904267350144205,0.08078772732594125,-1.3904967244623634,0.5185245288279535,8.93351310951257,-0.5405424982695888,0.01600952964011791,-3.741465713730154,-0.05440914325314454,0.07716840016498525,0.13824763840248208,0.10574260074867146,0.14459468754498578,0.038520525421128375,2011-09-26 13:18:09.244213231,9.950452191
49.03316533683969,8.432456728785526,115.05402187734337,0.2153928073302597,-0.08668261243806026,2.503224750048326,1.762205038559365,-2.868008190618254,5.640175428801852,0.48413526844794597,0.1522774167237398,0.3332947039045311,0.9159166244479049,10.922255753295188,5.573529852342457,-0.5011869244886817,8.808790031202678,0.021208855543119312,-0.05350608518118026,-0.08757773029577692,0.01608873142009423,-0.08275196180989218,0.3165206631216687,2011-09-26 13:18:09.344041127,10.050280087
49.03216825125274,8.44132116660786,112.90885526780283,0.00623821542243758,0.04063823888714106,2.4210914139222544,3.1732875619605285,-1.573942034491921,10.12015051523484,0.33738279876832145,-0.11276930165047709,-0.12396126265068436,13.855302363581172,9.908343352022268,-5.155827948686121,1.0901874013386423,18.01134783834297,-0.010402604939285971,-0.062381375201605783,0.0550115924598138,0.0013289043090729319,0.07019835762883213,-0.07905182655457992,2011-09-26 13:18:09.453953534,10.160192494
49.03138048981246,8.430671262960034,113.8149149156741,-0.004165632333095191,0.14340838624502886,3.6471952137911146,0.5302514601647219,-9.364245115146161,11.542601493443991,0.2233345282514591,-0.21286827472515243,0.4872594823620535,0.4373058518568602,9.901438396871091,0.33431183286924104,1.894948815127492,7.1753747708670685,-0.12534362074910121,-0.04030800403234388,-0.055332059647908126,-0.013351287468635311,-0.8173761467209053,0.029400044167643635,2011-09-26 13:18:09.554071270,10.260310230
49.033141502750574,8.387499351115453,111.06458607388038,0.05165039307550799,0.0022972279133240767,2.3641496672603806,1.491830863444833,-5.377076249524178,5.661165384978164,0.20218087091125692,0.07045870656556313,-0.11342261033166734,-4.908196961661242,8.713950433726852,-1.0518555770344635,0.1314556826280731,9.96504927247539,0.030636805853169777,0.0394771210614427,0.15844603676503122,0.042325354291959445,0.12327978611022058,-0.06710968436046917,2011-09-26 13:18:09.664080363,10.370319323
49.03556361840675,8.433555777839278,114.81738872188365,-0.0059794760018058515,0.021762854122515413,2.5820354850466343,1.7318156002106417,-9.024164496156095,10.773723065151845,-0.20513641489568174,-0.37153196602666405,-1.041788321702147,0.1429984293829527,8.895973823099135,-0.510413182689259,1.5652928278800595,14.211372207167633,-0.005410334753062959,0.1389664895818637,-0.25169766366465934,-0.011063128652203536,0.04369505283366795,-0.1308939692038558,2011-09-26 13:18:09.764108368,10.470347328
49.03300103893432,8.438051274932981,115.03117351512239,-0.045752407762968864,0.2833816325134245,3.090385409800527,4.476375540436841,-11.474076128494092,13.897589021803256,-0.3584653207916083,-0.04668618555026864,-0.552047646122668,0.5797913873414009,8.965990732625825,-0.18480879750405066,0.5091292801153362,9.610698287231566,0.14501315793966527,-0.13608078312135988,-0.03581077185650851,1.1159634765856055,0.16588098952741703,-0.1660725091711965,2011-09-26 13:18:09.863996931,10.570235891
49.03359739252744,8.445258344359534,113.6842015932684,0.011331298906915897,0.011003082928322635,3.2825440598250024,2.4125580501215893,-12.127475675762598,5.550313468706818,-0.30966344759556985,-0.3821529878664845,-0.6557296215382793,1.918468759108893,10.82243439977449,-0.272005344168974,-0.939247491808612,10.614678917860736,0.05429734627036117,0.07408194447345241,-0.10377148191617223,0.02920772585250872,-0.32925654563240214,-0.4010827011619433,2011-09-26 13:18:09.964015512,10.670254472
49.031656471808525,8.432883071064639,110.92388696219983,0.006404389117018515,0.10348790413789603,2.690687848296253,1.297686520468748,-0.6710180499908596,5.363853876692775,0.12290623836315623,-0.06798489995528813,-2.9217566881732995,-5.041134182330131,10.023511823549228,0.5125211793342636,-1.700724670878721,7.853640784811155,-0.20201242577762066,0.7866383500889508,0.15394900167290188,-0.011960699737617344,-0.08843922810368365,-0.9630350056502203,2011-09-26 13:18:10.074046453,10.780285413
49.03263427156993,8.44576896385893,116.1893671598018,0.0316828142849561,-0.021845296841938134,4.084456224160402,6.788536605364175,-3.814721220678871,4.926387021206402,0.6543096747483612,-0.2608160398943683,-1.3303312512650933,-0.1538927855343182,8.282306575970862,0.6040029469354606,4.207401750530087,11.087585344606902,0.03788233138803283,-0.012105636306133928,0.04705258145895565,-0.03937230754231386,-0.07446865209942848,-0.018212814420288423,2011-09-26 13:18:10.174047807,10.880286767
49.032294756868865,8.44280652460021,114.44089663887617,0.022437781901755598,-0.013711097602218888,2.494097602151763,4.055778381601913,-9.92347333673625,-28.219672561450334,0.3400491671292511,-0.1475028104887959,-1.312764155903717,-0.3333470511468077,8.487902073936553,1.6303703958532887,0.3071583441984121,10.455865823500375,0.0798155923055171,0.0726512799238472,-0.030107925042167447,-0.33697803145130684,0.059702338095739924,-0.11053818767554305,2011-09-26 13:18:10.284126907,10.990365867
49.033701507958924,8.4383957254463,105.91687197406965,-0.008268889960306895,0.03163323974536786,3.0105218903784072,0.6160202049561116,-9.42256142451118,3.6706192206118557,0.37013734084598204,-0.09289880770231199,-0.19129871181956534,-2.898636713193095,11.918192464410117,4.185336716956347,-1.3647764394096464,10.908652619989317,-0.005037199495404326,0.02358537642317759,-0.0594067800699971,0.009175301386764744,-0.0070309583270957935,-0.06095082991791143,2011-09-26 13:18:10.384106856,11.090345816
49.03254637620917,8.43982534799076,114.34992622865566,0.04045308184996023,0.01194796429600702,2.668377777912038,3.247161396836773,-10.784642983748634,-28.349007472628912,0.5762800847262093,0.16167522315203398,0.35942155803457565,-0.06214711546384343,11.092460354308304,-2.059365178524466,-6.184939973073861,9.656844340036534,0.16134102316972626,-0.5397902131754604,0.08464352422871718,-0.0845211160818511,0.12797720412978544,-0.07999331526716025,2011-09-26 13:18:10.484051376,11.190290336
49.03329165459185,8.43299516534226,111.6990369809266,-0.012162968356951765,0.047154302243230306,2.8667855639538167,1.6735220879275534,-4.520982057135381,1.716552162569629,0.5659097218011606,0.10245544365479094,1.3053523310432953,-1.0650679623407422,10.283932072002969,0.6387511416464777,-0.2907184437016483,8.61411236634325,-0.07315981503043864,-0.012547135627453578,0.185446139011015,0.2420338621617789,0.07456700059357009,-0.10493007096410452,2011-09-26 13:18:10.594198234,11.300437194
49.03275241944718,8.44671517749793,116.35641970293878,0.05355517565973063,0.05887616508732164,2.1751954942605947,-1.6149150304812383,-22.507776160036094,7.946488360542608,0.47648722825542467,0.14491314447838832,-1.7008027341929444,0.906300621041507,7.957931810240227,-0.1343005887860363,-0.314175009442581,9.150436055610378,-0.004291694844820029,-0.014676448707861108,0.41619794019020434,0.08542615168826717,0.10853474851564918,0.08621556371516004,2011-09-26 13:18:10.694284274,11.400523234
49.03015496638017,8.444869790927882,113.57002937063413,0.10234082664591257,0.021145270570849906,2.738062562590585,3.9647850920438943,-6.736119414080114,4.729489777233274,-0.15962064158248981,-0.10249088619574923,-1.369051110332251,-6.466600326846869,9.989670006258796,0.780216322484751,0.7831234892466415,9.81264464555761,0.03998499603204901,0.026134124863284144,0.0006323322788703465,0.15242610510952326,0.020444242090597673,0.27356157584833346,2011-09-26 13:18:10.794284994,11.500523954
49.03372216335051,8.430800793923444,115.52327882385973,0.019975036003704285,0.03367682554574263,2.3488681115362495,-0.29281332764397616,2.1752042290229214,7.093976453824434,0.5363965099907713,-0.006123113378705108,3.961233900819996,0.036668753116283676,9.412887886420663,0.07474377932363407,-0.31876087362133326,9.965535743018563,-0.054574378714680086,0.0028440078683660587,-0.0007237805461770414,-0.043550501708234636,-0.6192551609196763,0.0014983291328647579,2011-09-26 13:18:10.904112544,11.610351504
49.033074418647985,8.437533160745174,118.70702745541871,0.01165259058778353,-0.011140889527353258,-1.7141102991319035,-14.439460784811445,-7.116586624242682,2.8924784197351725,0.4088231247468179,0.06383951791279581,3.050860807907058,6.0151209695687,9.11919542162448,-1.3626644981715241,5.992844575869357,8.955689354355751,-0.010958792907967398,-0.03336011166613953,-0.015993761598245233,-0.028859568846852666,-0.16434565049365513,0.06417395898442113,2011-09-26 13:18:11.004063905,11.710302865
49.032653173465896,8.439217339669431,113.20066055329563,0.03301799128239832,0.04748960229754008,5.016738289555173,1.402436354802339,-10.737170824075818,6.057300478841165,-0.20700287526855582,-0.3064207147025755,0.4495335137642039,1.2945606003114705,10.536352714506112,0.021465289094549977,1.4880924541337053,8.507619222219482,-0.03433222599098761,-0.03550648964455307,0.1579678490088227,-0.05643849359705524,0.10957205414543043,-0.16165884526462745,2011-09-26 13:18:11.104149389,11.810388349
49.03272135522403,8.441286152711054,115.00529985367025,0.04541709796447207,0.03090598624605211,2.822591883934642,-0.19365536374909853,-1.3078534441357723,31.588333392329297,-0.21074135274835343,-0.11539397630175886,0.6089134336259715,0.9147143188310538,7.711786154052811,1.6206759933743367,2.8002745169923067,8.496215815853695,0.030385411214971333,-0.058641519422815265,-0.1124900765367724,-0.007662591507717203,-0.1516272830531701,-0.1763442673638768,2011-09-26 13:18:11.214302303,11.920541263
49.03259121167412,8.438866916127477,106.36266124022283,-0.008731330549895375,0.025210008265251934,2.433837580343941,4.432939888558845,-1.7565584846292213,-4.462432845302657,0.5997533819141592,-0.28338742753783425,-0.24580510463121857,-0.9055411640027561,8.102794065360614,0.04159542471975147,0.6109646664762711,9.37207385012728,-0.005641314441375693,-0.005823010916900989,-0.35600549456849784,-0.2779792368218403,0.19592774804418112,0.03975830502134502,2011-09-26 13:18:11.314143700,12.020382660
49.03388091215583,8.434585608534421,112.03744715553951,0.03740446878430081,-0.010990243023802464,2.582112355842216,2.2791240487931694,-4.12330452862119,12.729923678659635,0.3728638100509981,-2.1346432122921053,1.2018346426625623,-1.9499565452968948,11.270656617610335,-0.2785127567946267,1.0842180041555942,11.447666272737575,0.126356581706125,-0.1574879922385929,0.21450052084121485,0.08206731714315993,0.09270397780366058,0.09439169259396435,2011-09-26 13:18:11.424124644,12.130363604
49.03667825494908,8.445454402166456,115.1823018904456,0.06644916858704135,0.012113412858323572,3.0867362373326093,1.1680708084166591,-2.016705594290017,-3.2982231958855825,0.37497054591823514,-0.061175136207324385,2.128870702878867,-0.564818334464726,5.934041600820249,0.5754187031720888,0.4102175643599312,9.922245689984482,-0.06310708169261367,-0.05150573102871595,0.0035451878892072755,0.08747155230511944,-0.24662775279477508,-0.01618511778304426,2011-09-26 13:18:11.524116399,12.230355359
49.03353039607709,8.447815147674014,107.44674241377587,0.012714049476279164,-0.029516990680384735,1.9261784220463902,3.0404764981136436,-16.328616057405753,9.89205119355945,0.2767419617532916,-0.7117594157860947,3.4591958922045722,0.7872095450088756,10.336627869243998,0.7351076890483763,1.1249413046038228,7.63577606143965,-0.024345820945866743,-0.0904991285097976,-0.023377428610063485,0.009253928958005246,-0.1589150404643726,0.14202886860963332,2011-09-26 13:18:11.624130662,12.330369622
49.031709933750996,8.437106113997457,114.30696746648522,-0.04654796620105519,-0.01645764349099463,2.817815546763511,-0.8848522073137051,2.279817838560481,-19.534154244558355,-0.03303204472737173,-0.2262072409373576,0.04023099142549891,1.3551850317138372,9.25982860482359,2.949541387269166,8.249800466031397,12.75895849962334,0.03114275462112437,0.07774172570497681,0.07018542649145112,0.10524289886073024,0.0031579296438333793,0.029577342242121725,2011-09-26 13:18:11.734214871,12.440453831
