lat,lon,alt,roll,pitch,yaw,vn,ve,vf,vl,vu,ax,ay,az,af,al,au,wx,wy,wz,wf,wl,wu,timestamp,rel_time
49.0256254146347,8.35250673579189,110.68360850288208,0.02663238862583285,-0.029608870704070804,-0.8311872731570243,64.82385293709103,6.245192760917082,12.23300099252642,0.10996506305597732,-0.11987165823562,-0.5521040642002106,0.7762611165425217,10.448850409048074,-3.9287934351377802,0.25579687014535946,9.639825526055443,-0.05613886137950151,0.019427662209563382,-0.0935944292310457,0.02055122610353673,0.06534254222243889,-0.5462858765212325,2011-09-26 14:18:15.074973833,0.000000000
49.017609376098434,8.352480947292088,111.83587987723418,-0.004966591834605148,0.032283729715575055,3.1838376555076393,-37.04220198649375,1.2230188231420707,36.5221336099651,-0.08097307644639298,-0.14075841908658593,-0.21526269369641549,-0.20870540803157972,8.793106907281636,11.413814633103708,-2.857729587711375,9.353132115618127,0.026700808894537197,0.11398993864496809,-0.06180366573375824,-0.016261620325666977,-0.018018529996639672,-0.07464379606277526,2011-09-26 14:18:15.174918730,0.099944897
49.01954156573217,8.34798922052652,111.73127712646499,-0.07468787835629102,-0.016148545518413694,-2.2404915004465877,-0.1820681242743003,-1.308359162461067,31.145059821445656,-0.09481135762028498,-0.08703896253351256,-4.1312658879585245,0.4319840190769928,9.528890479479122,-19.95248873670962,0.7953674511788419,9.996648680954321,-0.11472826948254869,0.04661654459236308,-0.027515668072107646,-0.04069565972381891,0.005369047519419377,0.1881029686947399,2011-09-26 14:18:15.284881629,0.209907796
49.01796184585542,8.352494555161243,114.40656065916293,0.03613116666027184,0.039946152210817897,-0.998920184632736,-22.691832309703575,6.264184539173654,37.496016018058185,0.017794946068877056,-0.027493675510982758,-6.918659447203507,0.4207803875233111,10.860818237853639,5.722889938420964,-0.3589572612679654,11.08261416641671,-0.11020187582273164,0.04298741708419916,0.002211707756811303,-0.07951487088782085,0.0587527116806194,0.077977212005333,2011-09-26 14:18:15.384866939,0.309893106
49.019588204632825,8.352304476025152,112.39570381003003,0.03774845132788951,0.0957382298299071,-2.207049046802201,-11.190885825359162,0.20668903774103242,27.967871556583653,-0.11312757035172312,-0.01785389887427964,-1.8211624127728578,0.3644566496639635,10.259137199401254,-10.674013187831857,-1.5130279742973467,10.10577706633782,-0.0928607870121953,0.008398101794757699,-0.4588533788737829,0.013913686070335562,8.125414539736299e-05,-0.3735319284446123,2011-09-26 14:18:15.484850174,0.409876341
49.01866148863271,8.350785547358532,112.48324422621691,0.12874011844156077,-0.1848878130019638,-1.81520732562297,5.795863803486821,43.89908825648894,20.611946235065716,0.052964709762930134,0.03814626160099576,1.4767092542411944,-2.6325672300724614,10.536756820256544,-9.729487495847021,-2.0298802339157778,5.03091285049322,0.008501483916397863,-0.03452500067592631,-0.038908677634484606,-0.03968141181123541,0.07338285375131763,0.07045033117670617,2011-09-26 14:18:15.594974021,0.520000188
49.01852628532816,8.352767828751073,111.9936257365607,0.12951642125111268,-0.006635333782452209,-1.4553076205895712,-13.796395366423837,2.6396499707134273,3.7008976432993332,-0.40385297273950377,-0.16735494169470183,2.4470922658265755,0.1862966443814636,10.236184807699152,-0.8001876729590818,0.867513292814427,10.677493263302223,0.02434145613121217,0.002020165353003461,0.13715647000096842,0.06469847775929775,0.0075567086764919585,-0.011180268258215895,2011-09-26 14:18:15.694868121,0.619894288
49.01944798511839,8.352722938690698,108.93998867195582,0.08455768027013716,0.025356819380764575,-2.287860493796025,-7.261572292530785,20.006510286523245,-1.607188883113345,-1.1536198693169892,0.06411587985176113,0.3802129128726782,-2.2050382063042506,10.383342207940677,-10.753580767643092,9.864162106663873,10.357170638097417,0.018328582534182576,-0.001927775708789237,0.06777405369743697,-0.00867743808012852,0.05780729645587489,0.09630556972251769,2011-09-26 14:18:15.794886289,0.719912456
49.01584930902616,8.35201686671321,111.86184953978788,0.04699114424239373,0.026520929648899308,-1.4020705993714067,-9.628439057174235,7.384044228657276,10.807380320521881,0.2527325187314547,0.10255330019816511,5.672597211721596,-1.415364358679534,10.568565396610474,-2.8179632299339623,-8.548892848509828,9.704960888893606,-0.020301930951594948,-0.06848819939614866,-0.03716876003909954,0.07313687948228989,-0.023645435645112838,-0.22477624940200636,2011-09-26 14:18:15.904871277,0.829897444
49.018500526645205,8.353500917371981,112.08431238888548,0.04707271608073348,0.02054683988116991,-1.424312432387254,6.020015731585765,16.405295971013047,16.206392499115395,0.061003809786916594,-0.1723456167562647,-3.855104222138431,2.1387257606954204,10.511438370969469,0.12165783914827777,1.1953277271591798,11.694808469022782,0.006947846939542242,0.057074621186808665,-0.05728713943322247,0.010268017148469012,0.171562787275424,-0.054551846624935174,2011-09-26 14:18:16.004937951,0.929964118
49.019385155244976,8.353182697234045,114.24952718349546,-0.033861497491043904,0.0428137643013969,-4.4569540821901095,-8.063286756124093,11.313855306908469,13.21516919700858,0.04441493916096552,0.014141374696621158,7.150908907935955,-1.1528085234572927,9.809599249079403,-13.369989707518146,-2.2642028766417,9.472739218245021,0.04691807274528061,0.06676314932022359,-0.08355878535769033,0.021215453201537938,-0.015452063851321944,0.06159109936385669,2011-09-26 14:18:16.105096350,1.030122517
49.01868071611172,8.352573745957265,113.3660576445572,-0.02129949401437868,0.009146077284617922,-1.5936687890505699,-19.173723124881125,-0.2147637162201388,12.38081575341707,-0.008756872408906281,0.29772625553646886,-2.921883888966716,0.40406673473484966,10.26402026817208,-9.400204480727735,0.8793455751316421,4.676749797820358,-0.3032506167884501,-0.13295094237649666,0.1434112308520142,-0.02547599803190735,-0.05349708962777882,-0.07336277942352058,2011-09-26 14:18:16.214890474,1.139916641
49.01453245548411,8.351739036734175,113.38150188454513,0.04654599304488885,0.030174790147495065,-1.1196787144272402,-1.8313486316099095,-6.269993400038163,9.942700144293658,-0.8179312294449399,-0.020470072810500624,-4.145355302795991,0.8717779415311514,8.212044322259365,-19.709687666395357,0.24483223766223627,7.44024257635064,-0.008536873293434727,-0.03020359920133849,-0.030249561784615638,-0.044752080116109594,-0.009735071119730425,-0.34114998347587777,2011-09-26 14:18:16.314898014,1.239924181
49.01958045874518,8.352743243067438,112.0462717642551,0.10758972616348284,-0.012810672022383094,-0.9817548048073085,-47.40878488259126,2.648142798371711,-13.75030080177601,0.12283224026467839,-0.20068387222645007,-1.7886811993780383,1.4798971615812775,10.258364494734735,0.32342168741585575,0.7668543708829086,12.787136069261836,0.0021725889279157716,-0.052653121512638325,-0.15342444730470478,0.021231628003423802,0.01411177680867597,-0.15778305444306234,2011-09-26 14:18:16.414925163,1.339951330
49.019279834897695,8.354045180487745,114.06500171536703,0.008792604528833976,0.018615464414078083,-1.1122043572876141,-13.414939109933409,14.043525694169123,30.92026033081855,-0.10584428982338465,-0.003222960182987473,-3.069326230446891,1.0400756762764032,10.31098479205272,-3.235870913163132,-0.6148974389139782,9.613527064237639,-0.0204435896482266,-0.03576436919035311,-0.0462382976570167,0.0072335600667551075,-0.008958759342002255,-0.02827748197673076,2011-09-26 14:18:16.524910110,1.449936277
49.01700170586488,8.352989676726711,113.46946223041644,-0.010027822817361094,0.013118296596424753,-2.346095036931362,-11.06241037888259,11.398591810418532,-130.03356332248737,-0.06399966269488698,-0.05303714218689881,19.4980899772357,0.7517125979229823,10.983773393924341,0.05803551189790673,-2.415905638675216,9.778658111957622,-0.10158381951094725,0.1027621920719584,0.23767022609758098,-0.20032906521808588,0.010413700815213374,-0.023527671639928666,2011-09-26 14:18:16.624968028,1.549994195
49.020720534350616,8.352155354756826,114.97611018868717,0.008782400431851568,0.010082035831304804,-0.8698623020678385,4.276334182885991,21.210220516007382,5.296836336886059,0.042136355631308464,0.1058863767764626,0.17128673316250542,1.3654168915379725,8.788712963547459,0.977452964058545,-2.2718087507348224,9.713561406093563,0.0068482164760267465,0.01835815787098283,0.3281167734843371,0.31927047002079784,-0.014435425305558275,0.11244920971966899,2011-09-26 14:18:16.724986785,1.650012952
49.018009894666726,8.35322972257428,112.59780123099449,-0.008241969202036063,0.022570344425819008,-1.8787950552632804,-8.809655185229486,11.830632726108878,16.472858899964432,-0.022136654381946407,0.09213945428022557,2.6740714708204685,0.33186981150240835,8.492828427885113,1.1302184614621917,2.1243544619659693,9.862235074404756,0.03765570267101903,0.008489260620535243,-0.1540669203361129,-0.02680902202844604,-0.001132805339666705,-0.0061685291185779,2011-09-26 14:18:16.834947476,1.759973643
49.019271721202344,8.352547448325435,112.58316951466715,0.1647176106663523,0.0074272855643365355,-6.216158553029789,-41.0560758857749,8.744331308300563,-3.1698475662560686,-0.15619094976685097,0.11889871214310463,2.009090043644459,0.11426569454522253,9.412246212453415,2.429016389881423,-0.4997093241186019,9.57987973847821,-0.270089461036233,-0.03327435064098908,0.09940546187855681,-0.03792047997242762,-0.04504192748841474,0.11161828808078054,2011-09-26 14:18:16.934947539,1.859973706
49.01696019712679,8.3525128518504,114.03445546569004,-0.040550206651058664,0.0022827036936959606,-5.410978786694674,27.70148935876276,-1.8538488314656938,6.540164706653728,0.16697603605769992,-0.11380277186633764,0.9949300625764126,0.12257934517932915,9.631071568742534,-1.3053770597944712,-3.0596115362913903,10.352418677072329,0.009151504946199212,0.019074059266298578,-0.0150451220691264,-0.047674468167894876,-0.06001496529210947,0.11717017000355393,2011-09-26 14:18:17.034933414,1.959959581
49.01658751354689,8.352717162816994,114.06655480309858,0.18724952406623047,-0.015958502755381958,-3.200553515337472,-15.824908215536812,5.081761697961543,1.264379591099436,0.14992409754716896,-0.15937734303746467,-0.5168234816219691,0.17432492761028573,10.149218211733245,1.2187266926983458,0.6593230194683743,9.683534130945178,0.011831595117849623,-0.013017465386707002,-0.6427563686653751,-0.012564023606310367,-0.22377356058844222,-0.12422556590680436,2011-09-26 14:18:17.144998329,2.070024496
49.01387120520305,8.352674280373481,113.22073867542427,-0.0535011182866129,0.035335325403349924,-1.6601848122166118,-14.388484830849787,0.9889594121858658,6.6617969017984615,-0.11371402846090178,0.04638537262257219,-1.8012545735427234,3.1273292723236135,10.760384780009295,-7.026775464253051,-0.611612928864368,9.599740442156957,0.008134785303281109,0.006458793114505272,0.10524656519404023,0.03995767792604024,0.017661635873908108,0.02256916310653413,2011-09-26 14:18:17.244977563,2.170003730
49.015776232884384,8.352970069385728,112.74513371908238,0.2739875131487426,0.0264446697012191,-2.2409276854243427,-12.515351286104837,11.27444470569253,2.9580226566894847,0.01428705245864308,0.04324598558950549,3.5112186838160677,2.5307329820377924,10.20448701989903,4.40375341741444,1.2297978565394303,8.94475237213485,-0.014929143812212803,0.39826415977589086,0.018570484327444174,0.015008182535095227,0.009706584967101115,0.16154738127636006,2011-09-26 14:18:17.344944482,2.269970649
49.00296567034178,8.351369497154971,118.64913551519383,0.015556386818496748,0.008472699204093052,-0.9027544916896517,0.37969350414303804,6.430600824743797,25.579150096241776,0.617799524584207,0.13030425951846059,-2.755476827600548,-0.4693949833118281,8.887807878376789,-3.318478985286502,-0.4453084622181739,9.393665753552545,0.06918431827738471,-0.00987559003982185,0.0662721538407177,0.014556166192184673,0.083689442520571,-0.16237163298346732,2011-09-26 14:18:17.454984761,2.380010928
49.01790237470446,8.35245704321148,114.0658438076846,0.08272339058941944,0.03163489804516707,-1.6099644923609207,-12.367917342404196,-4.8166999328473405,29.296921545135202,-0.11927256952053224,0.046187551991019635,-3.3806722364706907,0.4607275052143919,8.782951085617729,1.1695351339048763,4.921453017222268,9.21616849483031,0.008827216768267643,0.07414891305197469,-0.03255209835931003,0.026772431922159393,0.06152774318487643,0.5650873025153379,2011-09-26 14:18:17.554980557,2.480006724
49.018445271330314,8.352710380228768,113.60246792325582,0.3846280691173528,0.04806500547605245,-1.2424774004809336,-10.266693906713511,4.925819834132194,14.714693290045567,-0.07972047761750814,-0.2010253226489156,3.194985051973979,-1.342610014276034,8.064999153893607,-2.576580118032864,3.3498920543691013,6.878745169970654,-0.007749911296947647,-0.018116182645940067,0.022465170388397643,0.005556146944248534,-0.06197615839160956,1.4993858168349963,2011-09-26 14:18:17.654984261,2.580010428
49.0155301823682,8.351853537010745,112.0957662405133,0.08513830132683987,-0.020495814736119878,0.314666500377055,-9.732139771248656,-22.737676009664003,10.40606309204091,0.3445784155212471,-0.11160597349135895,2.733266291270433,3.2056316094248234,10.447089817835765,-2.9002232156509047,-0.6780141719379441,10.297420477381173,0.01908180294577531,-0.08652000033662269,-0.043644471814805234,0.043532092788173944,0.05617614187104613,-0.005661758085588491,2011-09-26 14:18:17.764949645,2.689975812
49.02013928866907,8.35141736540927,114.54628597611858,0.2250269585656475,0.027576655616607368,-1.4253442618047345,-26.140395912683942,3.767604261777789,31.217941637292206,-0.4064321288788729,-0.04078303566459676,1.1792991587803727,-2.6995948151145392,11.432490765341301,0.8856670041449671,0.521161702326487,10.567048746764858,-0.08174061832263267,-0.11115115359884983,-0.20001963857002963,-0.03942917150634796,-0.058928793277438093,-0.05618734643553182,2011-09-26 14:18:17.865018785,2.790044952
49.01854568554306,8.352938971990836,113.51311498025245,0.08865746362840146,0.02760629450112993,-0.47694401785119833,-24.805403054787117,-14.081947152397056,20.2169735781737,-0.07229312528230915,0.12165281624609388,-4.362821895785047,6.352232958601709,10.118361478180764,-3.899448236037902,-2.984557254589026,11.780023945183558,0.00537330844633189,-0.20095320022876823,0.0014721844794667257,0.029996954301245524,-0.014757282231867478,-0.02425898722361842,2011-09-26 14:18:17.974988196,2.900014363
49.01848676516452,8.352152075300122,113.9913873234748,-0.02015004265490855,0.08675009166428402,-3.4485542784329115,-9.034624479718063,13.842804350704906,20.078319074195,0.11647017466756526,0.19366146768314935,1.1823815362936587,-0.9226753977050749,8.933542720589127,1.0277101197407001,0.7772365115681895,9.586708069799744,-0.06078768105965783,0.07484170424087913,0.1466269844855706,0.057518611125644145,-0.04084575026690167,-0.16485391165673485,2011-09-26 14:18:18.075188993,3.000215160
49.01472218385955,8.352759817122365,116.16554241044757,0.05906440662972601,-0.00820494386030129,-1.2229586365653102,-21.015825043455735,4.565163418369362,-8.81193252611222,-0.25907159352185766,0.17918089748785476,-0.17787439753683734,-1.9332311884353772,13.737445137253811,-4.150609828098087,-1.1525811881011587,10.676538578072218,-0.03777687558620443,-0.013602706762555046,0.026240434776377386,0.014297086546123485,-0.010492838806179274,0.44185774801303396,2011-09-26 14:18:18.175041028,3.100067195
49.01496000214961,8.35266141934994,112.56251979307903,0.04775204965376187,0.09336745492694216,-0.34659169951921764,-23.87004941586646,12.109340423173212,39.73056589861782,-0.5069154411038133,-0.015648839928963945,4.6817523549363145,-0.17641284027160004,9.813894091367727,-0.0037113259616874117,1.4374231918122369,10.388695394953833,0.042057954300456654,-0.01414058342589649,-0.1627331331381939,0.027855704230310942,0.1858498576964991,0.15254895702043977,2011-09-26 14:18:18.274983897,3.200010064
49.01642120185095,8.355195688160999,112.15700487319512,0.018647843570080005,0.19959684116408236,-2.3246647425723337,-11.275488340552213,-3.510339201236045,3.6876851570284206,0.026085425731371417,-0.03848612998966475,-14.598419514530518,-0.039404940754086515,8.659001891924726,-0.10037573194384475,1.804477830792564,8.828824095162249,-0.022413829723645723,-0.011161727386075494,-0.10078619077742375,0.05972826285318314,0.08926793454936603,-0.07230981111089421,2011-09-26 14:18:18.384960923,3.309987090
49.014283245010446,8.352880982677044,114.59295153239655,0.0683411963748663,0.04292999045223726,-1.060114186943685,-16.755455200960274,3.7722302438098376,9.762732076960646,0.09015630344441906,-0.5080206756662515,-0.4067262805384983,0.8306810353472034,10.470121123228996,-2.132174229352932,-2.5927301572469306,13.023101301135913,0.08777308885976036,-0.04418373110785,-0.9769435623212008,0.0196737159015865,-0.009372434155378013,-0.035047078178175005,2011-09-26 14:18:18.484985500,3.410011667
49.01570304505296,8.355467050383993,115.86861508399197,0.031889139087645096,0.01024667763727415,-1.044238997151452,-27.251895701557487,7.846054506811033,6.014500493925184,0.10592505376730921,-0.03174721860008151,-4.464611218004531,2.3048335313494817,9.36763136495108,0.5985306995938484,-1.4021513361331306,10.013077780063151,-0.11730623207759606,0.042875602452117086,-0.15863826563398134,-0.046722556292202726,-0.033473430001112164,-1.4189195486253805,2011-09-26 14:18:18.585080490,3.510106657
49.01730704018416,8.353223036726376,112.63042481788683,0.07739980326019473,0.03082096686765765,-1.5756356349407812,19.750061010157616,2.74735602485156,22.40412484882596,-0.10386077799586128,0.00874989423256187,-0.42521138127346036,0.7729974873812074,8.136337426181747,2.0660006079314694,-1.0769250706878442,9.484530162839725,0.03922485247492444,-0.05325313025599113,-0.08493248170119741,0.010089152344601914,0.00018301730174619286,0.02605646824984506,2011-09-26 14:18:18.695044876,3.620071043
49.01714727479657,8.352789962019889,113.2668375542103,-0.003982206143408842,0.011322944991207519,-1.4531949033315927,-5.252191923961649,-0.6687454688026664,-5.176967251189954,0.09133869221370902,-0.1213298442661648,0.28344700574998366,-0.6626199561388544,12.388234883656917,-0.48393678074454716,0.7357909486660263,12.278741391960082,0.05249921404265309,-0.15517233720453477,0.044321749951913486,-0.08744418942741221,-0.017423740597848382,-0.04536941224585887,2011-09-26 14:18:18.795005809,3.720031976
49.01639949987929,8.353488669107469,111.76417180195037,0.1060664574274761,0.005285755564075148,0.018453609282974348,-16.80157091296237,10.247963568341218,-27.101033765907758,-0.07031430249909244,-0.54079734517884,-1.7599067491112765,1.3714654650237614,10.162922125681359,0.0008311177656242508,1.117882869891253,10.48088330912293,0.02665879749801048,0.005804124064709464,0.054283599306496844,0.062413676422599554,-0.05449451655508221,0.07036531538843219,2011-09-26 14:18:18.895044988,3.820071155
49.00088617409366,8.353038674516847,112.38746020283534,0.10480699594162499,0.08884047437788103,-1.2528088882174087,3.702979748251261,17.238864104171615,34.920719552293896,0.04870430811865614,0.014461962589589933,-15.737893492101328,2.1765653406572283,9.567333710098966,-1.3040165968858135,0.2413616243583342,11.61461019621665,-0.02637079654787178,-0.0369259683962631,0.09076408924554767,-0.0029027561334950755,0.06307456871044645,0.08020335153487963,2011-09-26 14:18:19.005010018,3.930036185
49.03006549318736,8.352285662582428,113.6064671188709,-0.019532768032407118,0.05367491071948445,-2.140139856743427,-25.553187094992463,-0.21255614770915532,27.360382884721766,-0.052676588718015394,0.08901859733213283,-0.00843615465339037,-1.2273827167123765,9.848655831162914,-5.670032807783493,2.4517102836179046,12.83735812073198,-0.10235712960975663,-0.04757517760818562,0.018371945950301866,-0.05934693488496129,-0.01890253120982524,-0.6416380588311685,2011-09-26 14:18:19.105248051,4.030274218
49.018152484603554,8.352809249478556,112.89767444253425,-0.03671797849742273,0.015380796767141788,-0.989864826871939,-8.711230388457752,51.205865748382614,25.709439939100513,0.0020462501935308436,0.16770022146280178,-12.30993642147912,0.1424236304164167,10.40948270413841,0.07015661273067797,1.6546594961148315,10.723332139612483,-0.00435974651100457,0.024518977060746766,0.01294214210828614,-0.04092566693804713,-0.13538425985327054,0.07557771100070869,2011-09-26 14:18:19.205016801,4.130042968
49.01778984764327,8.353414457747162,113.71979466930867,0.04182502618790674,-0.004239010991877616,-1.1625066755843056,57.803642493675675,11.831328177868052,41.671320592929845,-0.0049972014154933825,0.0687012759961328,-13.482195488392778,0.586127045670771,9.641037270706605,2.1507330372874334,-0.6243259979905801,10.146764916452543,0.06773068278454594,-0.18175446081502952,0.20337688461909514,-0.0084383173806288,0.02642708542242116,-0.12470680641869734,2011-09-26 14:18:19.315010684,4.240036851
49.01898588075124,8.352787256795274,112.3375371550733,-0.01653410097833747,-0.022933502990599923,-0.2806509856989513,-3.7553872964557318,18.22553173222041,23.739953342080376,0.04306695343277582,0.25778616076633265,-0.3786131414631436,1.829758619667968,7.714087060410243,1.1096402955572353,1.2955835675601108,6.980978489025633,-0.02287351944033474,-0.04453123583890523,0.08935828900264282,0.0040096215122994395,0.0026187546923298203,0.12132380721507406,2011-09-26 14:18:19.415057445,4.340083612
49.01763119110211,8.353117611639279,112.96196041386278,0.03388760397894692,0.03356068378549942,-1.0510443712700348,-25.14048352261022,5.205367121761676,38.81796156311203,0.0041359157556344825,0.17545597636504792,-2.895143991327182,-0.37262221177726573,9.797097652040238,-3.8115315389593616,-4.2981347436655515,11.075874056491905,0.004535362579159272,0.18369044838132317,-0.1851903987924756,0.001860247081969557,0.14533715849578768,0.010591750235809117,2011-09-26 14:18:19.515044626,4.440070793
49.0188466522053,8.353224072933333,113.02735287839467,0.005132181164426194,-0.0017701749022803557,-0.7935019423453569,-29.486991732811425,12.116778074006028,17.26813816287529,-0.05037220373138373,0.007034896607052275,1.560525607807012,0.9109918784296158,8.562846023525474,-4.342216795319882,-1.1436801876687106,10.716878572069815,0.02651605735151539,-0.027022361402432176,-0.1568068660932527,0.02534849610651357,-0.3515221187951943,-0.14917297001238852,2011-09-26 14:18:19.625134127,4.550160294
49.01630006011763,8.353255667816363,111.72442539138773,0.09794916315462118,-0.02076680480904499,0.7817190701556471,-56.3363942386887,14.728551476716909,22.897035862358297,-0.04615008704035446,0.3573245689235502,-0.19585961129257135,5.223933062614795,7.073090959894399,-14.415166138379247,-1.5076762771548797,9.454976117452174,0.003106014088901705,-0.027053295451732334,-0.13291344333316454,-0.07690124958657733,0.294280739464038,0.0007747366950856416,2011-09-26 14:18:19.725065411,4.650091578
49.01789212049284,8.353080293625338,113.77957322011788,0.31245780642577675,0.049809698126399654,-1.907748622431391,29.70734490001731,45.243338515250784,-4.261484752984888,-0.7846357088144983,-0.008239831389344289,25.960638240366148,2.305160052068896,12.335510573693288,1.9529329691194008,8.853522315777951,10.25652478262864,0.07399843423352186,0.020267622574478852,-0.107415352215633,-0.03329799323337204,-0.0012920880096769806,-0.7142694197685978,2011-09-26 14:18:19.825048689,4.750074856
49.01566868777733,8.35415436343699,112.75933381425715,0.05097333617419014,0.020652572329004665,-0.0565981133891047,-25.00805857924417,10.740406275461893,22.313469602441536,0.16201524637374748,0.02997511183036226,2.082203765069224,0.601042564192188,9.572494398750832,-1.593296288897745,-0.3388616509697834,2.0720848369267983,0.07205005584817145,-0.29765843186103336,0.012406014295260583,0.01327373001237847,-0.05641239424232912,-0.1338526176366115,2011-09-26 14:18:19.935037597,4.860063764
49.01814236143095,8.352481723803585,112.98941726090764,-0.02551999497681052,0.014056061166277481,-2.744617570118117,-15.204138739944284,9.170332484280628,3.0442124467835114,-0.12524471680373012,-0.0752213822696735,-2.5265609486762366,-1.4565686142074497,9.824500097065926,-0.9877558957644722,0.08059802361803538,19.02822372511265,-0.06325214337236143,0.03919341438838303,0.07759274825227504,0.03578174376218335,0.20354523132358554,-0.20248435063460535,2011-09-26 14:18:20.035065031,4.960091198
49.01784836258955,8.352922902604929,112.51676372167367,-0.001726152696457893,0.024493517519586207,-1.2344994574136718,-15.871185902048248,5.384118012066697,16.616872751477977,-0.0872762804589437,0.05715242425094374,7.189713870573113,-5.5508724736294734,9.014525081228726,-3.5219736369846264,1.0000665702332783,8.258437992319108,-0.03233383058072095,0.05178881507840671,-0.02708475533140982,0.006585920629471948,0.02500592503920159,-0.022591735474390903,2011-09-26 14:18:20.135118574,5.060144741
49.013186713617046,8.353632635483802,106.24952268992963,-0.3794778727620552,-0.0032040470071966805,-0.44087804637824257,-11.825453931615938,7.4665029138796575,-3.6535830339229456,0.076043294258252,0.4713475752405496,21.895102721227666,-2.5010770532186077,10.274996353288486,-0.24052833270244744,-0.056558081796834275,9.985971487757107,-0.09090638877913582,0.03823521272820645,0.02666785757896667,-0.015438748494979757,0.055066655103675005,-0.9305507823669129,2011-09-26 14:18:20.245099447,5.170125614
49.017414257228104,8.352935386766902,114.87208169807856,0.04460487054754464,0.027516646469532505,-0.7221193590434152,17.2502999952568,6.647108571449669,41.70834732237133,-0.14502843746023453,0.07971293193123899,3.226808012020713,-0.1264608332932186,8.814735823222387,-0.1355567304638694,0.2944256051416023,9.67733028680753,-0.05536644188056755,0.016656179772932902,0.048900506188484676,0.14101357277106394,0.026084823651083604,-0.05162387649655419,2011-09-26 14:18:20.345068474,5.270094641
49.029408993585406,8.352710266109765,112.60728560307435,0.07709755011036316,0.040504458813055144,-1.4767644391936172,12.33579029507021,10.245946747156022,22.23350516846999,-0.08108917482460662,0.14476340674576396,1.2574826941956714,0.18648013905919225,4.572157714299647,2.165390061686597,1.2010834455091626,9.969421819108772,0.01650002591061424,0.07157972184572353,0.2561074641158568,-0.016343227583949765,0.19462332450600572,0.12616568971648748,2011-09-26 14:18:20.445056725,5.370082892
49.01498391161962,8.353028912823657,113.36152908368535,0.11395274530102424,0.010208778658173653,-0.20419270141396573,-7.731386818537695,-1.085652122653232,-1.029006106094224,-0.12909900047425685,0.09821368827824618,-15.458205986328418,0.5691343362182871,9.831971018424705,-4.252473338725554,0.4965269901104805,9.090955051744995,0.007889428563099597,0.04273265804328945,-0.10676577517289278,-0.2593339912949709,0.007045184982196117,0.15903084258142444,2011-09-26 14:18:20.555077031,5.480103198
49.01626910836566,8.35585709170423,112.63492500935894,0.011868678689613665,0.04005487159235324,-3.879493615656899,-60.154182107319585,-74.61603558692292,-55.183376163226086,0.13058891647648632,0.23910527462382417,6.392691813395208,-0.9941331484494832,9.306850219530494,-0.9293807422509834,0.30294793314830143,9.043833858393688,-0.04828080787813647,0.0016886930367438066,-0.01662228131244748,0.022339229224920428,0.004401788829700718,-0.07175077620352496,2011-09-26 14:18:20.655130537,5.580156704
49.01780359704855,8.35282701647586,120.18357920903348,0.004480159094709474,0.039665084305808035,-1.0113904846292772,-25.25719594624309,8.490218080899247,-14.907133218607788,-0.21945061373432634,0.11697936686534256,-2.733604132850056,0.09726224593797694,6.789506706723545,-20.8339519703284,1.3234850585678644,9.765534401505427,-0.017471545357592565,-0.047040582574734466,0.25921324619779934,-0.018422607247370087,-0.004489940621964234,-0.12262456636090524,2011-09-26 14:18:20.755089219,5.680115386
49.01769554878127,8.353116193045718,114.08039622571549,0.00471969009140686,0.026798439204284596,0.2927304453641639,5.224974665455994,-59.44250392957413,-0.8763546425283764,-0.11851571822037398,-0.24424578118081536,9.016088699689647,1.5785125545171228,9.126938316241784,-18.230268372267886,-1.8101962565923844,9.424826041177752,-0.036083551887403455,0.014208501138746282,0.06772090649382337,-0.028870183619803612,0.2542081968578514,-0.100860722271006,2011-09-26 14:18:20.865101532,5.790127699
49.0247582923789,8.35357851228226,112.97315758949902,0.044337202473666196,-0.048608865019985965,-0.008435627342489038,1.2952935164863888,2.6436660579826556,24.49597383505639,-0.16254668193574828,-0.24155322774575205,13.004861523932012,1.5457414940631282,9.504797351522171,-1.8125331095348327,-0.392455762076784,9.542548862191481,0.07969068682509857,0.06513422668151597,0.0016444255044760978,0.03870382945594871,-0.06234973417477792,0.03417795072264314,2011-09-26 14:18:20.965245141,5.890271308
49.01269976497361,8.353541936288867,112.28145061467569,0.09680932714161031,0.02864102258102765,-5.615759164074589,-54.192726030885716,8.25543196819049,13.789849212249774,-0.032605600359919794,-0.24084974590763342,-2.185428499193183,-2.1558235441886726,8.404561749327264,-0.7001825200793192,1.7715052264263966,10.16828084574136,-0.01883715152298702,-0.022745002034388947,-0.28813199104968773,-0.03881085969710985,0.06410239483037396,-1.3693411084633245,2011-09-26 14:18:21.065240612,5.990266779
49.02149400391543,8.352446587128126,114.23397745639821,5.569616574218478e-05,0.04214127009481245,-2.440382016207592,-2.7378377367860214,7.941127461574611,1.9750191317218828,-0.08836100844246202,1.2268201007811264,0.3572614680230498,-10.37038864904434,9.023177275341341,-0.8376459801278473,-1.4530701568148787,10.16571012540647,-0.024171877684252354,-0.04405210859667576,-0.019433616819076165,-0.051139912249720185,0.011624825739142364,0.0011088263869517972,2011-09-26 14:18:21.175135572,6.100161739
49.01187894512891,8.35335652448463,114.04098629065831,0.006316158000551148,-0.060137874137731126,-1.2624696513065488,-3.113901388063926,6.7228969565818195,-26.07612841260282,-0.09577681646847833,-0.0929798547692764,-2.2236840854165663,-5.567080230666009,11.502482266256216,-2.059180051181845,0.24007278202162363,10.179674879485969,-0.09499514169738343,-0.01850531783586921,-0.22421050818481955,-0.13201798527257239,-0.2691561839468126,-0.013530395278291488,2011-09-26 14:18:21.275127559,6.200153726
49.02025502050332,8.351689818476647,113.47227278724279,-0.2521096887694697,0.04874224187835323,-2.471812380726259,-17.949643843648374,-22.87981246167466,2.099358241441518,0.1288304743526138,0.021326704588112404,-30.63442478091072,-1.1540803452958173,9.948415272823718,3.651485350503189,-1.8606665736508536,10.453459303579528,-0.03086018538476197,0.04607366371007941,0.11120860088042288,0.011562939003021282,0.06431639067433387,-0.09329972384655241,2011-09-26 14:18:21.385124772,6.310150939
49.01825014169168,8.35370055396555,113.87345892059994,-0.07172545808179931,0.04307574733673515,-0.655684301823255,65.552229077287,-6.0949800657562205,8.487224039097816,0.36170480559004575,0.02827962731805197,-0.3543022853406643,-2.0969320762737804,9.587296518701692,-1.139061500577301,-0.257739645615887,9.423795785826211,0.16350014541149233,0.013777753468339017,-0.15834282165996205,-0.00012697078360564404,-0.04869223741343954,0.04343000165874428,2011-09-26 14:18:21.485152402,6.410178569
49.014842467900316,8.353071718918065,112.60036664685038,0.10210035705629597,-0.003696069990338271,-4.986771484004817,-27.077157287261073,8.840735690837272,9.5338248218931,-0.17458671920415592,-0.06439442675688596,-0.7402654459312031,-2.1135531281088,10.88786046876063,2.1548769710429685,1.8122577261142052,9.296241606720411,-0.05472146521786675,-0.016732999612273772,-0.08327916749904184,0.0496832489842825,0.04901120148449948,0.008893979586091838,2011-09-26 14:18:21.585398425,6.510424592
49.01736508931035,8.352938210931983,118.64836420893339,0.08607505353840562,0.002183386437154643,-8.984965427439446,6.437339556239923,11.25901859909357,25.849985054452418,0.09376623865133685,-0.053759138850165464,-14.841128133547267,0.38238821718237703,10.281781847706268,-0.3443460794410143,0.054848693054499464,9.68856098633704,-0.0747498906828325,0.060989665291167935,-0.0767494937200467,0.06289778107214644,0.07227094413534664,-0.1402018421466979,2011-09-26 14:18:21.695145500,6.620171667
49.01630691226807,8.353220048251561,112.6726408356625,-0.010067512080274725,0.05447163775679836,-0.3299771260206251,-12.062883546804818,-59.35235361749827,-1.7077931962483213,0.11432321193516809,0.23979319563039875,-3.0267908470279985,6.119353542925299,9.614931870680902,1.0697983523493066,-0.5686194341449431,6.63688427392672,-0.038727068484177715,0.03439031259677389,-0.1867732705808096,0.2533719831242148,0.051655747042224434,0.019822021434364234,2011-09-26 14:18:21.795141523,6.720167690
49.01630278639712,8.35355601362168,112.84302859492016,0.0028970572404106373,-0.0268543562649932,0.28479661599756145,-42.95245607282132,4.6819620367084696,4.55937333577546,-0.20034959692777676,0.06341205902560595,-0.43576180453369473,-0.3235885433268487,9.236445421184433,0.541303245684901,0.16615261013770954,10.047004496594653,0.004335846869374627,-0.00627523768990121,-0.02130104880862843,0.37751698030710346,0.025884063640234788,-0.37406361464127247,2011-09-26 14:18:21.895177310,6.820203477
49.01745648039001,8.355499220261006,120.47119434228922,-0.17553491511160527,0.003635631086059358,-1.272350661487791,9.968792792477425,-4.134084776421147,32.27465723418854,-0.11467041006528864,-0.2079996865592557,3.341520843716241,-0.9549776028649491,8.69105217315872,-28.823020020725128,0.2689251402068076,8.318473979379537,0.018747844754085766,-0.013738507115272365,-0.050671701438842844,-0.004640807004483144,0.08697908431836114,-0.2227295687921808,2011-09-26 14:18:21.995120023,6.920146190
49.02201211772757,8.353536781600832,114.61729773572527,0.008856377345866386,0.007694076377416424,-1.463872978013046,-4.445349469610093,-1.8839656074146283,28.367869907685215,0.06114806804574159,-0.9852178860962699,-21.816860080486276,0.4809430525113234,5.760452522424923,3.072094334769919,-1.8021630882227329,14.042616216836437,0.07490311563524349,0.000747514438697867,-0.08697823663068095,0.006106132932963984,0.17624955118615876,0.0022041511382615703,2011-09-26 14:18:22.105289887,7.030316054
49.01584151189921,8.352990068475416,110.13103594233242,0.06192528414814928,0.17776832825134958,1.2285107899358283,-6.172321951856954,2.820650460166819,50.05880261616352,-0.2273428822327328,-0.26174293892417144,7.346744286797333,0.6347500027254207,9.530193828143082,2.8855930551206384,-1.3241920516996193,14.594872824542644,0.09523909897892714,0.04948257242545786,-0.1525177923953094,-0.05090372871799893,-0.08633651569123531,-0.1573975803349701,2011-09-26 14:18:22.205133368,7.130159535
49.01994095337909,8.35330692634048,112.91143966034774,0.00950216172182021,0.017035158307408392,-1.6905509402905223,-11.473279840388862,6.254320038375736,-8.018451054122387,-0.15962212032763617,-0.1985014218623502,-0.07364928900454087,0.5392510740002421,9.665927197495964,-0.6961558619527537,0.6030626482217507,9.369159825879766,-0.016515462970419587,0.04068098481315178,-0.5783956980746257,0.009416688295563976,-0.050462483147544965,0.49193362525609696,2011-09-26 14:18:22.305162753,7.230188920
49.018694225701054,8.353641182460139,113.09826287955889,0.07744555105754325,0.02032925051036884,-9.885396874421913,9.169763799102027,10.366016809773505,0.7507299415384363,-0.19412392850499174,-0.06168023683365131,-2.893704492972263,-1.1802892370433589,10.295912390815252,2.228447390101367,-2.0888727150136432,10.607050307141833,-0.032326730656855346,0.02144653098212648,-0.13424820165272353,0.03690036836001953,0.045874615138091844,-0.08360633615885231,2011-09-26 14:18:22.415161923,7.340188090
49.01684431833526,8.353004405349713,113.91937077409864,0.0294278202602235,0.010957935191984382,-1.4814981636109141,-54.5851973090295,-7.56121995756045,51.825044694675604,-0.20790358790351304,-0.09129464830626209,-0.34374391210026645,-5.978020434089495,10.086581519974615,-1.1705934438323382,-1.5071749998208082,10.519949294331745,-0.010984242659008566,0.048466051675890104,-0.014405752446730632,-0.21870375240131315,0.03636928547775747,-0.0727603730754881,2011-09-26 14:18:22.515184285,7.440210452
49.027353319536886,8.35354727404078,120.08766232056455,0.07689051094254191,0.004256106006508267,-1.3749354257434327,-11.636942409849938,22.98129161508703,27.98834881127993,1.1674957024405526,-0.07109471246213746,-2.029698224450361,-0.8546187655125104,9.524837018626501,-1.1912492639360754,1.093253199261154,10.457243568142692,-0.019855064188993268,-0.03304725074084108,-0.14524150753281279,-0.07665217065530415,-0.0007512041126561553,0.061135303270027364,2011-09-26 14:18:22.615387626,7.540413793
49.018067201074736,8.35337645025714,114.33503067175543,-0.037208060821840555,0.030131877904532443,-1.8004434613832012,-24.2466790726884,8.156064608103339,30.10809427149571,0.004020919215543192,0.10814975600842494,-6.39138550367105,5.113435221841841,9.670877330470967,5.066096511456456,0.37838648370314587,9.726456120005171,-0.03252478400558205,-0.04781753005405735,-0.010332381124605258,-0.0150337212117593,-0.016366132210784038,0.45440197219024175,2011-09-26 14:18:22.725181592,7.650207759
49.01747168417471,8.352532854066729,112.18797406911851,0.030482537032899198,0.014680501153957309,-2.0153972305164554,-13.574441584424164,9.186132760908869,18.710424337052817,-0.0938141074119843,-0.05559217945998582,-0.39909884176749466,-3.7688162894451462,10.419231194069459,-2.528740557120097,-3.972625974515467,10.608805156440514,-0.04506530923696907,0.13061487175740885,-0.14645338785618844,-0.04546641094830789,-0.10966354409317053,-0.19834801027788318,2011-09-26 14:18:22.825192705,7.750218872
49.01625491409846,8.352564357146958,112.67026805130688,0.06373574774351368,0.06483628101303736,-0.9205839318475948,0.8676064416476112,-44.852156348842485,12.36333651178117,-0.2135257903632423,0.04106066856255135,-1.1750461588981325,-1.255690267966102,8.629999858600616,11.336198050295943,-1.6486590008125301,10.35651639442555,-0.08170557748309992,-0.03563587547029323,0.526277306196556,-0.017257341337333865,0.058063918604571635,-0.07153678998186519,2011-09-26 14:18:22.925162584,7.850188751
49.01464344271688,8.353439931951394,112.74439237227617,0.037407951738212326,-0.007854945242609414,-1.5032153468481648,-62.0508968412263,0.6584015938336178,7.831670915021359,-0.6085417145381473,0.0746094157275214,-1.3204267480716565,-0.24710118820067228,10.473118054331445,0.36675760631489984,-2.9411857925715843,10.77980155710829,-0.17477576861953498,0.05830691497350175,-0.12281844009513729,0.03360816131407319,0.059364920844339315,-1.1238692560219417,2011-09-26 14:18:23.035158398,7.960184565
49.017153204067576,8.351970908443192,112.48476360600861,0.0504664291301619,0.026646394795005093,-1.9310912888536134,-12.91315613791059,-23.051166812916765,2.2875467085716483,-0.19087956465725908,0.03902340952072548,0.3409622805818645,0.6170312988520726,9.499846847429056,15.107766703599479,-1.172369124857652,9.006795010949098,-0.008270387490606072,-0.004945892979616595,-0.1643023641827166,0.008196339058427208,0.019362249976441967,0.4854666874875201,2011-09-26 14:18:23.135355530,8.060381697
49.01961673086011,8.355903814448762,113.04642575015957,-0.012670925468527744,-0.012603716615802646,-1.3418663563060846,-20.87357845377534,-33.61054876245899,17.267552762536468,-0.11968368966105011,-0.08979675128219974,0.785147573940985,-0.511103515327175,9.84603870673016,-1.5201529935064335,-1.7586191304953767,9.34616604424027,0.04162272185323442,-0.017168303590222207,-1.2496138279139175,0.05341816042560467,-0.005249955365400517,0.057595969923335225,2011-09-26 14:18:23.235195734,8.160221901
49.015306709145364,8.35260452056096,114.35560454768718,0.03561302500566409,-0.02264584372105734,-2.6908822779089485,7.258468382649738,4.987821453109839,18.829063219897108,-0.11524869998247554,-0.15813156385272165,2.830703485171946,-1.1278879400422765,9.764736278334201,-0.8052835660450692,-2.804552959286815,10.639348492222256,0.026717013326812727,0.02623177839277151,-0.011839946751195596,0.05726067252663842,0.008221302032185452,0.050470017348333354,2011-09-26 14:18:23.345203322,8.270229489
49.019491968507346,8.353646724192956,111.41986004253337,-0.01844326237518425,0.019907957377642366,-3.997512015371438,23.86642625531437,-2.3799444171899102,19.36832118612398,-0.0498601392325774,0.37084132905607986,4.395909614455113,-0.6652757924082274,10.598552546647396,-30.260275613640324,-1.69410440305023,10.802963004158256,-0.024468043118093964,0.07142533411735555,-0.055547593427518346,0.10368690754481034,-0.006898407596886721,-0.030937019889390925,2011-09-26 14:18:23.445198845,8.370225012
49.014735860657936,8.352186292318336,119.15427732577825,0.22765216999673485,0.0015397779394627047,-1.5476214857474386,17.07872885699686,-34.37583951445932,9.222662721886028,-0.0859884262421012,0.07067418212362217,-0.5794163389830813,0.5364541738209945,10.984158593773412,2.215914042184638,-1.3736850527075775,10.480692202497309,0.050717288444512135,-0.34777019476933263,0.2707712720387063,0.02720248112095746,0.33887448406667137,-0.13440632395332586,2011-09-26 14:18:23.545217766,8.470243933
49.023102327111545,8.354839354351997,123.86068762877821,-0.015193549447366977,0.01885051581646377,-0.7106799187229812,-6.472490101522876,0.8835131840913142,2.790780780631634,1.257057267327206,-0.006368750372020823,7.66288279436942,-0.5436701004588329,7.509976274510491,10.397029924005274,-0.2633193368149967,9.92180317174026,0.0861355862078681,0.03960452601337552,0.023107001093008082,0.1061777008180973,-0.011278100151643638,-0.06940255521075453,2011-09-26 14:18:23.655262082,8.580288249
49.034473958209496,8.353753936019404,110.48039279167895,0.05728945596640789,0.020368449020711422,-2.865773567091083,-29.00509052861812,11.326256539152704,-72.92365434302498,-0.011396434334611301,0.6447505538756583,2.007181504897733,-2.36958703291192,11.017890387827956,-4.898237380424239,0.21706874233718043,12.944910324724638,-0.004987669448408191,0.05599460955323153,-0.7792942705250903,0.05832283364472601,0.1328351046988023,-0.0528487647426875,2011-09-26 14:18:23.755235360,8.680261527
49.0158219855712,8.352810600057076,113.06551797207837,0.17542328970143745,0.022313672062084018,-0.8437061116474408,54.86896867924533,5.685763261660966,-10.582027601843059,-0.6860008074462377,0.11261346147739099,-0.23792408479260302,-1.6267888812312767,10.743677548979303,0.8291765720344907,0.24036352329614263,9.263798742348827,0.03206591504905913,0.006779983789357988,0.145695447216715,0.049173619599576154,0.30163460657782953,-0.06428585843721926,2011-09-26 14:18:23.855215962,8.780242129
49.018607819691766,8.353739666206982,112.85921984051205,0.13702071690913856,0.00864995709548882,-2.3449664992444545,17.383902637638315,2.97210486863548,5.437103193593627,-0.022405650324299354,-0.020902518102211817,2.550860571947744,0.4771318953986313,9.49794821506174,10.810528098256917,-1.0014671991745183,9.943880729217113,0.023227406510528615,0.11233767019366636,-0.013435512292702172,0.018402597087948322,-0.007946856112395151,-0.5023255115714229,2011-09-26 14:18:23.965266799,8.890292966
49.023320533541835,8.353344481641795,115.36134466870293,-0.0030951894524089904,0.002916216814389026,-2.2638968438975353,-28.28725577247731,-2.6398396505486144,-11.105403373925453,-0.0347711528546861,-0.4894911019414732,-1.165024112337791,1.927660107258179,10.271327523040137,1.570993516553564,-0.10937670672725305,10.87439595696175,0.08252462298981812,-0.11020070022569592,-0.567510139789634,-0.10414514324240166,0.03203678248619976,-0.007370161777276039,2011-09-26 14:18:24.065354403,8.990380570
49.01873215657535,8.352554407645437,112.26822133146857,0.02722010955269641,0.018331375833648942,-2.20875975243241,-28.394046443843827,7.96805010011802,20.660520094399946,-0.0194979314777607,-0.3643217160964116,-0.9494685817787292,1.0678786625305658,11.63358975035191,-0.5636889575545027,6.396985050047602,11.312923053543672,0.0302130139289049,-0.0015864824713737284,-0.24334104552174776,0.013189636852078863,-0.041402698740989625,0.02818172815771254,2011-09-26 14:18:24.165459118,9.090485285
49.01582363642181,8.352266064161459,111.59606608451814,0.09412506732643025,0.0028489642803717213,-1.5621144989919653,15.279876674483818,6.7604817206234475,-64.82514674056273,0.021578837525469664,-0.8652363992759244,-1.5273004619256998,1.1043374889598907,9.63106208203366,-0.5511163416237166,0.40451526743883526,11.451732923518641,-0.002094445716684557,-0.03927085541308536,-0.01274170956520218,0.057014823160080094,0.09389559195213261,0.05553055301590493,2011-09-26 14:18:24.275243473,9.200269640
49.019543132285165,8.353823854095177,112.82407291286219,0.0009739178835075288,0.021048073320263358,-2.151074133865013,15.322360496863446,3.4952600606022335,189.11079640250696,-0.8008942906334192,0.014479302635892718,-0.15462185231077824,1.0427051057370078,9.927301656262719,-0.455994763220577,0.51699043104376,9.038985671944005,0.12233048330707673,-0.021874272764888306,-0.2324967865237333,-0.0015056251441628327,-0.01390191831219121,0.026791670702178486,2011-09-26 14:18:24.375263539,9.300289706
49.01649934762605,8.358476841021824,113.37660473860922,0.03182028832724183,0.0557956953382715,6.109543984850026,1.7509418959151049,7.516943952647443,5.325730949709331,0.8180912580032743,-0.24017542441231274,-1.976264137081282,-1.5782781695408752,9.702760272973746,-1.0763627601442403,2.400576176136776,7.544371768048883,-0.022281369330700077,-0.038532982922438744,0.10987486349797314,-0.03984466971819764,0.013295112970816056,0.25392320485459663,2011-09-26 14:18:24.475223282,9.400249449
49.02685635540892,8.353096453934587,113.16054550011427,-0.12787783108447368,0.0008414431023601333,-1.842237833577397,-12.096939989813455,-7.82653514075998,-21.96803882549777,0.1669639236942292,0.10287992232784168,7.248744445726984,-0.4911512727782621,9.529994675185236,1.0342203768204314,-0.21135285128204903,9.46567565888794,-0.021430771555810517,-0.03978779256230077,0.006076503442081082,0.013428496610237345,-0.057222109109743055,-0.07232948889278767,2011-09-26 14:18:24.585475892,9.510502059
49.011721389726,8.352947659065629,112.69679785512783,0.053973559819412674,-0.0011666583003592627,-1.3878345636497804,-44.66208645060016,-2.039117138847379,-4.222181694012418,0.03450839677083678,0.023901190018069493,-3.349243732047335,0.7262475543559473,9.633514083651301,-16.84281151465081,0.5143711403920415,9.21624530681809,0.020166113957043583,-0.1021793152188341,0.020326494893842386,-0.021615239919244102,-0.05074271285740476,0.04087624866745593,2011-09-26 14:18:24.685263070,9.610289237
49.01628558878354,8.352960677905667,114.35941754766922,0.08219196015936116,-0.04777544301425822,-0.9514125179362085,10.155641739128738,3.3357815857723576,3.352332163525345,-0.23538063184596847,-0.0753919337040059,2.584551246116344,-0.5977948485300062,10.463842310378068,-4.409430462290243,1.9473848501101145,9.582667179068691,-0.046537699835198794,0.021616453999847362,0.09546569376155346,-0.025617372330949482,-0.052298469503274214,-0.6813586669147846,2011-09-26 14:18:24.785257352,9.710283519
49.01713989578953,8.354198263537018,113.45635041858762,0.0255816712780143,0.006378094062564163,-1.0008218986209083,1.411720258084129,-1.1421904758349963,121.58404073524379,-0.031038420108168433,-0.1303931495897231,-6.2558289277987225,-2.6720738343929757,10.879126117346255,2.028507205612375,-2.861694592836681,9.454221381200552,-0.009338710823029242,0.1552529633226757,0.0937895080409573,-0.013450048465643787,-0.09268442236564926,-0.22373231343787775,2011-09-26 14:18:24.895289401,9.820315568
49.012814634695424,8.353679932259121,112.65699067071579,0.061097744532883705,0.028557205051121498,-3.2386620982813383,1.9838029164691928,7.95200699180779,23.533298974828078,-0.10764380951514663,-0.13505654821540897,-0.2173798380360127,1.5313315498603273,10.33171775349317,-5.925728251302288,1.0505107477796176,9.819627082740803,-0.009708879694811804,-0.04929937062415798,0.3016610771373818,0.026277682532085768,0.047469237362242026,0.16455733903862332,2011-09-26 14:18:24.995253547,9.920279714
49.02408226924212,8.35284654154536,112.85312774084012,0.017778959835814234,0.02845908958808587,-1.3743619594396073,50.545320439934436,-2.1172182716735684,-4.660119571045303,0.16673972328065445,0.18291073674267697,8.765825494697275,-1.5981606983974603,10.269848814290405,-2.1263174368338245,0.6783907480328536,9.123146355979832,0.0071032770608991744,0.058424615613695455,-0.050397617444922035,0.012666770120237963,0.09529524298265334,-0.08154617779426171,2011-09-26 14:18:25.095448601,10.020474768
49.016564495928264,8.352573359402667,112.30479501066029,0.04708185493004467,0.005799974804091265,-4.701552953823742,-126.7449577085394,2.72780923521378,3.070349588498086,0.007173188331944349,-0.029656524953916137,3.234131489019844,2.046303108806395,9.783938592179643,2.175942066906687,1.2956272026734017,9.5475643066524,-0.05197249745744979,0.003972830372075593,0.02592617608299424,0.02352316102152049,0.022236788917530084,0.1305578092592775,2011-09-26 14:18:25.205291801,10.130317968
49.014696132785076,8.353647166442759,112.5481726191722,0.054011340289049754,0.05199708820725241,-1.5219304048665192,1.3570863206184178,3.1204034922819464,48.58217513137206,-0.0717644116142266,-0.23226677205277585,1.7079340559210863,4.681552092583191,9.576908087566403,0.23104975956476015,1.362778351476845,8.382395440737746,-0.06274466239076618,0.07008283781720176,-0.137593630223416,0.02684438392334422,0.02854322432393592,-0.10110574202416903,2011-09-26 14:18:25.305256129,10.230282296
49.01425477644784,8.353974961969927,111.60266566041747,0.0864239691012014,0.007178754926398545,-3.823307117003943,-18.799732465917543,0.1371669266122899,-17.91029897826773,-0.08185472800634001,-1.081403563091451,-2.0918694337546637,0.9613143989625883,6.830042940868509,-8.202634640519054,3.158613710668233,12.710450548549016,0.08353937092486904,-0.048424829203266684,-0.02786766280208848,-0.008238862355450594,-0.027806647320050844,0.11378195362044842,2011-09-26 14:18:25.405276038,10.330302205
49.017219302696724,8.353202721812977,112.09906872467623,-0.004933015224101403,0.009981577162533953,4.0155003904223285,7.408636305350834,-2.965466493312229,18.20204902129332,-0.044919568996725404,1.2482087435202724,-1.6733207198893392,0.9355475529775491,9.651575902622799,-1.1473143411816054,0.7576320383783404,10.456230983579424,0.04985003806422213,0.16336735105012234,0.011290451164031073,0.09032856601402935,0.01994013872190616,0.07172104591578785,2011-09-26 14:18:25.515293217,10.440319384
49.01570825981133,8.35425262134623,111.86097287135244,-0.015063671455659008,0.04073226286151441,-0.8582079491735649,-27.768344693313807,6.376634050096587,-14.344522430172644,-0.07342946895642043,0.010183448970935455,6.029138497767819,1.312584741805714,9.381301973506417,-2.084464194163277,1.0692067974893253,9.267630572653061,-0.003731735846466192,0.03939975537609881,0.07796125428300803,-0.00580089349949652,0.10649801603714987,0.3107552597105139,2011-09-26 14:18:25.615457491,10.540483658
49.00659885162109,8.353515738355034,112.85260639579212,0.05225729923526409,0.011155938470324138,1.5671042600658478,-22.45001032241722,-3.2109855037189847,-10.7688478132875,-0.17209614491834072,-0.052120266863954254,-1.0905998202759166,1.1245704003635286,6.866528866621823,-2.10273400567789,-0.30831447393115363,10.116021758286326,-0.03996677639838755,-0.02414194742864971,0.0708386315322717,-0.02032853825165117,0.029335357915822768,0.21906654502367404,2011-09-26 14:18:25.715315296,10.640341463
49.01852013855896,8.353681903264508,113.03885347097065,0.08475689319569175,0.018904601454649752,-2.372720508670121,-14.466382199596941,11.276658876211934,1.0110961103161031,0.08775872862584966,0.023158354762231943,-3.063668958348736,-1.6236838254866517,9.277311854609565,-4.35129765495912,-1.4048954430534561,10.22502273017219,0.03149779691938325,0.027852482876474113,0.06097104491143847,0.006800893856522997,0.027261580359247382,0.7168354848521863,2011-09-26 14:18:25.825310362,10.750336529
49.017240338335796,8.353149206589542,111.17670569977108,0.023129496892580405,0.013112138885379754,-0.07251361491525565,-18.23115215752024,-11.188315220889608,7.443084325861868,-0.12812131323777784,-0.17199139457779455,-1.1018023407576978,0.31917308162301133,9.010215969797331,0.536990164284121,2.1431559218232987,9.110260104666008,-0.09709249584344368,0.055153043544958806,0.10460530972459503,-0.02200914954296669,-0.026678925620234197,0.1346291289570956,2011-09-26 14:18:25.925331659,10.850357826
49.01460941924275,8.352741059465279,111.84288159311181,0.025573997510069068,0.04421286098588416,-1.7265968110305394,-12.493718288814566,3.8183937920613795,-9.120426018559172,-0.1356730040859531,-0.10830043911096068,0.9614034214980552,-2.2699080107558354,10.18907939524458,-0.32679916343648935,1.0219356008887617,11.079860695919265,0.02164872778206811,0.04622280006333576,0.05577699238881959,0.4929687645824137,-0.010621640469770502,-0.07150170126815988,2011-09-26 14:18:26.025341474,10.950367641
49.01728959634709,8.353413052814602,112.40246775240992,-0.11915144476621352,-0.014853683082235902,-0.3377632331195779,-23.554843403400845,8.717971227194942,-12.46329575830155,-0.4692357928250639,0.18020373777164375,-1.023015429604061,0.1295883230678928,8.851940227464116,-7.927017557061958,0.9680369492568702,9.248405925563157,-0.0661054351148119,-0.038994173064708815,0.458941377552188,-0.045732641248624646,0.0021851151637160525,0.029251800384319238,2011-09-26 14:18:26.135485729,11.060511896
49.01977556255672,8.3531587750333,114.67531855441278,0.02076896708684485,0.044698682789339333,-2.1075005197297996,43.647336435278056,-3.33070740818414,9.313957410365122,0.15212478309405575,-0.2037011956044555,-8.562349617430964,4.425304394328597,9.822532908088373,1.968986451436686,2.829369906813358,8.489716784791547,0.053037027371333784,-0.22804937437467132,-0.07353846372244556,0.03841146864991647,-0.04697148025404015,0.020413919176349864,2011-09-26 14:18:26.235298701,11.160324868
49.01809491813915,8.35291939507575,112.08773405700663,0.03297000687871799,0.012800264886463446,-0.7185003928623632,-33.16438904826917,41.89170907563686,-20.694901847100255,0.0792730884251406,-0.015890820831570632,-16.665936596678808,3.230220064300327,8.974604752265373,-0.6092939398502206,1.4429778907714068,10.846527632689245,-0.07649876001830472,0.08507343811345855,0.03781893654433716,-0.04094319732040704,0.02729832940514834,0.21692307065963629,2011-09-26 14:18:26.335298911,11.260325078
49.01449240025775,8.353578525058193,113.38361982797674,0.039946135093998934,0.04848688932211592,-1.8030123229176638,12.590536636276608,0.4484964326215266,10.730069937467809,-0.8985085981816947,-0.08386642411600781,2.7020644373871776,0.40742435670151844,12.379503399468511,-5.851267279216447,-0.43586980189820596,10.799166562934383,0.005920402459780018,0.22166161639775836,-0.0910835651924049,-0.04651983644372323,-0.03809716233792633,0.034496188393595875,2011-09-26 14:18:26.445323570,11.370349737
49.01853817855496,8.353730956745649,107.24251697879308,-0.026848347174883835,-0.16527947989934003,1.22651493275547,-5.815203566226343,5.350539374904483,-20.37987788851762,-0.0011391200142620989,-0.15396182896156024,4.96514118238259,-1.9555658125013018,7.501818440646102,-0.4897404002855437,3.7356323166973286,9.511594118013141,-0.09468402883967537,0.1369845048566231,-0.0625891379880978,-0.01770439717020637,0.03514736375227603,0.0572800099897775,2011-09-26 14:18:26.545317841,11.470344008
49.02525858344328,8.35355979455768,113.93201692968137,0.02864335625705925,-0.012200470415974513,-1.2490385706564069,32.73244221826498,15.637329395897652,8.563398162651158,-0.7371065992639305,-0.11336224706325183,-2.176731382761782,-0.09902822289199709,10.283606823389384,2.1969968674801326,0.20304063762572133,10.19344333427973,-0.04052268009115947,-0.030876075134844198,0.13249363355475355,0.22255645276919417,-0.026115446139866754,-0.04146538066006008,2011-09-26 14:18:26.655358215,11.580384382
49.01789414531088,8.353192592438981,113.3656652769378,-0.008391044454716105,-0.018880661578010893,-0.8993160339169237,4.046805971646684,8.780083513917237,7.923692664716986,-0.11029459381306957,-0.24294795200494754,-0.13236916864082013,0.17850330871406261,9.461596897472402,-2.1667925916778996,0.4664218553894212,12.321749588945227,-0.061328623373062816,0.02186637237599739,0.12288875763376222,0.050927880256646185,-0.0886548851183975,-0.06740197708637699,2011-09-26 14:18:26.755320135,11.680346302
49.028728611353344,8.355110764943465,113.03268240392224,0.07330872538113883,0.0010708701492410221,1.5601163844424522,-36.87094727555787,-48.81397823796384,15.358938030447707,0.25794574830647576,0.09960112356580822,3.1899184942655454,1.0950541488865135,10.999083851388566,-4.3228386075981104,-0.7053116149074573,11.092920615410131,0.02821080928279926,-0.022158817905011258,0.08349412383287902,-0.07088325351850991,0.01993935843668944,0.6272079270966205,2011-09-26 14:18:26.855358565,11.780384732
49.010567142983255,8.353677394270955,112.8973660970638,0.02885609180669127,-0.030898533484972953,-0.272688945321931,-13.963211469777246,7.916346800714381,35.01857959992893,0.00047930126270179924,-0.1725553682818098,13.186741891858167,3.9809113820696167,10.09646407531729,-4.035860077938773,-0.6614539362537606,11.060682163097535,-0.004083196599330629,0.019799173231305756,0.06292020470783471,-0.06373318157761713,0.15991954654927615,-0.035777000050654095,2011-09-26 14:18:26.955375649,11.880401816
49.01834343629678,8.353437608233056,112.51528429761095,0.3875850358842222,-0.0343151973037268,-1.656625453595736,67.81529266059134,6.171217223060127,65.71821442889902,0.08866953360193003,-0.061696968371979466,-0.47072737296711475,0.36528759961187884,10.0811366822858,3.3372295928841043,1.58738653870622,9.465700118649163,0.049016215000662215,0.07170010185257583,-0.04248992702715193,-0.009412393406050034,0.032699491923963354,-0.9919157550554988,2011-09-26 14:18:27.065594226,11.990620393
49.03116826339243,8.353216004334644,106.60816789364416,0.00986164694966691,0.016553595820041775,-1.6052791145359744,-53.94750502449377,15.405599204529008,-51.311236685960374,-0.08636279352974774,-0.20379093800081682,-9.05323100121097,-4.179090324534235,6.405783410042546,2.1463303406089334,-0.37166448655758005,10.11259975566703,-0.002014468114992189,0.049645989985462886,0.1774870581025134,-0.008467130583072812,-0.018749262235491598,0.15575629076341066,2011-09-26 14:18:27.165521074,12.090547241
49.01571314804024,8.352692486970149,106.96087591107747,0.00425821661786872,0.016976591300985718,-1.597688083790085,8.940265553480128,-0.750187810913931,8.130702430004877,-0.06873482419983443,-1.0084977938814847,-3.318267345650408,-0.00759491978123672,9.053232248150076,-4.644872299295522,4.091182394492855,8.98510269764946,-0.08499427443347005,-0.06458391752368094,-0.31690606916176395,-0.0089923789230207,0.014689871401336735,0.0021852227562933592,2011-09-26 14:18:27.265386004,12.190412171
49.01651426865286,8.352496457495283,113.3459304931456,0.059690729682046764,-0.001447151950602743,0.3137980087734138,-1.2841024181418916,-15.579146155758519,-179.1810034414985,-0.16526877280157445,-0.1380333210052888,5.878260741599158,-0.6372554536376538,8.521558080903889,-3.0645408523856337,1.17241479208523,10.617007195120102,0.2684900606483177,-0.03884916923763964,0.0802206546951826,-0.05983186903652481,-0.04468868277155044,-0.19839938007935556,2011-09-26 14:18:27.375367298,12.300393465
49.018236401698076,8.353662608308912,111.9928601736224,-0.0024415187982463754,0.01771772718105261,-13.46719036970671,-35.15423350789369,-1.4609420424723374,9.42990926313073,-0.06850651146583976,-0.08796153995077004,-2.1209356726563433,1.277767946884636,9.459298688512156,-1.015474887403861,-0.9221084893501686,9.960464508525192,-0.0238692442461239,-0.03734711367469651,-0.03915161379294982,-0.10367452868442319,-0.05024376855405932,0.02856651105935325,2011-09-26 14:18:27.475338327,12.400364494
