lat,lon,alt,roll,pitch,yaw,vn,ve,vf,vl,vu,ax,ay,az,af,al,au,wx,wy,wz,wf,wl,wu,timestamp,rel_time
49.01787702846857,8.352040433172217,112.62895872702923,-0.09302410138367698,0.043308588478924284,-1.1012904241982373,-22.280376135912284,2.968810853396183,-166.73275964890954,0.015375785273842188,0.09083931464199374,0.7854788865161537,0.7497212689110089,9.381912621120934,-2.294612651215494,-1.112169517152406,8.993390835891569,-0.014709401373109034,-0.033539673566132605,0.07457219082583347,0.008368140763903527,-0.032549225387747634,0.078036494698583,2011-09-26 14:18:15.074973833,0.000000000
49.01668994916201,8.352719643654334,113.21343861404738,0.08365476610374348,0.12151993659132146,-1.8892101113982613,12.77916882457751,14.878753407852379,34.92052078737034,0.02807284366875429,-0.05719114675567988,-23.261156229328478,1.5494533716969203,10.05404089907752,-3.6234286524434935,-1.545288975928973,8.701553816594656,0.014522798487853091,-0.023651711355893997,-0.09294606338043494,-0.007594801135809816,0.03979273899346945,0.1446438592537549,2011-09-26 14:18:15.174918730,0.099944897
49.02458636954819,8.352155653525728,111.15028809187498,0.015714566322809754,0.026235326087121688,-1.9306688717154494,-2.644175399903231,3.577415723714868,93.01481180732057,-0.007305131934653126,-0.24781915056452286,1.9668987750787237,-2.2119196890705823,9.853706713222662,2.4609081496157357,1.0514863781309343,8.979450087420144,-0.0214415166146915,0.08757487637694489,-0.13067335754735254,-0.029583334512594567,0.052777784681679894,-0.0671950376379496,2011-09-26 14:18:15.284881629,0.209907796
49.01754904159842,8.352581908452422,112.34170865848554,0.10794728299360973,0.03535847669172717,-7.369037522145604,-13.911228114599792,16.44385195286224,26.06534422535657,0.031079611495990204,-0.1359432953518257,-2.6452732187728056,0.8662656690856643,10.55923715184737,-1.9634127236338235,-0.4149444974382219,14.213182298411636,0.05213697436346396,-0.0007069037111855164,-0.00994092510362824,-0.009573972104195758,-0.02692677480635053,-0.020749695687363873,2011-09-26 14:18:15.384866939,0.309893106
49.00633428135052,8.35251291143217,111.87507617556963,0.04036822342450673,-0.005542624095975612,-1.3480218643110478,-23.768705807204313,-2.459259799053177,17.098021054686342,-0.05426723342056811,-0.2684406197758075,-0.7723736894102253,1.0140010081832893,10.215355918007171,-1.8737662558977675,-0.11278197454661681,13.474454097075249,-0.06369075823615943,0.0076361270044061355,0.11298941436410956,-0.03247550436027888,-0.030771411017235437,-0.057858034022275594,2011-09-26 14:18:15.484850174,0.409876341
49.01348639478374,8.35326052243673,114.48504335397628,0.1351846137339912,0.009562182235590968,1.9358338153128287,9.338208332325657,56.18883459786467,12.488439935996464,0.0786958336154782,-0.04938980947366894,-19.703866744935194,0.7425298998310397,9.160991115314665,-1.6849891849928327,-0.08085408946769979,8.76702548615949,-0.04729455683440098,0.04073154600463808,-0.2649574877230164,-0.006531231706143133,-0.02776477600333821,-0.1664681909420685,2011-09-26 14:18:15.594974021,0.520000188
49.01770966271185,8.352583643610476,110.58210951762601,0.041149658737038214,0.008418880732043912,0.06660661054745765,-20.757405278438664,43.235346708230665,53.883973742153614,0.09856993191566855,0.04999097933408164,-0.3281920196685594,-0.008782974329304645,10.360719480524587,2.2041244309800714,-2.265162187175679,11.082055607591943,0.051825234616214515,-0.15507166323825683,0.04392663887337022,0.018027508286675265,-0.0967368954011244,-0.07649379245839877,2011-09-26 14:18:15.694868121,0.619894288
49.019799138046125,8.352391242889162,111.68382771913883,0.0252854113340446,-0.025407603619802432,-1.360060578755315,-16.031717632672574,8.406785856644847,14.892451500707896,0.16677673913709407,0.02848862521591615,0.35808640875461195,-1.3772623153760768,9.900364719589728,-2.5388943778740747,-0.8749015708213912,10.02019284195835,-0.0431978763765127,-0.0213921046001415,0.013752848547248415,0.3524958345757482,-0.0579384603968147,0.011898696451293269,2011-09-26 14:18:15.794886289,0.719912456
49.01673633687889,8.353078400210547,111.64740054899764,-0.018909364440416028,0.0466369303890778,-2.244654906813848,-6.235373220685148,-7.958523500207813,28.315175269507513,0.05926987888795132,-0.027160870475224995,1.4962527208300622,-0.9053386190229891,10.267134698281364,0.3436176616670622,4.410444101617362,13.433996981442727,0.18931794668095261,-0.09651694467449495,0.020663566679462658,-0.013118162538718938,-0.0648410712503838,0.022129911896161744,2011-09-26 14:18:15.904871277,0.829897444
49.01736406367641,8.352484472389953,111.39726200471745,0.03802708737879304,0.08331625803849384,-1.9340906614724456,-2.1482424412132772,-44.706359712746384,15.64499291986308,-0.25803817617457064,0.03079362491722777,-5.02111951245348,-1.870795948446347,9.105428693728049,4.4368808910255195,-0.48983817028361953,9.740555555902974,-0.004835794229003225,-0.01970775131289129,-0.06021552904910647,0.05355581264814146,-0.009293300442720961,0.7204346918971437,2011-09-26 14:18:16.004937951,0.929964118
49.014345771567264,8.352181580155555,112.46471469536108,0.05916791066939997,-0.010337727376843244,-0.7027376815080326,-17.1509056271242,1.1668439364561234,3.8947515490009046,0.06023840192480566,0.02949857884539085,1.780547777115887,0.9106542362662218,6.053523304830915,-5.1155589223402655,-0.040375786493960425,10.09677046781558,0.021583109294331496,-0.01770836292692863,0.15300513260872325,-0.10995539802909418,0.018186307139622868,-0.03874314036857662,2011-09-26 14:18:16.105096350,1.030122517
49.018222205701356,8.352549425127357,114.18784745511913,0.08261657033164839,0.0027364411932212854,-0.7093301558141145,-22.383583926194948,-1.363298212907118,2.078064525103505,-0.08448202367716476,0.14936615921104315,6.26417637377525,5.438932236403518,8.912813855898577,-1.1304046920920934,-0.16200453952509553,10.519165214762042,0.013550798742596364,0.044981398247515715,-0.026429923025501463,0.0327406763642443,0.32669970723512454,0.03555672570040527,2011-09-26 14:18:16.214890474,1.139916641
49.01759531451552,8.353248224161257,113.40240880585819,0.06263728879868069,0.008360018520406503,-6.736066387091723,2.4227237196876814,-0.13013438899494556,22.113479740652878,0.07106708279275063,0.17120945527599613,1.0687560788039783,1.655215044597873,10.06994921258294,-2.0524243150490276,-1.2422695675936524,16.57477122736453,-0.00371868138085392,-0.09165504496866818,-0.05118178767810479,-0.036440817353025116,0.05967025034849879,-0.0041952457278993036,2011-09-26 14:18:16.314898014,1.239924181
49.01577365923754,8.352465671551112,114.87144783713347,0.03266354297717289,0.016592605167638032,-2.679830198205371,-20.26692127047704,12.215005563315387,-144.727497274151,0.01813511782228752,-0.06626535437690026,3.881481518670835,-1.6782831836464593,10.031136726486473,-1.375220744592429,-0.6718507707038982,8.883709213839355,-0.02765724227805766,-0.00636585314016801,0.007809497232884235,0.048918370234031686,-0.12284495642854756,0.38516739592038546,2011-09-26 14:18:16.414925163,1.339951330
49.01660381441005,8.35274232770029,113.35404913899319,0.03458703867380077,0.02834170422751059,-1.2719638181906934,-29.50403546415177,9.932525834216726,-105.58095079174643,-0.14220887599871207,-0.004752793572717762,-1.9448128210679645,-6.9795183340531475,9.605330503017658,-0.982736501230817,-0.5137190197060295,8.398422446308123,-0.07307428691109345,0.010243553697633094,0.06921699233696282,0.03547781971440875,0.0012662656070545435,-0.22125970586915208,2011-09-26 14:18:16.524910110,1.449936277
49.01762676561582,8.35320684291056,115.86669860238963,0.05364704997301254,0.02625438752110444,0.011961102994827,-40.147295605988425,9.258849401329144,-102.43983520030696,0.1601613177594839,-0.07393165715173203,-1.2090702268912652,1.4506841839842943,10.712056613151265,0.2074945144559434,2.146485187306937,10.559421451009966,0.05682180632180698,-0.015188945102103443,-0.2605354488407623,-0.002940734266244932,-0.030694810789470835,-0.1337838990508946,2011-09-26 14:18:16.624968028,1.549994195
49.0175733265957,8.352705924188232,111.91883761340469,0.1356924412083984,0.03638186319479787,-0.8121054684437868,2.441740687808961,76.38419401116248,12.24923418244806,0.09659600878197189,-0.015689942548297815,-4.460044545365429,0.7043408908176432,9.849303268514486,-0.13957352978637078,-1.4607065231995768,10.201437900175243,0.048762052986345915,-0.012184872409023644,-0.22402036199228906,0.03941347839553225,-0.02878339805914654,0.2016574644217849,2011-09-26 14:18:16.724986785,1.650012952
49.01450916122262,8.352212383942085,112.94023337224908,0.03545274312566147,0.022469478533439557,-1.173827739114756,2.2634822352172357,10.359937326548897,42.31938253172052,-0.19817483920566287,0.03294619155564487,-0.9159170825392873,-0.9009930319605889,7.413627261657265,1.6608749198409343,0.10602550828061158,9.855790675101336,0.033676733589570934,-0.03704437185734953,0.019986348669946405,0.02822106549909597,-0.08083077674780977,-0.09807616344885045,2011-09-26 14:18:16.834947476,1.759973643
49.00945184049389,8.352351381289175,113.19766231186499,0.028050587133157452,0.023976820940755546,-1.7677559806562162,-3.869242181434137,22.13278290970233,-7.615985691690211,-0.021209295687732013,-0.04915760107961756,-1.888235325545512,-1.2244877891986876,9.965080640568331,-0.038398065692317906,-0.18965617536611834,9.594058504857042,0.07647110321441108,-0.0036157873608853404,0.11458892913878707,-0.06499560610406291,-0.027888485228454264,-0.0894050991111479,2011-09-26 14:18:16.934947539,1.859973706
49.01717281384279,8.353471576563472,112.20466219531187,0.016928317182048232,0.025791439009087525,-1.75006887198417,-28.000270493841597,8.947568656435843,26.207992639795446,0.36242539075717833,-0.07139540556238638,18.963628853318593,1.4448524268449288,10.248468541824069,-0.43053366709137864,-0.1208006272430216,10.916609443612076,0.0014619611385357969,-0.0503368131841206,-0.2996216882000724,0.03642041340265234,-0.042213036581146286,-0.07190524717023924,2011-09-26 14:18:17.034933414,1.959959581
49.0186372546967,8.352980710351748,113.69679660875794,-0.0011628430991864197,0.01019119093259269,0.032367999855747565,7.414381185242201,-5.509200873383948,47.26622055114255,-0.15362579444007338,-0.0767067322438811,-0.38420575051778105,1.7911967919655511,10.108000335344652,3.18722345581206,0.6729608591696397,11.250892133984713,-0.016829008464341214,-0.015609932576745346,0.08486806130874855,0.033886612342758596,-0.022561470607193972,0.11816806832788715,2011-09-26 14:18:17.144998329,2.070024496
49.016489866244264,8.35244446016631,113.9249102527138,-0.011037990949444354,0.013712252948564155,-0.3896858901894811,-22.07539776479375,23.23439906186777,40.67076102895459,0.14385223266314,-0.12206078171292657,-2.0244933111689334,-0.7928212002414281,9.687876298492672,0.2802768219848483,-0.3380426068739572,10.873825783553277,-0.016012334790597875,-0.3089579384840716,0.15455278632301261,0.0205133768875174,-0.04007151039093178,-0.7022254477542111,2011-09-26 14:18:17.244977563,2.170003730
49.02074122961741,8.353039802448924,111.0056150400694,0.04194077650353526,0.026970867635565207,-0.8003510128533835,-17.323112465530563,-7.0114364157655045,-14.572068927576694,0.05785207932998848,0.1738133883511074,18.630905475709948,0.26702538944455817,11.090417038308047,-2.216429824274399,-7.699359485033778,9.790607926590733,-0.04387881276306543,0.0222869731335869,-0.07715633686881417,-0.03944451193253482,0.021039726005849996,0.03950664743973403,2011-09-26 14:18:17.344944482,2.269970649
49.01565806233792,8.35298013247755,113.12514641204882,0.015769888069351142,0.014197111315689816,-2.346239098236228,112.08528707804405,-57.65267315850256,8.23084524223459,0.2339220482217321,1.0772288840433746,2.0355023325452257,1.2135906366737117,10.286483717228677,2.9491547308615744,-10.601455622756133,9.66443065121665,-0.03065164162561031,0.06578394021593893,-0.029616853787293233,0.01627376177023276,0.006235457300766677,0.20395476271871157,2011-09-26 14:18:17.454984761,2.380010928
49.019630986036745,8.352103724407032,112.94315792894223,0.08068938594527902,0.02754433710797549,-6.588137033312489,-62.04477430873015,1.440936123889859,18.151436671292796,-0.0716557649929767,0.22292455538567685,-1.3149608386620306,0.38936363248868017,8.853580671291416,4.046142537112751,0.5726858211070113,9.978497423578702,0.02209566259340224,0.08544372152302272,0.30866265451915337,0.016389578481279934,-0.25083786173018424,-0.8215600158530092,2011-09-26 14:18:17.554980557,2.480006724
49.01620622684427,8.35214491329067,112.08060941232456,0.04688441285384836,0.0237288557002087,-4.954415394634353,-10.888433685733926,17.43714363946635,20.640656077234397,-0.01849101883094563,-0.005612401512273622,-0.9268527210258636,0.4105166588635642,7.784550026509382,4.1203177646412685,-1.204807909379276,7.293134623008937,0.134779680723458,0.11585466160042068,-0.03318290687261734,-0.002981882688910043,0.006857634193108808,0.14296432042375695,2011-09-26 14:18:17.654984261,2.580010428
49.011451332340734,8.352543943353632,114.28847068540105,-0.02262258610696665,0.025711443953157352,-2.1770256057809982,-27.451000620465052,17.872986774789407,18.099062787656294,0.08195351466447415,-0.0451801338050465,9.876798095588645,-0.020257100513323634,9.564809849949379,-0.8767291457509868,-0.0852571862298326,11.30055051470422,0.1651037886987668,-0.020965754377838743,-0.16484529364719355,0.01303673667457176,-0.028973415248655102,-0.0698893040127273,2011-09-26 14:18:17.764949645,2.689975812
49.01798853407833,8.351687295612892,112.10594956754976,0.032530427231561715,0.01890708780393181,3.936789671537166,-0.34237313631990496,15.109216290505753,-69.65194125943768,-0.008892139621611072,-0.0029935310991651143,3.724458114044587,1.092731270212189,10.274232148146767,-1.1582484975863916,-0.7499175306702627,10.44581397057912,0.007507694317962188,-0.008587534406219066,-0.404148379095669,-0.10542303347036165,-0.08949010495393331,0.07246449843583262,2011-09-26 14:18:17.865018785,2.790044952
49.01630700449842,8.352865010148763,112.74501752962156,-0.04530211155344486,-0.020862391441000015,-0.35912468142368126,-2.8285205047847892,-1.4371776427105791,-20.519692374078645,0.3246132484610423,-0.019133603257419397,-1.0471515359434032,0.09947871609985837,11.447306698728418,4.105473285767202,2.6832572019624203,8.743383746911253,0.06081259781872654,-0.02688282829388417,-0.01697153393450058,-0.05660943493611693,-0.031072870086031018,0.16357699539117398,2011-09-26 14:18:17.974988196,2.900014363
49.018570191839764,8.352783340933222,112.78323592330564,0.03781604571305742,-0.01708531638880299,-1.5774576413946475,-158.36720922380954,10.900062115257821,8.361394242488542,-0.6903689269497139,0.01079383854516279,1.5898537687585035,-1.7297347856452006,1.743256284125792,2.625082886018896,-0.4397574205497572,10.603500267339712,-0.0073442752791969225,-0.09834348441516072,-0.04717372985389508,-0.05024609910393397,-0.0312111032743006,-0.08348347955398831,2011-09-26 14:18:18.075188993,3.000215160
49.01718687659595,8.352090401286297,111.56483359361049,0.07214096232586285,0.020912286452639647,-0.6533062610032062,-30.588951946661474,3.593859131948083,24.76024875749234,-0.008660835787376552,0.16322905826798098,-20.941435774621134,10.842670759062303,9.062177797606996,0.8544402867848113,-0.8057959054595918,9.354351512947499,-0.03698303666341645,0.03182940818571879,0.18168285969735742,0.05613167893271045,0.0172520851316455,-0.16947295349756664,2011-09-26 14:18:18.175041028,3.100067195
49.01685539624732,8.351408323127925,123.96660327210463,-0.050004029917761705,-0.0056963859054563,0.45961916049267804,12.73336668928864,4.82429419667091,-5.344786072632795,0.04705121847613017,-0.1873063958469708,-13.429512506577664,2.755971934717336,9.347288894775687,1.2675468076835927,1.8628593287870034,9.070807435568536,-0.00946221025913004,0.10832169744166092,0.17789705322172308,-0.019253230399157946,0.07895028532946244,0.236299598398262,2011-09-26 14:18:18.274983897,3.200010064
49.03164302605813,8.3523900131845,114.77434098145585,0.09570909005507433,0.017857488629194406,-4.718246738415111,5.0455989652538555,-4.225725040570893,17.36008357305185,-0.9593422789871273,-0.4204699889889837,4.7738551904977395,-0.3006924122443929,9.876369330384179,-19.548371591649893,-1.1698603475715998,8.717878148755794,-0.001295823914908038,0.006608640994059287,0.028485908637166005,0.10504340377609016,0.022866430148552788,-0.10078756076556582,2011-09-26 14:18:18.384960923,3.309987090
49.01441137164098,8.352555485378216,112.84153404694493,0.05887405035097765,-0.02468774734188897,-0.8556091205752367,6.201739819691872,-9.728697001106221,11.543460424329146,-0.04187793698848644,-0.060990564635240274,21.50941416738663,-0.1468455259842073,9.421795510504998,3.4251572215097497,9.841196578729676,10.171711525141234,0.0099371484747762,0.020547894233654385,0.013356453361366948,-0.13079760545075944,0.0641116960953059,-0.06463777397705836,2011-09-26 14:18:18.484985500,3.410011667
49.01737651910881,8.351817855477512,112.28769618245747,0.041249078884170315,0.006878482755052201,-0.5745875637317709,-21.457041601576154,4.787801448605605,21.740453789302848,-0.10327415675151234,0.10872285104107471,2.3899077109687474,1.1613231413355367,10.531314829123877,-15.041643268266826,1.12754135981529,9.93811778224707,0.047306666456624,-0.10081571407554048,0.26244812824134206,-0.08305920113264345,0.0036004049491725094,-0.15462020118439226,2011-09-26 14:18:18.585080490,3.510106657
49.01693212957358,8.35360474148751,112.78406404481242,0.07731587345022582,0.032506411863215914,-1.149445500418967,11.352204282223285,13.65633582825802,7.786088700324167,0.12690095990090872,-0.044114399922716055,-0.5325011873569026,2.4500203214493554,9.141926017976063,-2.271878490408057,-0.5592963542914603,9.258056929471453,0.04328831039816644,-0.008808391849140007,-0.027327927728905018,0.04930242265001996,0.01225715563324896,0.22883045483729628,2011-09-26 14:18:18.695044876,3.620071043
49.0162575796343,8.353870908230496,112.76075409265526,0.09626922103906975,0.01729913183798347,1.8017619161062564,3.306809327007892,13.934885291320754,19.90305175290414,0.200547244592702,-0.06822833592745986,-0.4704409679596484,-0.6051302336757061,13.776733448656355,1.7658807133981946,2.2711034338066454,9.009142390341028,0.20294178497458806,0.023071970292262153,-0.05558840924000352,0.14688791946714885,-0.010568633468686622,0.20091389256835218,2011-09-26 14:18:18.795005809,3.720031976
49.02729817133049,8.355684505834615,115.08515466440355,0.0987213443204071,0.005755641244300969,2.6751831072281615,-4.06683034618721,4.647813128110623,30.02453437737752,-0.15178549427304394,0.023498178255651207,16.759432427084878,6.665178664340585,9.628028040593481,11.751334875386297,0.003698871794292513,10.028891281385498,0.01689158848576108,-0.06580744708922652,-0.04887014677272322,-0.0249677692872756,0.07755903403087525,0.14026757969790976,2011-09-26 14:18:18.895044988,3.820071155
49.01905791815521,8.352786351083653,111.35354369207084,0.022165345682323527,-0.03336938981117145,1.2405220494969487,-25.241731881988557,2.4987666140524665,21.57797508255905,0.06548574464652229,0.05764969064171084,-1.9051444386837864,-0.24625701842731007,11.044403879684468,1.5645180254837172,6.23742566772591,12.488355534082226,-0.021656247076780703,-0.03975202593652597,-0.621549085360723,0.17601398410390945,0.04949300635933042,0.019397177406019893,2011-09-26 14:18:19.005010018,3.930036185
49.01589550252915,8.352880802701192,112.54738405442822,0.1508694872157768,0.00896974617147481,-2.526315714297751,-6.135481604972394,7.454761584397499,91.84096604275372,0.029276290153250895,0.03359444899947074,-3.5521435300599564,-0.16351976627066556,11.015187221407707,-2.225751654653337,-0.31988706073647544,11.475607602503063,-0.03786743558136186,-0.1185725650640708,0.7854825116398144,-0.08067705457562958,-0.038834358331454454,0.09976535164371113,2011-09-26 14:18:19.105248051,4.030274218
49.017466413181616,8.352119719570833,112.74858756732468,0.1642375679613761,0.0034726605638293936,-1.940323658794032,-31.115316985060666,-1.555582793286276,-17.538910409661618,-0.09124067358298205,0.10158856697759605,-4.577766189787888,-0.3787289731705859,9.997025073090525,2.5858170895685832,-0.38950835214214585,9.896304065872615,-0.014962215176919015,-0.241706118338166,-0.6200373923311082,-0.059336653124095716,0.08091933447252006,-0.0007599611781943603,2011-09-26 14:18:19.205016801,4.130042968
49.016421443087005,8.353678613991544,112.79461019746692,-0.3333594707563128,0.013727880260029097,-0.37848412286396704,2.8979152438505427,4.378561200996283,1.8894227465211255,-0.053866197509573645,0.08725035124196948,4.6063119233820515,0.06616837426102651,10.22951211683244,-30.29156674953623,-8.792849470194842,10.797848100566574,-0.04170803887159141,0.0005163812822415962,0.04116291051401133,0.0028663171376966112,0.07824563711214777,0.13189265608502365,2011-09-26 14:18:19.315010684,4.240036851
49.01804422155312,8.353023575028175,113.3092384000897,0.09072809412180755,-0.0037938638304669953,2.1173301473406556,-25.738646115512523,-4.3643121830487095,34.36526289186664,-0.04329092501690987,0.13762458849289022,-4.396187756730764,-5.09625503653066,9.261030607297277,-1.9455288228016676,1.2286746642741082,8.70865869860943,0.10701038155173691,-0.034044133021993675,-0.008988429665196928,0.019221143265629813,-0.011770642476984079,-0.08424259935686348,2011-09-26 14:18:19.415057445,4.340083612
49.019042607087115,8.352624239572027,113.30128808368931,0.005594802997232043,-0.021813325676424723,0.36750616537838643,-20.53410626731243,-32.66135155773919,15.966867916638748,-0.07232764963683935,0.05349298335077239,-1.7621563518081593,-0.2554708155008525,8.956101792817067,-3.5509505375651504,0.9982391550707677,7.692716097264529,-0.009657697765454906,0.07246329949834104,-0.0974551576385089,0.2552548547357703,0.00781670076839622,0.055292119024099855,2011-09-26 14:18:19.515044626,4.440070793
49.0193775917169,8.352655277328298,112.56929346202345,0.03083438504609253,0.0038562176977347037,-1.5790354748031592,-12.640889663057303,41.767172612888245,-23.53711944237551,-0.11701647185552683,0.1405320479465661,10.849089831757597,1.4042931751336212,8.960439384469682,1.0109907596888736,-0.477838587813334,9.147511193663592,-0.010247790459189877,0.01113341546781369,-0.05353480208436462,0.0053804057152128226,-0.08374656436238895,0.15437220739526178,2011-09-26 14:18:19.625134127,4.550160294
49.01413352534906,8.352542793926991,113.87215303761138,0.032000570546347924,-0.006624895776440496,-1.5371157444044672,-1.5658423311237382,-2.0668494254492,12.309547754425044,-0.09953246584533237,-0.06464528083516205,2.597250412359525,0.22905422929061584,12.840651186302779,-1.5568452802189723,-0.7397711404903359,7.2238354748345275,0.011855548048732966,0.07106196390998944,-0.06436602029013454,0.011224969573742992,-0.007891577340470645,0.0876212578553887,2011-09-26 14:18:19.725065411,4.650091578
49.01673758681451,8.353645029041113,113.88075402295159,-0.013590297660301967,-0.0003768572248542112,-1.1681098540672377,-46.51528671974086,6.260928981138631,-19.895738202359762,0.19692804777127496,0.14178165363393724,-1.340271604841245,3.0659916241846186,9.520992465646978,0.5661689645181012,-1.4115869794127864,9.722649503812303,-0.0051598039282821995,-0.03871267398877876,-0.0215770471374621,-0.017294359743553027,-0.05163671207292912,0.5588333024168879,2011-09-26 14:18:19.825048689,4.750074856
49.01758950544271,8.352004920371488,113.78370941670303,-0.012916822258451956,-0.13177650498791188,-1.5421623110015976,-3.2458226163593213,9.793129116726597,9.979194807256754,0.6669226889448869,0.023643733028144227,-7.193254446195143,-1.8503448624594043,9.852333732470871,-0.7494054567512011,-0.0814880330165576,8.746457607057716,0.013259538412397218,0.00808129693859887,-0.049894000127170955,-0.045656318288350144,-0.19067033824805749,-0.08596167217925113,2011-09-26 14:18:19.935037597,4.860063764
49.02085917298244,8.352631088043312,113.31067453211091,-0.005114614499483916,0.014505359522158447,-1.1564866731797192,-18.836379311161195,-6.075756841393894,16.685431722285138,-0.03713437692917514,0.12373180298868332,-1.1128680603332262,0.48838062728234727,6.885482460375903,4.610030926014219,-1.3453144422721803,9.349072616653462,-0.039182139575921746,-0.07628173496643832,-0.3044567492564667,0.03623394067214434,0.025160161419912806,-0.08347910885278936,2011-09-26 14:18:20.035065031,4.960091198
49.004141475480125,8.35295102532087,113.09172604823854,0.07148301674139329,-0.0032330855932513752,-0.4091430527821436,11.584303206883003,29.30584319103822,11.801402664232317,-0.18107813906840092,0.09598099023227488,-3.9085987932224784,0.9823994792735158,9.415316856443443,-2.401530107911283,-0.7102508689997322,10.269268468341789,0.021519373314150915,-0.004736516386322792,-0.6428664246192166,-0.07458327764521708,-0.021678292031816513,0.1176114431451965,2011-09-26 14:18:20.135118574,5.060144741
49.018297009367544,8.35348466502463,113.62189673305723,0.045435508882009555,0.006358417912950477,-2.4039035008986023,-28.174076195572198,-1.6019753868184754,5.855931227251372,0.05532972223241628,0.11907918245616098,-6.077196083053615,-1.0733212234085174,9.49833221852312,-9.738649687435851,-0.47061822130685327,9.670375813751567,0.010116619645697716,0.010568842518946738,-0.6466397462671465,0.06292950669517519,-0.05388833187241891,0.01167926300242806,2011-09-26 14:18:20.245099447,5.170125614
49.00183439306548,8.349863556116183,111.60607629481646,0.06697395622956631,-0.009771905410273138,-3.6942114633174272,-9.937701204873523,2.0708238777727956,-11.745031335023848,0.014058283315331661,0.12465627455577283,2.3979637664555344,0.9105714158828085,8.580647496004989,-0.6112869801584664,0.07632928545886242,10.132288705640908,-0.053408421263181856,-0.034373117365127485,0.1751741973029987,0.013418524726230799,-0.010240582614465947,0.112936141026508,2011-09-26 14:18:20.345068474,5.270094641
49.01838263478656,8.353121934192284,111.94769767004128,0.030605425634840103,-0.055750004676598505,-0.3961885849240965,14.103531894429922,15.673234840154608,0.8620129870189963,0.07659913986676231,-0.1408826709346283,-1.5884593699070693,1.4339984915938857,9.49146503930178,8.978195543801474,1.5408642983683092,10.758853153612522,0.012981511433199918,-0.024122338555192066,0.9460239012039859,-0.011321378246189378,0.02661021356877595,-0.165990326128404,2011-09-26 14:18:20.445056725,5.370082892
49.01601911163862,8.353379830353257,113.84375109587577,0.07277925539053634,0.028187504788638133,0.10841163200450765,-17.157774108512896,7.892458002220584,12.647681757379114,-0.04304453893604443,-0.0018105616235252185,36.62680863287878,1.4796659696205265,9.516783329098088,-1.9985224349262571,-1.6780804794675286,10.072450880553799,-0.0038837941393801813,0.05657276722154907,0.17841155583355944,-0.02938421261834731,0.025384398112412207,-0.5756058660209895,2011-09-26 14:18:20.555077031,5.480103198
49.01531763764604,8.353347165325104,114.97653694313037,0.10389334453739177,0.02095541084519926,-2.135256608045211,-17.04229649039464,6.384509855434659,10.49864491071883,-0.04335737549899037,0.11525537817246825,-3.5798229698145194,2.5176016457705197,10.02165950901669,-1.0450335125494425,0.9984674959754507,10.034056382184142,-0.0051466912199134435,-0.036993691493316244,-0.028404931096003345,-0.007389928313892559,0.03725346595523609,0.12489037030933665,2011-09-26 14:18:20.655130537,5.580156704
49.017635118998435,8.35348983837741,116.12105100515072,-0.3456004345532479,-0.0054218219136550685,-0.6898769772379703,-49.80804017517044,4.168413455832652,-2.0710238427911225,-0.2076412455379109,0.0102697767742803,0.7858935063941992,2.194785947348043,9.315850809996004,0.907112595167098,0.5558480933864499,10.321990017136274,-0.023703580111707652,0.0030747473461362686,0.08165558536499805,0.023184919487964438,0.002201397923010929,0.2670878029681738,2011-09-26 14:18:20.755089219,5.680115386
49.0196250168286,8.352953998112039,112.5549710188436,0.00754356989315132,0.010128456245610746,-0.9567323612809583,100.94114932594681,-0.8790652202881954,8.227555111989702,-0.14326460663768387,-4.1115147195180946e-06,2.5595073458684725,-0.9867542249435924,9.632195568082576,-0.4337607052674429,0.28740343717475736,9.063198648720713,-0.3216991728527357,0.022590438832485966,0.06375517124312427,-0.0016214423024349875,-0.02276696871036623,0.2716268462741007,2011-09-26 14:18:20.865101532,5.790127699
49.01916400253209,8.35293008720363,120.4920315330969,0.06679449735846212,0.042274873377986306,-0.31905314297808196,-5.272902081029197,62.85581846889015,11.229941863169135,-0.12230860572397623,-0.11907253756750927,1.5022470215491568,-1.3233740295244503,9.007050496851807,2.6278238458929795,-0.4852997840473834,10.116509250223334,-0.01005849630771305,0.027290720153829915,-0.026345503046149174,-0.03963024436127039,-0.06928463411582247,-0.05676053020759145,2011-09-26 14:18:20.965245141,5.890271308
49.018321039093586,8.34886700803593,110.35268520023887,-0.039817241513365416,0.009525466543256367,-7.829886967069413,-9.328205263426026,9.021621085524185,34.12961794485223,-0.25798153755784653,-0.15284578007616836,-3.5317665007485295,0.44635199815527615,9.505011732177582,0.18943510093362437,-1.6555041734870215,10.146303844479862,-0.061971993985991,-0.06916193607430239,0.0016613186877132632,-0.004305124160152758,-0.08371735158706264,-0.13323693708614995,2011-09-26 14:18:21.065240612,5.990266779
49.01773326524727,8.352832206941075,112.90877159825273,0.09774353152592571,0.023711254703807257,-0.565665807550925,-20.70960341642158,-5.012662432206357,38.078356179698396,0.0576974226644941,-0.48507258445674156,-4.051238210250381,-2.0303347619703365,9.694339292864164,-0.0946300134352191,2.375203696154456,10.196805637511256,-0.039407234012327375,0.03343831826018888,-0.00047678712195891454,0.04919978411453683,-0.04864108690358272,-0.2584220785851835,2011-09-26 14:18:21.175135572,6.100161739
49.017624584660844,8.352996219772534,113.13197889076774,0.06606235615823318,0.02598692921591412,-0.7538282459411049,4.318689084522488,4.561434424009633,-53.38589895858619,-0.21894879527017902,-0.2698118830655043,5.31203378486665,0.7382463314380463,10.134480597727983,-6.561406689513713,0.14325163866424273,8.476847863800192,-0.041041638160133495,0.057863614321383115,-0.050277515797726054,-0.043046873873764935,0.024539671826323592,0.042542052544941804,2011-09-26 14:18:21.275127559,6.200153726
49.017036889216556,8.355559958257022,108.11268165978302,0.13218018334804485,-0.006339936777227353,-2.2181493477204133,85.43583115167652,-5.1357508803000655,12.57209164074126,-0.19010503110052984,0.40017864861779207,6.683254451929306,-0.9243896741487707,9.006202942774642,-0.3646673961419157,-4.605878939880246,9.881772995020965,0.022994463800145186,0.012282997783955963,-0.00047483049291584256,0.0683654103795909,-0.05424345672022794,0.032070352314087364,2011-09-26 14:18:21.385124772,6.310150939
49.0166493747095,8.352541235548719,112.50015738867795,0.007782173800988456,-0.009215379068356074,-0.5686870216965082,-28.320137785948976,-3.462092981942992,5.791279395593196,-0.24162356499390672,-0.07975256785819684,-5.023941819525947,-0.7958554013704988,9.700567041566606,-0.29522909761301624,-1.296036097798171,9.252201303510502,-0.030070427307751297,0.059877982783482206,-0.05621059437684925,0.0018455789912158482,0.018616683472278638,-0.2002166651896329,2011-09-26 14:18:21.485152402,6.410178569
49.02940723490738,8.35363701688286,114.36822688872347,0.18154236503504131,0.03598224552920501,-4.28601905187686,-24.082222844915204,4.578523553777098,67.64830689266377,-0.21945291422166519,-0.12591649334525676,-4.035465800693774,-0.15061034261065742,9.870397448754279,-3.144187872230907,-0.4250300800128475,9.769050882321707,-0.03595577067069071,0.03836188481369365,-0.0912876089377119,-0.021462695889958992,-0.015691648418376558,-0.25251540536968187,2011-09-26 14:18:21.585398425,6.510424592
49.02031389557386,8.35366003267744,112.7735225232795,0.06319970685488063,0.0475398731722693,-1.5869562797127499,27.169378939610908,0.1159733955244886,25.76877777224823,0.1667223110961367,0.28473483352307405,1.392154641330647,-0.8099863235075591,9.60090521156062,-0.5585837166691602,0.9233741226649566,10.557590385907877,-0.006918116982631454,0.3206313419925363,-0.03704833717866635,-0.1883580786491033,0.02848647181031412,-0.04880905515100815,2011-09-26 14:18:21.695145500,6.620171667
49.0187009825363,8.352418069932348,113.39457668621532,-0.006022833972553019,-0.112917647903394,-2.0948234263764323,-23.065718682558582,8.092642042436315,19.717735557913727,-0.23541304423137832,-0.24209945492628276,1.7555883857088284,0.18298529691840526,8.941325072686668,-0.3354308133582962,-0.7802360059750237,9.789619352056958,-0.03671724366134573,-0.016713606239574838,0.028732197054457898,-0.01371391010893179,0.060643822216688376,-0.02492619474392771,2011-09-26 14:18:21.795141523,6.720167690
49.01549594176965,8.353249024489088,108.18539637348724,-0.01171420287568407,-0.017756194677933556,-1.7867606798378572,-16.622854977792212,5.556526751925136,45.15659488371705,-0.005053945765955789,-0.0464749014699135,1.7497558454064006,-0.8275802298886136,10.183613330535836,23.936840874186533,2.6302465279971283,9.718183902021668,0.10143145483104933,-0.019791940216807555,-0.0655216003388307,0.0351813074384961,-0.00817396833771625,-0.025107559189627426,2011-09-26 14:18:21.895177310,6.820203477
49.019627080740946,8.353280228807856,112.11184344765852,-0.042291628959864824,0.0166865627071268,-0.9921557643848904,-25.005048930872217,-0.26991003808850467,55.29173736043483,-0.12565609506265138,-0.11185886918223632,-1.1089439564571233,-0.13165998005270807,5.283801701090511,0.5625652381329431,-1.9253720371588892,9.379278494977116,0.23045778217753546,-0.005831027532243703,-0.10169218025020803,0.023753261642064667,-0.02149231769540108,-0.048542208135541505,2011-09-26 14:18:21.995120023,6.920146190
49.01631017475889,8.352969679027767,113.23536121743993,-0.01816098765550725,0.01785662450736898,-2.0339003301180094,-7.067475160373725,4.367946715448516,4.024155805890551,-0.08631484328352534,-0.13154557660555485,1.8520168626113298,0.681795942026002,10.18942739580473,-1.727127768559163,0.047448838497794465,8.73413224548115,-0.2799776975483143,0.008481917622873378,-0.08218349200522672,0.007747376035815871,-0.03436613477814538,-0.06422400543536412,2011-09-26 14:18:22.105289887,7.030316054
49.01429992480977,8.353180068248939,109.15520852042677,0.07065812934501431,0.039216375274173376,-2.440210043207245,-7.068100949589196,-7.808041510114885,41.50295561062055,-0.10266230809518828,-0.10416007610919255,-4.223008077758592,-2.7007354653025417,9.682301303709025,-19.856525788593036,-0.31779438312581987,9.53446187543461,-0.09995091129490673,-0.028180197294368346,-0.5728235850828082,0.04297581738187692,0.047478720312437474,0.3094871373943463,2011-09-26 14:18:22.205133368,7.130159535
49.020111406735296,8.35324165988586,116.37961668011984,-0.20014105592199358,0.04485629979832575,1.8018509151405397,-3.5777622063844996,98.27499895033999,-2.013938398240258,-0.06817928251205901,-0.9106530426489184,1.8898559884957438,1.1684873001800928,9.550914013361917,-0.047215613088062464,-0.5398965808659727,9.439744449979559,0.006720892467094043,0.025816143759936426,-0.2693245860156377,-0.009138357758200807,-0.03364096563982617,-0.28734406776898025,2011-09-26 14:18:22.305162753,7.230188920
49.01661798057458,8.352899317637494,117.75462247651024,0.06584979260268684,0.02106081862137094,-0.403250974609755,-0.13402190596091934,8.204196083666282,-7.208830194753055,0.031144035403127768,-0.1247290085350444,-5.685415206371097,-1.2789186961161725,9.591234183776168,0.016985836155135048,0.06751722736182875,11.54131917728756,0.044361875047716715,-0.028430222275391756,-0.16319938948798707,0.019552835745238358,-0.0865740304851956,-0.05763080066270027,2011-09-26 14:18:22.415161923,7.340188090
49.02479008450233,8.353192979011682,111.15549487269554,-0.007601027105234678,0.01958352071160107,-1.6466426548964457,1.0215896774084392,9.630383441941627,-13.843313440066408,-0.07751151242433316,-0.02308535709393862,-1.024787739084306,-0.7749473678669558,9.712807353156588,1.9158348773507476,-4.237809016814844,9.670931365689059,0.009506591062076273,0.011199296935685289,0.008899896703562962,0.017513391585126308,-0.026217461842645888,-0.1562478454803205,2011-09-26 14:18:22.515184285,7.440210452
49.01339148774349,8.35309624175482,122.53224397510807,0.06484648113620643,0.03883402905711887,-2.013694979739495,-20.00900353280301,-2.6515300407713647,25.094657290574318,-0.10225824012423365,0.005748024999017651,-2.258998808342634,-2.602957621689548,8.532751222851228,3.1104322746083874,-1.2911520491873663,10.703810841687307,-3.6268222976393316e-05,-0.012227662989735738,0.13391463161586475,-0.0036118330122531968,-0.06451509581678305,-0.1254938868526466,2011-09-26 14:18:22.615387626,7.540413793
49.01491134089309,8.353136038765799,112.8719429207975,0.019096861830867007,-0.01973217651495185,-0.5988109098158145,-1.2156964017683123,10.058767681146051,11.053268249890495,-0.33485883939859284,-0.16017013737042535,-0.5254344269834073,-0.6856171104816122,10.36228446355122,-3.3034316941066098,-1.6756252379555856,10.440104667348912,0.05583319820062613,0.02474550722612985,-0.3271953199730885,-0.05676698143684046,-0.010068867625343437,-0.06725290840715253,2011-09-26 14:18:22.725181592,7.650207759
49.01839488827918,8.351002096007937,112.94804381338416,0.03768395331429794,0.0024147032613875286,-0.7776067657053106,-7.656233697798816,-8.038124013900365,18.753878593433168,-0.16208069440851652,0.22321027326970566,-1.5535614615913031,-0.28568016537540375,13.02758183945144,-9.509571764155222,-8.16640338337168,10.32153753496813,-0.046352191277877014,-0.010503855014837908,-0.06719750271738767,0.07043386723095105,-0.020615219452625837,-0.1444641670051111,2011-09-26 14:18:22.825192705,7.750218872
49.016509982305045,8.353358557061185,112.49246564059821,0.013408404513559003,-0.12774642392258923,-1.4904275856246256,-7.126485707230194,1.267684832885808,14.69827490027172,-0.09919643994427357,-0.0342101228502715,3.927120688507655,-2.0340572025441217,9.572612877643731,0.30986471294749635,-1.0933042703256437,11.361876633549066,-0.037620945889618916,-0.026105437540153223,-0.1506163336713083,0.015877487256740246,0.04429503361489036,-0.19589231463036116,2011-09-26 14:18:22.925162584,7.850188751
49.016564977225364,8.353756799718637,112.48192451684119,0.07222686718994854,-0.011746442405918212,3.2404541260753037,-15.516709516310186,-12.047533525433325,-5.08111859173578,0.7352027165259536,-0.10102321169724603,-2.645871842165646,0.8824000830060674,9.90143634050894,1.5981068219864452,-2.1911205602066826,9.49175285747614,0.0010284251505263999,-0.03581979037296214,-0.18218760951098073,0.3114599753048033,0.01015117571256556,-0.06198922120924663,2011-09-26 14:18:23.035158398,7.960184565
49.01617610574947,8.353822043742825,112.7555315427086,-0.3925572100915583,0.0027423543126789234,-1.0897054981713672,124.11234355653627,55.37797944358412,20.389260804851062,-0.06500252620515742,-0.1816689432880688,-0.16904926866895864,-2.510866290213629,7.955579826908778,-0.4962918162179118,-1.8268962529289567,9.702358588700323,0.028739671184678683,-0.02757707186581155,0.8335343094722611,0.018067275522970813,0.05484951331087858,-0.11547192887793675,2011-09-26 14:18:23.135355530,8.060381697
49.018564644561735,8.352680822739789,113.64662868677092,0.013757233738262984,0.04961691038515543,-1.5214374098273942,-8.572753765532411,-5.952467654090132,3.7489079696847902,-0.2544819666161098,0.34195789348948713,-4.034275432389952,-0.2560086188177635,13.949960354006206,2.1132112923129975,-2.251266429452431,8.59727667011704,0.031154754340628296,-0.026659646486471292,-0.6854872122756773,0.018937644893047473,-0.02779916186131081,0.8768096803448137,2011-09-26 14:18:23.235195734,8.160221901
49.01860357953152,8.353792759063138,112.05963047953779,0.041010609610109855,0.03260882177364089,-5.0815426685693135,-16.737837565727286,11.233698732686495,34.43755358613601,-0.15318918718762464,0.0784165730211176,-7.920573116080894,1.167285101996189,9.434161081352974,-3.632093544644478,-1.8424686681488778,10.218877875494751,0.027654472758801164,-0.05918579395112748,-0.13854300673736267,-0.07721082318701182,-0.002904221988446417,-0.14016574303186047,2011-09-26 14:18:23.345203322,8.270229489
49.01739007982743,8.352902757295775,114.71504920287025,0.05431276602476273,0.01049563242089683,1.3838238900695685,-83.29497020026804,3.779567256581403,32.105108756622116,-0.10271304174942994,-0.17699709207716324,0.3480379158077086,1.018007540332185,9.624828638745699,-0.982244648934663,-2.5848151490236595,9.729712463583322,0.00893026642985208,0.035114707404925706,-0.13961032834194487,0.0011728309549703386,0.034749062839501216,-0.03351648781749288,2011-09-26 14:18:23.445198845,8.370225012
49.019936634281606,8.352875714923991,112.9530298011266,-0.16464677362359945,0.2278295984007544,-0.43944933544018094,-8.23879968119581,2.3397200637221505,-17.009502290225747,-0.38554844465288235,0.12420985824327704,-2.764894053995356,-2.042441393618326,10.00398479766655,2.3064690869465942,-1.4275576224241977,10.042062072199277,0.047636655075554105,0.06265746082227422,-0.0466621093697432,0.00038793465783405756,0.01609968932534982,-0.056434510577985465,2011-09-26 14:18:23.545217766,8.470243933
49.01599447768164,8.35383975208315,112.86578702684704,0.016903925758735595,0.1291392688341039,-1.0690566275474895,3.059816131599735,-10.153158086896577,26.48872228312738,0.05857031226719934,-1.376399682270768e-05,-3.517712071971876,-0.46771233742397117,9.605317562832653,1.5564606385198645,1.159381804476169,9.763259865166553,0.030196805814044346,0.010722913474783154,-0.01292870028346909,0.016785022228445592,-0.19217284691603564,-0.10953815845665942,2011-09-26 14:18:23.655262082,8.580288249
49.019738144438946,8.352737424591506,113.41179286090168,-0.036433305399885416,0.05757163558827372,-0.019189589511435567,-0.033352685381958125,-13.887645593001228,46.40451242196017,0.08963198718744168,-0.06075888420027974,1.3482020773369596,0.5770502281626453,10.3128619488984,-1.560414754494733,-1.931899828118786,8.131386572796986,0.06968584898484737,0.017229316594565485,0.006063149029417958,0.02649267643578663,0.003651693338127064,-0.04150230366619502,2011-09-26 14:18:23.755235360,8.680261527
49.01691325595306,8.355135868978733,113.70958419805865,-0.054163210835218106,0.04796338898985433,-2.461173240453217,4.097660143154835,3.6627039445234097,63.70280249866691,-0.0396192383030487,0.032647323803184906,2.1313217028395695,4.770139640122581,10.442276230597004,0.34490521975629196,-0.8883242032496823,8.968189467240682,0.0595868271795173,0.03254830260759733,0.20404439259782023,0.06332393989060035,-0.004634240038533077,0.4788338406482684,2011-09-26 14:18:23.855215962,8.780242129
49.01647976988208,8.353856177574638,112.70188055546632,0.04520738705284527,0.02025573193930398,-0.8406167038015522,-66.93591045340904,-1.13318766019845,-5.6464424627136065,0.07532236066089845,-0.14734134511014635,-1.207846928829396,-1.6139614370758972,9.280797948149269,-0.9426430096898105,-0.4004727049269768,12.440920532917787,-0.01057187884629128,-0.09537666828532795,-0.10913365874437411,0.06904330269100786,0.0958753305036219,-0.06982565519444174,2011-09-26 14:18:23.965266799,8.890292966
49.015844467187826,8.353149464977891,110.59969685769707,0.060984027603430066,-0.11492621455438784,7.491087822223609,0.898495393198754,6.312526313598472,18.049258115024756,-0.11571784747380147,-0.20083531078356837,-1.3569711872012589,0.25308445049478845,10.29288496416757,1.040528449876178,1.1342159283522024,9.140822330264612,-0.09023213209902993,-0.015245342810621326,-0.14496900940082727,-0.02131865407903286,-0.056144218652309744,-0.08679441175201234,2011-09-26 14:18:24.065354403,8.990380570
49.01603526418112,8.352611098338954,112.48618028642267,-0.2963572342315688,-0.0075332261495961225,-0.7982643881151302,-6.536032775421221,6.362282765462043,8.43953557157665,0.0906894803650862,-0.1433995381748208,3.9172745512637976,-12.057875190112156,8.900780817588167,-0.7764826023362651,0.9883311100906538,9.09020658196237,0.06872047984447247,0.021403042136349266,-0.15154665464181885,-0.0014496945384280934,0.010730955862507077,-0.39903482648749045,2011-09-26 14:18:24.165459118,9.090485285
49.0166888546927,8.353485015821594,113.5586456531886,-0.32102453578655693,0.016621836144945966,-1.041295983698396,-5.288378045267651,43.92689806134615,6.375252827906786,-0.10800261446244938,-0.03775471201140117,-2.5638441944662604,2.2004757982847734,10.630736642996037,14.065513544020083,-0.2595650818837458,9.817085551659838,-0.17296728825866362,-0.03963018811842166,-0.13108003361462078,0.07611465307241201,-0.01535301114351846,-0.20313953027688128,2011-09-26 14:18:24.275243473,9.200269640
49.02449341153004,8.353819452953589,111.0858124966977,0.04211630483097145,-0.02189967422473312,-1.7806044622787311,95.19486986496118,5.923873053002189,25.43060905156712,-0.06754899886329459,-0.055678179422996035,-1.7046837410142563,-0.39818204266361024,9.50391240285575,-0.4434834474163491,1.4278573816643498,12.993489623898087,-0.010595134862003412,0.04935158121026306,0.19363161769564877,-0.07422746867719594,0.05033759740376583,0.01065225971923843,2011-09-26 14:18:24.375263539,9.300289706
49.017462813495925,8.352903561527375,114.06834446232399,0.14056054985714744,0.034288683053764986,-8.508116349179588,-43.15697952715473,6.3119907868209815,23.912069464555906,0.15846925075685986,0.1761362297428356,1.7044624731540285,1.9595443568252653,13.785187970011439,2.0064501170369056,-0.7258630999511166,9.785449233684458,0.3311604742270713,0.08283653444112694,-0.1643123307211841,0.013434809730178437,0.09120454701496047,-0.27663377601725037,2011-09-26 14:18:24.475223282,9.400249449
49.01594018170008,8.352775821707539,112.29060446994312,0.04592914525965991,0.04361314774129756,-0.8396069219145542,-1.8554239007619255,-36.0629658038311,46.96436293984618,-0.07224501943149235,-0.06975716921545927,-2.2901093816027998,1.0749902607500093,9.334792880877739,-46.009275546418365,-1.442153895330966,9.658956544287172,0.019507634314555464,0.006829750663665372,0.19900688085991683,-0.04518098739948963,-0.0393244034817611,-0.05813004901994279,2011-09-26 14:18:24.585475892,9.510502059
49.01643851738328,8.35251251515531,121.11920250588649,0.2934234536942605,-0.08414223397184532,-2.316378039555863,-13.598179637225368,-9.211632217124913,7.183546302734545,-0.005900563549309606,-0.0026504031681267998,30.79659438377031,0.6975484249401162,10.329823214193835,0.3604024813947914,-10.425523879780341,9.176089713255381,-0.06573667801147559,-0.49574021143644453,0.778333482394748,-0.2111133337961393,-0.07395803444261048,0.04436701272321912,2011-09-26 14:18:24.685263070,9.610289237
49.01675194835451,8.352659553491383,112.00066967418985,0.059553243626310225,-0.015459695614546862,-2.009627686419905,-27.491174973903988,14.688676095991584,36.31140674108971,0.9324096201418733,-0.008857224818022237,-0.15351817314236468,-0.217986494433225,10.035410847277333,3.1778248090569776,-0.14403623055275563,10.23322349245946,-0.02063786685507677,-0.051873669086866275,-1.0666471946010274,-0.03873489627086695,0.007157899866135336,0.03550501406964739,2011-09-26 14:18:24.785257352,9.710283519
49.016029070607985,8.352929679009415,114.49752145687091,0.020488977620196358,0.02294763819571189,-2.6232059265383834,-7.479101347111129,-1.812385446617099,-17.839452901439287,-0.1156297261215641,-0.02686117324608695,0.4765969575169119,0.47024263185361914,10.777489271771374,-0.2824346078651379,2.3052102678792195,10.05902968294962,0.043709297308258246,0.001994740042323929,-0.08544749968735829,-0.04229457126782521,-0.33707764031599113,0.10136299455571919,2011-09-26 14:18:24.895289401,9.820315568
49.01664392096385,8.353122234599981,112.14576076884259,0.03486515701012,0.03461216967801345,-2.6959159662185157,20.28744183554837,8.973660485093122,-8.618300960410686,-0.05698588877514625,0.02997572325365807,2.881144152242875,-3.109957328723487,9.09413341374392,0.20123851156531852,-0.9926149150720494,16.72645883119117,0.006409680351410615,0.07873661661208659,0.04091604896319603,-0.15422821720626953,-0.007460297199163482,0.012145040889569636,2011-09-26 14:18:24.995253547,9.920279714
49.01512737492346,8.352629261163141,110.88358537294376,0.0019376646208350314,0.00969987343606716,-0.6941416264080795,-8.305758620128628,9.169537604985196,-5.9786176080619065,-0.24357459129478007,0.0554930451978987,0.5097597775231744,-1.927046919097239,9.929221187926487,1.171214998630083,-1.1290203460876496,9.530053477160388,-0.03222144349335216,0.05986250915338623,-0.14000596630853518,0.03940493380456595,-0.05563375971578431,-0.017784537064335575,2011-09-26 14:18:25.095448601,10.020474768
49.01856912416422,8.352930709835366,113.13748287441041,0.1163504055439804,-0.11399980267468024,-3.2213801535464857,5.928057906739584,-2.5248316795942496,53.01555897384225,0.059610148436991965,-0.04608291114965049,25.227427937462497,-0.38367555966558786,10.52391146211466,-1.8277296207613585,3.143329858751013,9.133105413054428,-0.027208412432701654,0.012442637993730013,0.19231457299161633,-0.012897361743057374,0.3110582098726351,0.30465388073633964,2011-09-26 14:18:25.205291801,10.130317968
49.015488824981134,8.352814660401817,107.04119208473989,-0.0074079599216007805,-0.0033663562285359445,-1.5506291728066937,-47.152431639505735,-9.39514826770135,10.10480969387554,-0.02600433212380348,-0.14728587163347984,-2.8129676126681953,1.7090776677233501,9.592402669096566,0.43019142149213974,-1.3667183102157106,10.32104695295386,-0.2833514163946645,0.055446038698197024,0.12384134236482562,0.11778616410553447,-0.17187903170535002,0.0817362586924831,2011-09-26 14:18:25.305256129,10.230282296
49.0148591133216,8.353310134973482,111.13808150368725,0.0453977888214608,7.677525887915884e-05,-0.7900724716018641,10.438829236748436,-60.39154879060884,7.715760277725114,-0.06234829573585451,-0.014020638060627144,-0.14925770493049073,-1.797007271389814,7.86656149110921,-6.679227573689431,-2.010013226484505,9.338166760912998,0.016119984988198208,-0.23697053864143622,0.01856511960399399,0.014984627340837862,-0.07547677370106837,0.0236828652383149,2011-09-26 14:18:25.405276038,10.330302205
49.01542658076772,8.353731096969302,107.04094265427,0.0522248735735327,0.012555929764935123,-1.6743415274463036,-36.981517548532075,-12.864572556700052,20.112678275320697,0.09358625718458222,-0.11415598004717188,-2.145623734164821,-0.23058754673360538,9.353345828253952,-0.8371578641267623,-0.5885427929488058,4.107993785708222,-0.0634133900399652,-0.1002724590885803,0.08870875237023873,0.026037997055859383,0.2523040969579098,0.004130764197254708,2011-09-26 14:18:25.515293217,10.440319384
49.01860699760715,8.353824547004468,111.41348858295078,-0.4541741728584374,0.0016140806282068983,-2.4066851528848603,-18.834177906067453,17.915737538750655,24.225720472870805,0.16533030077534605,-0.04851841687305505,1.5790068745561063,-0.7404005873427576,10.070585134095984,-3.6493482165484794,1.6247616821441644,9.352271759030481,0.09216594941430743,-0.09596595334802409,0.034153983720812464,-0.0023506482957489343,-0.03405027314379266,-0.11525195613798528,2011-09-26 14:18:25.615457491,10.540483658
49.016242440832656,8.35318088942806,111.65057415713754,-0.1060397142419402,0.009027580041002289,-1.3549994685256102,-20.192093143338045,-27.69381000661872,-3.385460713597846,-0.10976931710900399,-0.1971421307827666,10.002003961537222,0.3306520837918194,9.032064592979438,1.462340662587958,-3.0994180139219965,9.959817782477046,0.0022095210316834665,0.03652444847685239,0.21198942912951863,0.03966670419649886,-0.017987226447750318,0.034914454841667025,2011-09-26 14:18:25.715315296,10.640341463
49.01669708109806,8.353098830934664,112.96336386838217,0.11184293217305805,-0.021317577155581278,-0.6972822224047542,8.086422394282991,-2.0298889702399787,15.091908890337447,-0.15791625458780115,-0.03916425247254639,-2.7307292637342524,-0.025309627189321282,9.840500253942594,0.7308538808292828,0.5792455670282012,5.781840347206578,-0.02815622061662728,-0.001739190668112147,0.1532097902277727,0.09917546188813627,0.028898874569617018,-0.09659263033091298,2011-09-26 14:18:25.825310362,10.750336529
49.00742395041206,8.353178355765666,113.18679952531882,0.16294755271731462,-0.014565868168945117,0.07549623251066162,-8.858661957733464,10.803867838265223,-4.159622218916027,0.020356809789761964,0.07057626131727955,7.581622835745666,2.5269221988900945,10.158120711867435,26.0184912372575,0.1944835111576918,9.51426392992707,-0.1983862941284823,-0.01245940236606495,-0.04756874599855995,0.005036970385613905,0.055998382887077716,0.1379124558715967,2011-09-26 14:18:25.925331659,10.850357826
49.015757790413794,8.353125701166244,113.41561000634401,-0.054964699650750105,0.0010562273424940642,1.2996353254787747,-24.44631133763997,1.3994939936051418,9.490116988229135,-0.07190512822100875,-0.041660788066321695,0.35004034622353886,1.3865239374101184,9.842613294379516,-1.2568307511762766,1.2215623710827481,9.612638335180348,0.022857139199193764,0.021092232665297788,0.08614383900723338,0.023749409214534424,0.026820031976812295,0.18612564146865718,2011-09-26 14:18:26.025341474,10.950367641
49.01721467010311,8.354008401053948,112.09436403326592,-0.003264781219623869,0.041671807433382335,-2.210316211069384,-0.3025718644207487,3.397090470874285,14.586679758961575,0.033539227144988734,-0.15328032457058938,-0.1336869359069192,1.3830573300946856,10.137131196464816,-3.839708346873247,0.43321992749382904,10.510940184410567,0.06317307786283277,-0.006192302828518112,-0.0034653236358301726,0.060063747678710394,0.042378922202987196,0.6515718938052104,2011-09-26 14:18:26.135485729,11.060511896
49.016922029525375,8.352455141788006,113.30871395042631,0.052825577485020134,-0.023078769161103622,-1.323447716443471,-16.96875496329405,4.629507567678351,1.506189287376662,0.020855137689334176,-0.03833447712273963,-1.3720790756032633,0.6398413341692335,9.41428304711719,-5.799445051385845,0.7771578792192662,9.45673883001443,0.06918885368409763,-0.026101156373800945,-0.1905494434510757,0.07136783526745254,-0.021883042424444592,0.07487579067813567,2011-09-26 14:18:26.235298701,11.160324868
49.019342959855635,8.352625944805366,113.46643563253,0.09110874329960808,0.005787670297883409,-0.8367986292673197,8.638552058439199,5.281557825936515,-2.3728415108517105,0.1569224179225596,0.03253942326716984,1.9501621448215036,1.5303450261670766,16.234221136487307,-1.571949453703547,2.587865886313549,9.578725460519923,-0.025657199009876525,0.03068464321306899,0.03189835059793444,0.032345689705513894,-0.006784994626060369,0.7716722225436773,2011-09-26 14:18:26.335298911,11.260325078
49.02090015155863,8.351859921059017,111.55220995556422,0.06261572262953416,0.03469870199406658,-3.830592279851323,-3.3179249584321395,3.211654186242023,-65.58631599276893,-0.013819873891483002,0.005009908898131077,0.12532595078263825,1.5277011290713913,10.24118397378495,-2.1660808010605406,1.3158573096346717,8.082863409547276,-0.09171551898532394,-0.013931439456224506,0.08620032506862788,0.14316247206055333,-0.05447177867113107,0.04412402618254488,2011-09-26 14:18:26.445323570,11.370349737
49.01644665435346,8.352498795047437,113.16481254469247,0.0034328092059898105,0.05869975002603833,-1.3114463376120282,10.375814462029016,3.3631808324103387,-19.87164938995653,-0.16820656219244615,-0.3038039528712585,0.10546760170945824,-1.9120025695674197,8.613997112437664,-1.4902240207599065,-1.4011134870797526,12.360133200688061,-0.009438787555091933,0.05810979841723027,-0.09795345676990617,-0.0033426288189649066,-0.04569526803411135,-0.026207901700571926,2011-09-26 14:18:26.545317841,11.470344008
49.016010677369785,8.35288459229886,112.40996014259252,0.06147801602182265,0.04677370838638152,-3.0324546940864376,-7.46683730144472,-0.915386346417665,12.424595273648734,-0.07449899449917632,-0.12937372984702197,-2.5189230205401554,-2.71008125192997,4.75424902976093,-2.2158235248535254,-2.580389174853722,9.623603231686618,-0.02454180158409713,-0.014547678125878472,-0.014223576243342983,0.013745673545797825,0.05280732173752865,0.02435575171517783,2011-09-26 14:18:26.655358215,11.580384382
49.01685262314384,8.353737093157223,109.88283996094931,-0.30043146220151007,0.04698754500853583,-0.8870316517470282,15.870801681838396,8.187328803890637,20.520242758948548,-0.06411991098800154,-0.12253971406103356,-1.74368339615777,-2.9006722282142614,9.897252425994134,2.7953196328298864,-0.5153804494883915,10.527849003554023,-0.013057511374851024,-0.031102337051139906,0.02642794106286997,0.005635329543469889,-0.06397278667374044,0.053357514716162846,2011-09-26 14:18:26.755320135,11.680346302
49.015972031307854,8.353567973910177,112.9590358577406,0.009432333979460687,0.03703360564296579,-2.1258675423497775,-11.336560961152323,-39.01047576922464,6.949154192868283,-0.06846676941867287,-0.33239923094061746,-3.96596564023696,0.1849914450447082,10.035506095187909,-2.8437777654332623,-2.2365646217526853,10.409384343224337,-0.06010222336339848,-0.05072121768495493,-0.02493573296231661,0.01912963983939922,-0.0020596194070818525,0.04239082220676587,2011-09-26 14:18:26.855358565,11.780384732
49.02181766358701,8.35316775716555,112.01550129685874,0.02998512529857491,0.017539518300559595,-2.286458776381304,4.9878031309549264,8.171728586209133,11.735934842055594,-0.015769443540720848,-0.20088278924821418,1.9833416763175986,0.4861478437085887,11.084479021396863,-0.2522344332935216,1.3910966815665333,9.894027214929888,-0.06406546090858839,0.09361689217222935,0.26839327422880005,-0.09364340279482054,-0.01897621072672797,-0.16143789635200476,2011-09-26 14:18:26.955375649,11.880401816
49.018702580683566,8.352345851162395,113.00326141600259,0.055662485654273494,0.0074149111061096624,-1.5338785491177818,33.59048027864421,-52.39303345986047,-2.0889055308360565,-0.10009369620443026,-0.13120219793298804,1.4344731623760996,2.73707318564735,10.072636190337413,-18.912592254144407,2.5603535193771285,9.424900763297316,0.0018926699234739002,-0.024151668273667822,-0.03196821492972755,-0.3128166643564149,0.04333514223850526,-0.0847695468154224,2011-09-26 14:18:27.065594226,11.990620393
49.00511149037922,8.353218800046069,114.838227189401,0.09953099611118026,0.0293680438172017,-1.680959608177792,8.316499241800594,18.16730945951723,10.279192239592835,0.04282961310253875,-0.030459731362742624,1.7122925901520825,0.13925081593799535,9.759464348549898,2.991759597180328,-0.7024489464898164,9.416652506016694,-0.05614530744435528,-0.015545304599720927,0.0309487610240136,0.0014463964457144287,-0.02230344974355856,-0.01516375701031571,2011-09-26 14:18:27.165521074,12.090547241
49.01851588911679,8.353535383162962,113.87012890800186,0.07209456012955238,0.017758522855096118,-2.640892643363043,-6.2230437122964535,4.3276817460593735,7.866848567017346,-0.049875328013194734,-0.16381719912694417,-1.4602170197730517,1.3830001543959236,14.62037561296816,0.9398198608090993,1.5280706916618194,8.81028959311742,-0.03437078836829307,-0.01470621371431921,0.11603691688573968,-0.026786054336622483,-0.08887915599823196,0.010159069981940175,2011-09-26 14:18:27.265386004,12.190412171
49.01853376223051,8.353522169291956,113.15500257264068,0.1655698146318424,0.020668981801579063,-3.936308227510976,-14.946673684600473,-6.7282472857341205,14.133298248101582,-0.05258243277917198,-0.06255200522082474,0.09669204238440354,1.8013708629883562,9.259068816415118,2.868947987186006,-0.6054957157543218,9.956734919020064,-0.06013484364972435,-0.0006107197406044693,0.0870825158396365,-0.05062565762115478,-0.10550140332476837,-0.1833795752142585,2011-09-26 14:18:27.375367298,12.300393465
49.006373355219836,8.35259655270884,112.38327391070331,0.0586548350337462,-0.0007532324547469939,-1.347941757632599,-30.775906204461794,-4.474722508406574,30.541551597361984,-0.15078550553691225,-0.08447500841195332,-11.68458106063942,0.9048206097969148,10.085221297158016,-12.519980358076717,-0.4389760906131526,10.080656889183002,0.04912329645069266,-0.08398974666098519,0.1731337984891986,0.02261857244185165,-0.03803536215659939,-0.3367819220251133,2011-09-26 14:18:27.475338327,12.400364494
