lat,lon,alt,roll,pitch,yaw,vn,ve,vf,vl,vu,ax,ay,az,af,al,au,wx,wy,wz,wf,wl,wu,timestamp,rel_time
49.0486280240961,8.41279064075597,110.10438894783161,0.08549880350224823,0.004647266408372364,3.464455139624246,8.126072947321436,-26.81626950478678,16.989985299919674,0.12315496318254361,-0.0915791237215694,-0.5140853940447052,0.44691106657483376,9.436024339337038,-0.2116546375716147,1.9703676804458055,9.192790955975669,-0.02264130694861648,0.02794540026371535,-0.03754436166553886,-0.03576767174497285,0.02955373386206272,0.22663968616012378,2011-09-26 13:22:48.945746808,0.000000000
49.04620852658732,8.420859608730627,108.27507825228153,0.04120163504985823,0.012933191833392699,3.383244431679863,57.04724521330849,-30.29846950085143,17.843093429073416,0.3285025320114032,-0.09957237342377846,-0.41304218899990247,3.421812441411858,6.957690954810933,0.23711263753265865,-5.321765339306631,9.751449697244366,-0.030897382452460414,-0.05964171591170462,-0.041698696760920854,-0.00275102356449219,-0.005412510440803613,0.08233090013990584,2011-09-26 13:22:49.055763018,0.110016210
49.04269669987043,8.432222506418642,108.3508005221966,0.008030069903936163,0.01413644015803392,1.5322002845745237,6.140320585781804,-24.010195947651955,17.41427352333513,0.5946713320853011,-0.04453729100467903,-0.9882164252558567,2.611858925009335,8.726394934528406,-0.5720945196914906,1.8297697698414048,10.43201919653159,0.014631557613750956,-0.017877567482467518,0.07990719869361211,0.054252097884017525,0.018744513348791986,-0.025550203612114006,2011-09-26 13:22:49.155811026,0.210064218
49.05243148718414,8.422208481095456,110.42064090810001,0.0030138938889747446,-0.0035672124067500487,2.056823443684692,17.287995705896687,-14.326358574251396,17.17386868703314,-0.6648963289632128,0.02800079477981423,0.30372438480124087,3.7035043720953054,10.02389377853977,-1.4370937877889414,-0.3899289754449645,9.445677666774586,-0.014588913891642838,0.08404745890453222,0.10260013986963279,-0.0047627848311041976,-0.04149898470181931,-0.10488105476224704,2011-09-26 13:22:49.255922990,0.310176182
49.05221011710159,8.426262262061261,107.95399912078412,0.018614135887156644,0.021066500382779636,3.398877020745633,13.452547708104689,-11.740291237451448,17.531533264707676,0.06095475091718598,-0.03455196512594566,-1.3119212511543132,1.1372619772042585,10.406725408727326,-0.07087571283482771,-3.7195988363796593,8.669439052784499,0.016916608043378814,0.0011064486603603839,-0.1632722090786553,-0.011799316691504491,-0.03279801566571256,0.10059367100928512,2011-09-26 13:22:49.365738649,0.419991841
49.04791340613203,8.42520657207275,110.15720541941144,0.040981385041079885,0.013979105358105684,0.6996748830090778,6.803925784035696,-18.488776812539687,17.1641987116043,0.08098458201714605,-0.1082811082814427,0.24619977640722868,-2.922217790530346,9.823328270241806,-0.11224704783444767,-1.6632435745682876,10.335654034948663,-0.037210174253710995,-0.10240836717294327,-0.010919206200613167,0.060709783814058296,-0.04087370621751891,0.3671375235262139,2011-09-26 13:22:49.475844757,0.530097949
49.04743289522347,8.437052866390706,108.97609813810942,0.029862325931771374,0.0009297469297747732,3.395661578781434,-0.2754754064157039,-11.847102131749446,17.39255414451705,-0.07161780223253153,-0.18772267752695831,0.2400360104970697,-0.40163676488185995,9.528144628924721,0.20473688662815548,-0.7529586490153718,10.444844568364571,0.004055930563457491,0.019964623657868233,0.10693829327662407,0.00020355936742900115,-0.025921256927787063,0.5415669779326816,2011-09-26 13:22:49.575789434,0.630042626
49.05431710736821,8.424714682587474,114.41391155302333,0.02274569954961906,0.007079245259576115,1.939069338801119,6.597085010134686,-17.650117326713968,17.16047252514684,0.04495725506053793,0.14970083588541142,0.15717559457483932,0.5107028926715146,9.8018664482692,-0.006932640676663798,-4.4954314455513344,10.869679880463838,-0.08621023293068582,-0.025829081075135665,-0.5505299134453787,0.004484901908472772,-0.02597444179334745,-0.0003247642164309287,2011-09-26 13:22:49.675847621,0.730100813
49.041352243059436,8.468125347077374,108.66113481038118,0.05890435835873002,0.011323835140440556,2.1232309720306293,9.186746027802647,-17.62145922660312,12.209981393876028,0.08883928246670204,0.31254852707016817,-0.4794064375361819,-5.273365839881123,9.331048419984226,-0.5394104463130804,3.2150193097619,9.91951111371851,-0.030016247444608877,0.0029404084222549934,0.008154530179843193,0.014488266869751108,-0.000248741120152364,-0.5266640697043514,2011-09-26 13:22:49.785805956,0.840059148
49.0502626108043,8.407232886386687,110.32867844634465,0.004996534787969943,0.007532178399878434,2.636120378816477,9.722927721836161,-20.330149046012938,17.17659123230318,0.04577784358572189,0.15971391636418963,0.246434861624555,0.21904845768740577,11.316006079821182,-0.0034757047327254736,1.7660137482268965,9.61927046186177,-0.04852979779323556,-0.02013750577493488,-0.2761831256601078,-0.004337668040806492,0.018063722693881994,0.0108129617889879,2011-09-26 13:22:49.885824378,0.940077570
49.045224316508666,8.42772404541732,109.36105598033437,0.2422196945261411,0.011820959722933039,-0.46131854815633844,0.617147297468061,-19.37218381763842,16.58336412093446,0.017247398088711084,0.22817868380947526,-0.12834173880120717,0.20254569413293916,8.370129037631834,-0.4091845847507274,0.40161175895945944,10.124654960875766,-0.00010096215284695256,0.0003382039550775156,-0.06434727216185603,0.014783459011332685,-0.03424300299670468,0.008199787561471609,2011-09-26 13:22:49.985813996,1.040067188
49.05696102067759,8.418492256087918,109.21220758140873,0.018564265184506365,0.003942055787371461,4.667852293643736,9.503950257287467,-23.57509146064857,16.589899997870596,-0.04084129457216133,-0.003954622361327147,0.30199799652595954,0.7941314928691673,9.597994897601575,0.0900715195388268,1.9129180330784388,9.920836738746878,-0.007709576365745703,0.11418807518822749,0.17928323305797744,0.04752151083424198,-0.02559599734694213,0.1551758584888899,2011-09-26 13:22:50.085802410,1.140055602
49.049079117352754,8.424267761710976,109.54014980751566,0.06375889604525126,0.011093059182910557,2.8347893009609604,-4.460719630799,0.0741269014688779,17.9284461211792,0.17304691311774967,0.16559042368986276,1.0342295373115131,-22.574386040699217,9.625810008266862,0.017646970799185313,0.2950551158620094,9.102884836736488,-0.21165983115889497,0.004526666322901831,-0.07340811261294714,-0.24840751669184488,0.005051367468363786,-0.08654915348667053,2011-09-26 13:22:50.195818913,1.250072105
49.05599538938755,8.423920911816474,112.5544068324889,0.06527152371977316,0.022393169872181623,3.0110860687325403,6.840583840261449,-28.38914968576185,17.530804905454463,-0.09176270217120092,0.1998185239892061,-0.5905520844059063,9.717840772743104,11.707347325900047,-3.2567948158467437,-1.9524612319771721,9.721565531059138,0.031007485285949578,-0.04946838385604094,-0.09154735797464822,-0.0009712456078217659,0.003293304387946011,-0.029600671856566584,2011-09-26 13:22:50.295809380,1.350062572
49.04340370920128,8.427887619237405,108.85815904721609,0.05007504208196798,0.007828844471253196,2.5086216356778905,12.42079383301255,-19.700198020822455,17.403833135475576,0.1463172721379028,0.2045586973869189,0.4745575665470676,-1.4268921551446776,10.413989763301805,-0.5484614409057345,1.2595610053345725,2.7190435303574283,0.0153186726779862,0.14517166997078226,0.040945731356823806,0.07871220349435534,0.08261084698279648,0.06401157917674913,2011-09-26 13:22:50.395867647,1.450120839
49.07062106800136,8.426487845355947,109.58520449294147,0.08267208896226463,0.005569207170375755,3.085186436935194,12.294483082520312,-13.009533578067028,16.906387565157996,-0.07362782015051182,0.1855173884485041,-0.8009594829909674,0.2758570815443382,9.85817578981277,-1.2049794392216786,-0.5419860976176998,10.948067496940403,0.0395077876051356,-0.028671863245542613,0.016402153096617765,0.014761164966933313,-0.021506094574540065,-0.1319540778582313,2011-09-26 13:22:50.505834311,1.560087503
49.04885014396633,8.422849447253865,112.31637153301601,0.06627401208268738,0.008227465601219697,4.3709554559234425,23.78506956365203,-18.50982552855983,16.416439011685746,0.05555097434549315,0.03116813040949642,0.10742155741400589,0.2729860301709221,9.507315207225332,-0.5293631384639819,-0.014976288337998023,8.950216570620844,0.173372699037405,-0.024989579291149394,0.00989180837860807,-0.02011558045429188,-0.29689929902720824,-0.06577569690185717,2011-09-26 13:22:50.605836335,1.660089527
49.05620669921376,8.413369930996964,109.04761024937423,0.03593171802564371,-0.004666668917955284,-2.333838318634957,10.261601039270094,-1.7724384611563924,17.264083450462348,-0.033437950819713305,-0.08592259657676779,-1.137136205916987,2.5692678773566087,10.041915255850554,-0.14317913944864766,-0.9269413123482173,9.791244343999299,0.03550192557700928,-0.010093572557806076,-0.05561649808705015,0.09078532575273146,-0.04044984030924821,-0.6386818361556917,2011-09-26 13:22:50.705896358,1.760149550
49.055675572786015,8.417073962971566,109.81234576322275,0.03856518550931856,0.008409397737352376,1.6755089616380778,8.04732066121133,4.458616407205005,17.699849701911827,0.09850637747163604,-0.11711312277938622,-0.6140802596870545,-0.31309188987515946,9.766265136764876,0.2245730405478814,-1.9320857210915268,9.562276076426448,0.14073353315318662,-0.01913868613158428,-0.005858947789284575,0.047367190801855946,-0.004546437562206676,-0.07473272294766115,2011-09-26 13:22:50.815896574,1.870149766
49.12188960266987,8.421590030770831,108.68191614594794,0.014072541435199228,0.009591279003971862,2.3012579864897376,14.579608019861634,-30.914422636120733,17.36585188806952,-0.10676265073150217,0.1192264626248769,1.4032533727283107,1.6754016330065542,9.782006379774131,0.5256357009679308,-1.5309354636851573,9.868351591339177,-0.04624040339074816,-9.518385332211434e-05,-0.10266840147725757,0.0012514598073515414,-0.007908625841417893,0.6617594403601272,2011-09-26 13:22:50.915856822,1.970110014
49.04743858030451,8.430265475205227,109.2580627876996,-0.017902894565802387,-0.008813375845736266,3.2773433719735667,16.57520272225537,-20.702356358192446,16.581591655632543,0.0874049688124217,1.007481603827502,-0.3689288183335408,0.6726239905503524,10.213187855257718,-0.5937030189917639,1.4828498312906757,10.23725361624145,-0.009695761017139239,-0.02703987895015769,0.093859148203992,0.011503757235679786,0.041447049133004635,-0.08575021310906547,2011-09-26 13:22:51.025845497,2.080098689
49.05883715152351,8.423593766674676,109.67925892775222,0.04155543341656021,-0.03578670640355791,2.8871267840780965,5.069929485562646,-11.502654987136575,16.022372418149487,0.09150555671271433,0.17158236693667117,0.5175944549237292,0.7873487724942541,9.560897092939875,0.5962375483872575,-2.1712499405271646,10.380322915442731,-0.015421496490234266,-0.06653864159174885,0.15338364964636708,0.02383459617183519,-0.029802211361539904,-0.28693516691606485,2011-09-26 13:22:51.125838107,2.180091299
49.05567867709973,8.428121235375725,109.30086509195411,0.1018680293790788,0.012590631374819769,2.890376289186049,21.638344921066533,-24.171905886804737,15.761121292437007,-0.02079731675764061,0.0364637460838739,-0.6596997178543765,-0.8666802165005304,7.369941758775489,-0.07367446258053229,1.7600392382492784,12.146603954407823,0.02153233792861194,-0.04727109021364925,0.17139705182295062,-0.03352070952805021,-0.07693931236666257,-0.07367778004123232,2011-09-26 13:22:51.226062865,2.280316057
49.05083812474409,8.421388745971829,109.02055775482067,0.0501415125541833,0.008140727795540304,2.286312859686968,18.10860277554888,-11.832044022206194,17.404487918535267,-0.1078155504613134,0.2435436983177475,-0.014537910522190584,0.09484278608913299,9.721148679048783,-0.4568682630650468,-0.5453133140165534,9.679739688290185,0.026126823129562455,0.014458131297553183,0.022589300502058554,-0.032948578226701414,-0.0036801488378294792,-0.04420225515507884,2011-09-26 13:22:51.335892235,2.390145427
49.061811901985806,8.433091771873917,111.01323783963088,0.09008681376014123,0.015667752712799115,2.5233034980667264,6.50953658625045,68.15029269237684,16.606257670983904,0.018461072962644993,-0.09884343837036842,-0.1707899665744893,-12.101294523649988,10.009767077201078,-0.16308371220249754,0.30352780067051566,12.418154476577357,0.017029326795932293,0.08947541748649995,-0.1221203478439694,-0.001615739692140071,-0.0047435534054584925,0.10889949885919709,2011-09-26 13:22:51.435899088,2.490152280
49.04781831412197,8.430493940838774,108.68580417950385,0.03648642481478743,0.03327532087580918,2.069413494433491,6.528762885532425,-39.43130740719865,17.58000839027955,0.4961563293986213,-0.04512507713707048,-0.16646099209847237,-0.9614229335078117,10.026328978339965,-0.8363347586167047,-1.9844397932733613,11.33675962033785,0.09396838123477859,-0.017853871958064815,-0.06163478673491073,0.009236852387390353,-0.02365892725479136,-0.17623423911529995,2011-09-26 13:22:51.535872612,2.590125804
49.0279564680774,8.452568284274843,110.40803763966164,-0.011241220253540726,0.014284296950544326,-1.7295207328969693,-55.19135796310219,-12.893696952102825,15.228314454096015,0.08715645282948319,-0.10817772859084998,-0.23568855288987045,-0.7739524137914529,9.381418269349341,-0.0792961051667995,-4.821544671639846,9.542489474551418,0.0014701247694879536,-0.05527636338625162,-0.12934466011238943,-0.054686816594482046,-0.044268520594713714,-0.02271831914891588,2011-09-26 13:22:51.645859362,2.700112554
49.03123674009336,8.42494626801454,108.83395954622807,0.04845177226477671,0.006268446251146219,2.8326926216111756,9.631419191449792,-14.320014979535706,14.036991902490495,-0.31712158908180527,0.19254349486305497,0.0705725029440987,-0.4985755458682726,10.057672706661121,-0.09870682480715931,-3.013794411339152,8.882339517101515,0.03941604642644578,0.0035412607219055987,0.011939978949247906,-0.035974359468833664,0.20604903897268942,0.3882527880801501,2011-09-26 13:22:51.745918474,2.800171666
49.05677628774281,8.427300816815745,109.5910372097326,-0.22997561601538097,0.012786940538472336,2.072787917483958,12.75973847823947,-10.556063552301922,17.29379309392058,-1.4125518828652694,0.2757824999591861,0.4382893154551988,-1.8566676077868662,11.21398040198266,0.12223508160970364,-1.796777318650272,9.278870556924737,-0.0022722251736367284,0.001210927488300326,0.15570295186189256,-0.3101215838453349,0.03255818239927881,-0.22605415392538847,2011-09-26 13:22:51.845901771,2.900154963
49.08290826803596,8.420833068870584,114.18934516470563,-0.022697241323939125,0.00455462581071754,2.6720275400617615,23.98660243933078,-21.664222007254942,16.356479274782014,0.5999953797967984,0.062303947351193836,-1.0482631694404352,-0.02203598719241162,10.928408927933356,0.14460984447022782,-1.8671123604425732,8.958920764030628,-0.02730958017293272,-0.0013498578397165878,-0.05681828315396069,-0.009492436821940314,-0.005447750866909007,-0.24382681873528228,2011-09-26 13:22:51.955904540,3.010157732
49.04204877463916,8.425933747308507,109.14886234903572,-0.019156041034899193,0.007618609665083596,-0.5022033748936319,11.460469298687329,-17.65718772430135,17.198799074354767,0.18502838439309832,-0.01587762782427566,0.33275747735478267,0.417658548232958,9.50343170968911,-0.13768578464999903,-2.659762220836129,9.29326144666298,-0.17859762670192378,0.034975312772030295,-0.00014622429743423038,-0.008451161988141262,0.042622963738915554,-0.3146641594018985,2011-09-26 13:22:52.055879178,3.110132370
49.051227953907,8.422865644481197,112.97746213864609,0.02565678280741881,0.011974882742290145,2.8531227860888873,1.5847041934139092,4.035935139992485,15.757325019158765,0.059978117306999854,-0.2689700158794937,-0.48362787295487736,-16.497385797051813,10.220761538085876,0.4993826600271652,-2.2800288936348094,10.942571171864415,-0.03513328455305213,-0.013517899900384196,-0.007659940109322652,0.004341832352229919,0.041609520678577705,-0.1390129877280012,2011-09-26 13:22:52.165895331,3.220148523
49.048699646369904,8.419634774154861,111.75881203000479,0.031696392646311536,0.015062864048763246,2.7547269620441197,9.769691132200245,-7.5491228913931785,16.317482770994975,-0.1847045240471805,-0.30768278923957165,-1.7607998276786023,-1.0788642213602597,9.018076436801149,-0.04155409038645996,-0.4533528708002543,9.277333842063273,-0.04879948066550808,0.022685735349925833,0.03948428212717804,0.02971943544819747,0.008150276957862494,-0.0465110851170603,2011-09-26 13:22:52.266104152,3.320357344
49.04746133894886,8.420249375016818,109.3512655339167,0.019950102733135147,0.01501905310150831,2.4389398922112093,12.057973142833688,-13.490640816368971,16.079259582090224,0.26975339298338585,0.08744440735041444,0.9205735761062391,18.116959919828886,10.144781549987824,1.9282199674761034,-1.8169311402880446,9.875886521377039,-0.12608800749537938,0.0018483019853261437,-0.1832167792610323,-0.02435481531855259,-0.01603539956161501,-0.2082805172688176,2011-09-26 13:22:52.365873379,3.420126571
49.05108164022685,8.41998075649904,110.49819072057353,0.020350699832736106,-0.0002816796790018061,2.403648557110384,-5.587122032133291,-5.852306380106695,16.669644045031312,-0.022097406718806094,0.08022308291870824,0.5361222554933646,-1.06314023570551,10.220968538792865,0.570350492157711,-1.2306586195707745,9.163729972584063,-0.019937681123214954,0.052442098561572593,-0.06347807681386318,-0.23255514427085575,-0.018849402967897076,0.16597949943670343,2011-09-26 13:22:52.475970984,3.530224176
49.051319088916095,8.424335137448303,108.9011338206451,-0.06541389171841169,0.01237414598781994,2.332011154911036,-6.156117408233198,-20.092335559481597,19.004623361927486,-0.12148995589388548,-0.20130807466709816,1.7863159741827512,-0.31705531473566295,10.768101503774336,1.9057141027385773,0.646167715503374,9.14539572612019,-0.0376204108585511,-0.0020808508317514945,0.04836979612741356,0.021336653481936148,0.004057019686265444,-0.07673088098737534,2011-09-26 13:22:52.575913160,3.630166352
49.04317911398223,8.419987759385718,108.3923891126127,0.01035337355001005,0.010352415144553295,3.0167351427735936,69.66284511599005,-47.42722610302094,20.58207325608644,-0.2175592718397712,-0.15349215044525205,0.5104841726869217,-1.7047860638944596,10.261328814770287,-0.19601163287644438,-0.4499075043931693,13.456142180896801,0.01801494628353667,-0.07090945351567694,-0.1210205546483884,-0.018209861806659663,-0.012705237501153667,-0.0802777321113025,2011-09-26 13:22:52.675882868,3.730136060
49.04781367890997,8.4273837928704,109.18479904311016,0.010469376202697053,0.03106958364151522,3.221474516262197,15.985715479348812,-8.11787851792843,17.743337717028428,-0.21329927546085703,-0.15904571204388232,-7.012560534448845,-0.382170071915483,10.849918335620814,0.11491987639510842,-3.515797602654067,10.621264294260214,0.025124375619484052,-0.01782000562300016,-0.025944948815162294,0.23110968544804206,-0.029362852764852364,-0.15688652713563728,2011-09-26 13:22:52.785932600,3.840185792
49.05587535053673,8.423123532215552,109.17440204518938,-0.22482620498990824,6.398645859272481e-05,2.696659281837488,-0.09414420632030662,-15.536485494979658,16.98354227264198,-0.14600785727354793,-0.1090674782055728,0.44608285802362313,-4.414105173171545,11.765398371285984,0.3699298398508241,-1.2725494932538948,9.456298826031569,0.24042162646297036,-0.018586995018124136,0.03930944209574265,0.010288285957663582,-0.052697484289727856,0.06991026080792817,2011-09-26 13:22:52.885886881,3.940140073
49.0483892935267,8.42366850639962,109.2961414900291,0.054171728003419684,0.001024944902335967,2.0495619347655323,3.139749902860995,-11.778382124480762,16.794959831991047,-0.0973092214195208,0.0989141644274085,0.26569999478313855,-1.3046253289031335,9.370526960905739,0.34152240236427833,-21.1426011826258,9.20219754188155,0.024666919386529356,-0.043423023973536125,-0.19483544429814487,0.04379153575791896,-0.07896539966792085,-0.06310505028998632,2011-09-26 13:22:52.985881391,4.040134583
49.060288535522744,8.426043498629872,109.9613094522209,-0.032471510657294464,0.006423626314898283,3.186251334992084,1.0574473299318559,-9.562940586252234,16.08528996908827,0.04305049163471488,-0.2275940879884341,-0.6496908107626793,-4.119972854609589,10.025523969329624,-0.10683320012191912,-0.2611555153849152,10.32934642013669,0.012763236299659461,0.03266926289088136,-0.1760005748769618,-0.07999349082534088,-0.19683733076772394,-0.04123187320298492,2011-09-26 13:22:53.095882992,4.150136184
49.057612316045365,8.423358880681048,109.65243864788744,0.01659875967408741,0.0171785100417998,6.466517850717587,19.65219237655249,-7.016469830634616,17.073741117997947,-0.05216887348277449,1.5145688177081933,-0.638019430358924,-0.588031530160207,9.810695384160532,0.15959863951065617,-5.321116245454157,9.536601938528925,0.047447990703128294,-0.005634717362358587,-0.01763920081946145,0.004019747076521836,0.03132506129263755,-0.18379116664951375,2011-09-26 13:22:53.195892196,4.250145388
49.045444966267645,8.424749044088065,110.61919291540997,0.01844701992584135,0.0019987934600812804,2.6908376822244033,15.59798714540354,-15.717582471965844,17.131093812463128,0.04321247050869901,-0.031116844236396435,0.39632408385795254,0.3116208002189391,12.349478747920651,3.0533682489511946,-4.235219703531967,10.233710000373451,-0.03734235935526377,0.01079407631819963,-0.11577634681216195,-0.03143751628548774,-0.02119570624377431,0.20666955427227096,2011-09-26 13:22:53.295913969,4.350167161
49.04887180093338,8.430342898167234,109.70664174707518,0.05521373481777489,0.0167743920238136,3.2581353895339142,10.841767643840646,-8.802729727994794,17.387618298162444,0.10334489855667957,0.21293733077011337,-0.26459433131677634,-5.906293342253648,9.96703262532147,-0.07813621250154529,-3.57884978573943,9.923537953518043,0.0364948524818112,-0.04053328465396585,-0.16189920661064341,-0.013750879763801778,-0.012413039754823515,-1.20807207491151,2011-09-26 13:22:53.405880208,4.460133400
49.06114790140857,8.382126019734432,110.15150340484047,-0.03701115878709547,-0.009368584547102142,2.874970490122204,-0.5138039333108892,-17.870402073923444,18.37910685162533,-0.2756659109176168,-0.01056073306396274,-0.42756276081771694,7.580436287907084,9.473861410488704,1.0896325467607813,-0.877795327517318,10.19049453372148,0.0158505489487504,0.017927462851048674,-0.1658056927251946,0.04062035947785534,-0.02756869793473717,-0.6154372604589278,2011-09-26 13:22:53.505897277,4.560150469
49.01385358386703,8.424748872847216,114.20780280231008,0.1016498607964745,0.00936135938270044,2.671910787300611,8.695970365326977,-20.367794253927304,17.784244137449747,-0.18041258438960334,0.020264373607569365,-0.10481840900392836,-3.675574950585819,10.315033457770546,0.7270343859393105,-2.0032116667176094,9.327834309732495,0.004800722416081631,-0.009697896298186171,-0.05447043253200402,0.015223777349105013,-0.014598215169681142,0.032596506895184243,2011-09-26 13:22:53.615917077,4.670170269
49.05088982824494,8.427658874591346,109.37176704869304,0.02105753483913695,-0.012470250631625686,2.7618123879414185,12.730170497986053,-18.550695986011483,17.332000258321976,-0.04369655364535726,0.24055512140453444,-1.0434121190218337,-1.0846801105090906,9.88302996793552,-0.4698131230503367,-0.5669224682452496,9.50218002696842,0.025536075013090687,0.0494944896618075,-0.0717425866312512,0.0514542819016648,0.04221782306716668,-0.16688478883436655,2011-09-26 13:22:53.715964961,4.770218153
49.05534406901392,8.423449713908418,108.48110484730232,-0.03173825642676257,-0.0022331539850325858,3.0182672547996656,5.923412041509901,-12.45247641691747,17.63417345231459,-0.11235641722315494,0.16681925493301786,0.7306582127080692,-1.8599653619523582,9.794067985585881,0.24564233070950925,1.4937398396408197,9.272215698802096,-0.011620709278872748,0.0596753668239833,-0.13567214200535643,0.07429433750661077,-0.025741278165717096,-0.05478552919325715,2011-09-26 13:22:53.815912073,4.870165265
49.055367152751934,8.435664248147425,109.42724917846765,0.015524817730015707,0.009500274801346046,1.8983624618393011,22.81864194185337,-4.354685849876942,11.258499534033575,0.08114692333817043,0.021385865514208745,0.8353139250250627,0.712492966985506,9.533063236723063,0.1632397236821897,-0.942291343418396,9.606215265039452,-0.10000404396133322,-0.049234161222090414,-0.2511044834253296,0.006148937337989321,0.017784193607930057,-0.2307326914852937,2011-09-26 13:22:53.925904510,4.980157702
49.049140380964566,8.428524213700797,108.74321841121488,0.03872884389506931,0.001288763710271027,2.170213730883966,9.82367736070138,-13.035366894103186,18.256293663800278,-0.299206156181793,0.13187551012689286,-0.15787670060103626,0.48832063954804683,9.375619206409755,0.6387931406187282,-2.3114079878924163,9.59415285122954,0.013268499342698616,-0.06493457243568387,0.010950427380430491,-0.06538707169986226,-0.003368842076049922,-0.17026133555892414,2011-09-26 13:22:54.025929770,5.080182962
49.04837831228839,8.426656938476139,110.1653917544118,0.05401543186086408,0.04924846928812883,3.270497629370574,11.817652794571776,-12.411863864035391,18.613746123772202,0.08322727178828915,0.005226531888792678,0.9550095071894695,-2.250990755053834,9.84714736301802,0.25051823669029893,-2.451874726372903,10.461058966636045,0.029756329851506558,-0.012040966533738585,-0.13511187115350978,-0.00614467209605318,-0.018687653326677524,0.4190622479803167,2011-09-26 13:22:54.125920444,5.180173636
49.046434605216355,8.422644527195706,108.27604796284491,0.05052997553246491,0.0008005089525502567,2.7663679367893756,-36.9946932736588,-17.654175593491004,16.447578728196785,-0.12449258091500225,0.22216873937589487,-0.10869640239828676,-0.8658658918781484,10.120287116346745,0.3285616176557469,-1.8071752923587983,13.197324523692123,-0.04912305759277466,0.02307104714180926,-0.03024020093277463,0.0034653442759485864,0.007854167722178425,-0.26416749832716685,2011-09-26 13:22:54.236185901,5.290439093
49.04722581199301,8.424580436241019,109.85439039147641,0.07327884896001702,0.0042845923702694595,2.9134575106025924,25.851416993050627,-5.9202459918546415,18.1181068965818,0.10220465748342414,0.01949411834842598,0.8105351977546033,-0.6531396991747935,11.018564999133467,0.4429265598338855,-1.2914281892027317,9.597945566157836,0.02085895728420463,-0.017562314507665974,-0.08846671489622157,0.004496065238895472,-0.036151011152957976,-0.436122432931812,2011-09-26 13:22:54.335988222,5.390241414
49.04654084878278,8.430907689461801,109.24838256985531,0.06325907229786491,0.0019205428852259775,2.279772428909851,8.257013374497532,18.940630281611142,17.596629506748762,0.020283284033307737,0.10709069423716405,0.6086985718332627,-3.0945863742136934,9.205371466478722,1.0452015683367348,-1.3366633264394485,11.15858394500037,-0.04021570671080576,0.19344944313271573,-0.008432712153847763,0.008611823539707854,-0.10604385873507013,-0.013872866699722652,2011-09-26 13:22:54.435971360,5.490224552
49.055175811001526,8.417791372263515,110.69449392587927,0.053972743322910834,0.009975209455572048,3.0558791968477603,5.212629709761423,-5.956216965218706,16.948160359450014,0.08033123668621459,-0.01970786637093149,-0.1286939809872605,-1.1524877563039653,9.629389939494413,-0.29746660093022703,-1.7192764299714025,11.175632771249468,-0.0340356830792104,0.03995799708885023,-0.19936962627021512,-0.217616965799479,0.038549812975563216,-0.1661760956119613,2011-09-26 13:22:54.545939135,5.600192327
49.05191081456648,8.422128667014018,110.45925152435365,0.08257327447530013,-0.03199552427964894,7.694000954351212,4.378835999876146,-18.23799331019778,17.880140253124438,0.018497326412334997,-0.13481489153715367,0.16769010819873512,-1.9330223618448397,9.281898614250743,0.7238748739942948,-1.7070347867993008,9.942079688704618,0.042030921815605,-0.02096478508442124,0.1363660375761344,-0.15521076759958272,0.03004590425307164,-0.08594751648338214,2011-09-26 13:22:54.645940664,5.700193856
49.05258584711975,8.429841341531898,105.521772919494,0.0976925217775514,0.01629293632998169,2.4806736625230554,22.686931018107487,-15.540587923725445,18.607625866575503,-0.21735792821155914,0.20686779116277385,0.659742362008318,0.44759567192047955,11.167933313784449,1.948709491352204,-4.117279830322564,9.515949352458962,-0.012810688283787912,0.00648058195770999,-0.11950844822871723,0.12103937490970496,-0.0011403947657550881,-0.006405668619264122,2011-09-26 13:22:54.746140841,5.800394033
49.044364380082655,8.420117167171961,109.47918272560894,0.02812354101656652,0.005967177902526314,0.15043951056759575,13.320573508262651,-13.71399495496785,17.923323368588107,-0.13253676537968906,-0.21743613594382152,2.8045362004304546,-2.7647781007396715,10.512378827305945,-0.08914276601497184,3.4422893236854115,12.454756694785956,0.024725919027936243,-0.028868198579438748,0.048770918416019465,-0.007175914457187688,0.048296289601860415,-0.13939787610742327,2011-09-26 13:22:54.855951243,5.910204435
49.042706442543405,8.427676657459843,110.92655040511242,0.08737966461821964,-0.0062660770319304115,2.1248986028710806,-71.16585487348779,-12.269722285456927,17.885304978978553,0.07143432164788492,-0.21361755483654998,0.8020335503068039,0.1633852646239784,9.305211376068854,-0.3871765627489433,-6.019114369860255,10.415362841197163,-0.003279488841663537,0.016027432727628858,0.035891628332718445,-0.040267072903282526,0.01721302655156356,-0.03838506933041545,2011-09-26 13:22:54.955998693,6.010251885
49.05386869661474,8.439088234209073,110.28730697380111,0.026524679344733293,0.010491810061098096,2.3801434756628814,9.561398808159577,-9.339416453361867,17.665109546906816,-0.00903523249586655,0.13925492233517245,0.24893538911910967,0.940396155234975,9.403725184538741,0.6291220888875468,-0.07572450006497511,9.552478718542046,-0.015071188895573337,-0.028556257890231,-0.03683792117621729,-0.2573256342482515,0.017950329524515918,-0.14264141375340175,2011-09-26 13:22:55.065956110,6.120209302
49.05440934093255,8.427998513958318,111.04428403039942,0.07689738280125522,-0.030813403164585213,1.9168911631534193,11.8826281290845,-1.8092170429969006,16.608926986669406,-0.16429234625945427,0.11860554062207185,0.4473178052577321,-0.15109683826219578,10.829932226907845,0.3411091544540566,-4.3526094614047475,9.303740859053466,-0.22291372450884875,-0.016400546753516723,-0.19469892563046706,0.00913936072231999,0.05785956393898932,0.29500433206294013,2011-09-26 13:22:55.165967496,6.220220688
49.0525890152442,8.40699351324547,111.41259199628004,0.0732913544571043,0.007560793555736318,3.250157714633815,15.680927644047093,-23.037695083706282,17.82728479145607,-0.09634883054720059,-0.12510182070468007,-0.4185214838629463,-2.693825494422329,12.589070913142473,0.38436222205646003,0.2374866991501079,12.237557499349817,-0.002819562615793886,0.002068774181191134,-0.04110151185985102,0.280987825105001,0.027630551547880328,0.3227774395335222,2011-09-26 13:22:55.266026330,6.320279522
49.04252118539755,8.420741060483332,109.48742490571999,0.05875116828651604,-0.01186603654979151,3.03666173038958,14.503574545155688,1.972764336144003,16.909830371533605,-0.11864857280479046,-0.21325642235613812,-0.19282926868852257,-0.5762287701789289,8.637604776960016,-0.009423000362515088,-3.756775760323392,9.750969193498443,0.01611342511201317,0.024351829158073747,-0.21488252186245,-0.06717066753844167,-0.0371921881542373,0.19038758548919088,2011-09-26 13:22:55.375985831,6.430239023
49.03751292211668,8.415810282525067,107.64881371504804,-0.12964998210428166,0.008008328285006501,2.489321646879234,16.53249376861177,-12.796187918304884,17.497594416773506,0.059704007456586765,-0.09092202711221764,-0.4492236233958007,-1.1173988120521847,10.545870226692843,0.2982117291514912,-2.4753092104939904,9.397057633029096,0.024280409544422156,-0.02682456837718795,-0.9350495222586821,-0.04986753668881491,0.21258979704440276,-0.11616571107220633,2011-09-26 13:22:55.476026540,6.530279732
49.05447903004611,8.42627167444889,108.74104736824012,0.2918533133491907,0.014997902951556317,2.102186718919416,19.585936384074007,-18.171725456268344,18.032443661838872,-0.10817784764753903,-0.06270584111217037,0.07519875217827221,-2.6418393800301536,10.010156527235107,-0.1807392365333389,0.1698452674144495,9.68629471335578,-0.03189338847243574,-0.0013517658349752213,-0.039613183720338035,0.031080267825791912,-0.016196406577376882,-0.07403684567366803,2011-09-26 13:22:55.586018329,6.640271521
49.046002426324904,8.430370591165774,109.31494269764312,0.04090783975023878,0.020918309811149075,1.8114261867254562,39.14870083857485,-15.953550683360286,17.162244048484364,-0.23958552756624646,0.18916510631160768,0.4269039103222393,-8.696489899380019,9.927689754375082,0.12159407552812568,-1.0466762302960309,9.820056238317168,0.15897764700382971,0.00012782382562249658,-0.1372851732530926,-0.007438614250256622,-0.004008081036211113,0.2848694679313569,2011-09-26 13:22:55.685984983,6.740238175
49.04996275658682,8.417476056824345,110.28057033572277,0.1398327204887152,0.0001426995879042891,1.9813591487693398,0.17792587522533232,-29.821904289124454,17.682149833804463,0.08229369650158438,-0.8918892468177709,-0.04579142746865006,-1.277055334051732,9.890094302698657,0.4200905019563261,-2.20330681462062,10.165362111434037,0.018128607746768003,-0.03431273999837723,-0.10461718464788107,0.04515559010214352,0.016123123274284196,-0.1493764817660777,2011-09-26 13:22:55.786021787,6.840274979
49.084853921176304,8.422754464383063,109.85435520613747,-0.1296243561469382,0.016564036900846298,3.7664958282072614,14.08372750146175,-12.016608565862125,19.597589469314787,-0.16857664514341406,0.009942663440018921,1.8591143115169977,-1.6815231723852517,10.760986454500578,-0.44015731697258076,0.8884169246829361,9.982553761905022,0.05258733666390774,-0.03490802443620836,0.20416227930400555,0.05065596880449304,0.025019517888355495,-0.18747496789258267,2011-09-26 13:22:55.886016590,6.940269782
49.079352269089085,8.41993340229662,108.43682684025124,-0.025973823445406864,0.012254622041875433,1.77234056197915,5.111897789747886,-1.3585025994148374,16.796136198481832,-0.2857667118011154,-0.083102771276997,-0.14049610699739937,-2.717761530920681,9.758235346365185,1.4395843478779626,-3.32763481635076,9.419083256649923,-0.025256092435426876,0.021419968405613346,0.005373182858197906,-0.015271227622742195,0.08025299332794512,-0.04786128637711924,2011-09-26 13:22:55.996065179,7.050318371
49.0618347458257,8.424107163689104,110.41345441120781,0.11307412151787274,0.015342645633395022,1.7240122301845815,3.149732540130687,30.48445115358153,17.443881678416485,0.08884628565921564,-1.0151864126048804,0.093994317095793,-2.4510236175661557,8.940567138534075,0.5065180625428223,7.233956583529119,9.761117864824618,0.13677556280616315,-0.14019189951167146,0.010703808499183773,0.01441807931247094,0.023723550756058816,-0.05228925481532627,2011-09-26 13:22:56.096029582,7.150282774
49.01467837698648,8.42784406098776,109.73665479755985,-0.0454609662033981,0.01509673385607473,1.7079302444133453,23.352887447195567,-19.825506573488433,15.941196964364616,-0.19701348352497805,-0.01024095165213633,0.47645417674455565,-2.5525593934798314,10.209443707382794,-0.20615690818532678,-0.21071000445729338,6.59185729079857,-0.03541399857662897,-0.0028580688320304815,0.35703197904803013,-0.006389452999159745,0.0031999998276654165,-0.03774753114597474,2011-09-26 13:22:56.196024115,7.250277307
49.045387725351965,8.423892679689171,111.1154657490304,0.03326285762331028,0.017094563774117007,2.4831036515677503,9.909818939485605,-19.93349258637563,13.474915408740852,-0.22491358779986556,-0.32821253973150544,-0.3036916247391868,-1.6333404717228568,10.030571807074194,0.44047352988097466,4.507331211126317,10.10962245867673,0.03617802415109351,0.0052133571188207285,-0.05597475679345945,-0.013349160913381791,0.0239527279254954,-0.642055843541429,2011-09-26 13:22:56.306108489,7.360361681
49.052392847489266,8.423735157225794,105.04669553356975,0.05659389158260045,-0.026482811818126704,1.7644055043650404,10.71976362078002,-3.0589346992131254,17.794759420672488,-0.03407870514652748,-0.041738237230376264,0.42240288949402743,-2.036623145267267,9.732463147088373,4.112240461140566,1.6956094682505332,9.458079028348097,0.06717682186840811,-0.03345963128533556,-0.026003544273284288,-0.08021072709560574,-0.014557301689236695,-0.25922989475663555,2011-09-26 13:22:56.406084818,7.460338010
49.03956077340785,8.417633231062645,110.52291733409164,0.009937789626183347,0.002443856056689616,2.2831215283591395,-1.1944795020124612,-11.783970404798156,17.981950775549304,0.14032844000616265,-1.0175085004585076,-2.9027918012544545,-0.5145983646358941,9.488323464481294,0.31246052464658763,-7.86851293371625,13.947112443553145,0.043256594712724805,0.027377626549238837,-0.1691346934386746,0.007164846804417949,0.0631142993456589,0.009824533810835659,2011-09-26 13:22:56.516036812,7.570290004
49.07313356759458,8.430321186131223,109.52499681365215,0.04118503791973666,0.004031842426138284,1.8783231592000456,17.19295855375433,-14.203111225597414,16.98923730002809,-0.35443854011101833,0.01414228829631635,-0.19323657125263946,-1.9747178672317165,8.024051828267421,0.686838940621884,-9.222592301604648,9.4403103790754,-0.05143272437074329,0.0047602888930547965,-0.053708336565661347,-0.030869247075296355,-0.053144504595951,-0.06785687180930032,2011-09-26 13:22:56.616060361,7.670313553
49.055164800930044,8.419065241135417,109.35689158473642,0.06675771587725488,0.004689374236864446,1.2873933927312977,22.13326593590304,6.160499062382991,17.168395360672868,0.03606735352136997,-0.14430433248116917,-0.7207032888272739,1.0763879857193968,11.534413819527472,0.7618785846978384,-2.640089785030254,9.54199542036845,0.03649061855465907,-0.008212547611391643,0.07549367869565424,0.017041908069985595,0.015555237273683794,-0.12298378214461328,2011-09-26 13:22:56.716299891,7.770553083
49.04783883112088,8.416817606421139,112.04456466147391,0.08990211934228604,0.08264492748080807,1.9281026339095138,18.5847526669201,-35.461715002004794,17.624627560676213,0.15324245164331077,-0.11394018297246279,-0.22193471478853394,-0.08470781477783862,10.140453131344213,0.7305420252851884,-0.5650425338649168,9.129462393153217,0.0383834557605638,-0.007617577763462622,-0.2913301701904743,-0.03530189408066502,0.05704395295919399,-0.12601640836566175,2011-09-26 13:22:56.826099296,7.880352488
49.05475668450802,8.432652435009311,110.64964885836591,0.02286693892236117,0.010966448839939627,2.1032770055762247,8.125928014905952,-31.243359929134655,17.501136497325998,0.04817669868749069,0.19229749478866093,0.8005876545582582,-1.5501548282010014,9.919842631411106,0.28324290276197306,-2.5674160918396196,9.410492249641443,0.09076813175271557,0.018426464688824775,0.06012995136753588,0.0058424783680021426,-0.012443345582659394,-0.25397618732961913,2011-09-26 13:22:56.926079700,7.980332892
49.05187758189698,8.424594894315868,110.29030116278453,0.046956464127903094,0.010650856760776043,2.3607840971202925,-12.528790338864672,-14.191004291727236,19.445032912747035,0.13171419733772843,-0.19929947137377035,0.3497714256755242,0.5004644919916701,9.652914688259749,0.03935129617734906,-1.2357481728785475,9.251069894627332,-0.0007318763991297002,-0.023161269512573336,-0.13668803825060427,0.02497600463149366,0.06730117037496541,-0.045090614405859084,2011-09-26 13:22:57.026105084,8.080358276
49.06254973721108,8.439948042891896,104.334240711872,-0.006672368044284983,0.006377325014434047,1.660726787101077,-39.455286583041335,-11.906543270126418,17.93320599132358,0.9751907439121272,-0.1462151475959684,-0.20417910370784326,-16.527753710274254,9.904633712107882,0.7233778482620519,-6.877290889699291,10.485104694863011,-0.0011808640977784678,-0.0389879926073544,0.05006311536809782,0.16978976039593385,0.021655051572033075,-0.012388947891229973,2011-09-26 13:22:57.136165571,8.190418763
49.05682703637886,8.410004903326067,109.66914737787575,0.1209297338965305,0.07127338466300194,2.587073932457593,16.42726672828801,-17.003043590511826,21.908352913292347,0.19360987468234422,0.03448902654227077,0.38165585805971103,0.08790104588075076,9.935834364085562,0.8408764898379045,0.7806996331414255,10.269174235144447,0.019283668749545225,-0.0045231204372597,0.0024207379987217503,-0.005338879744442392,0.03789567984199054,0.06083266264106724,2011-09-26 13:22:57.236185522,8.290438714
49.04830061118102,8.426260635736092,110.24923392259991,0.035941886406259636,0.011314550862579952,1.785287698952089,14.677789827691038,-8.806965839727676,16.66428552606691,0.07028077978071921,-0.13648042231618215,-0.2539339180000312,0.238120934444716,10.806931320358268,0.45697796944994173,-0.5578224436741316,8.878006298462493,0.05521530506788233,0.03400943202953431,-0.11877052951401469,-0.008357377390178862,-0.04428090237590182,0.16843247885439788,2011-09-26 13:22:57.336123367,8.390376559
49.04853348409898,8.425217817558872,109.62849513978922,0.04038061680494871,0.0007653920074513001,2.3759317503542317,13.786032902307122,-13.910501760130968,17.924678004474227,0.05608713224390428,-0.0785494108942087,-0.2554653731222159,-0.8057871709016327,9.752139900215937,-0.1360805429500812,1.6633518310261608,13.446105833115148,-0.004856361487885057,-0.045164114142080804,-0.040872722301048305,-0.007791938447634633,-0.05578154325446831,0.05357128319011308,2011-09-26 13:22:57.446156169,8.500409361
49.04494082930744,8.422854444595018,112.93640938331143,-0.0061515373417616245,-0.006855208049221584,1.3525932312655686,11.237685723321398,-42.27029597908246,17.836725025272248,0.1792035167714998,0.060919233386190826,-1.0402186792939179,-2.917346851387515,10.818047017494425,1.4173965608218821,0.42209279352732515,10.57717961671485,-0.0510822030438076,0.005677138769498748,0.04931594305703861,-0.0018554583213923424,0.032772427496679066,0.09694130733564545,2011-09-26 13:22:57.546145502,8.600398694
49.05994827928556,8.418979675130306,105.20933014619466,0.051279782106269434,0.0157474966300269,3.6227617389954045,35.18805211491027,-4.421119829235647,18.64942464580035,0.24629580222801922,0.08503783657096904,0.2949563846383064,-7.780200316398959,10.811478361008975,0.9417026614293504,-7.414090343995316,10.118929795290404,0.15077472632307284,0.02670192426473063,-0.024359285760213838,-0.07665585559290919,-0.025311553097231487,-0.5832973128078445,2011-09-26 13:22:57.646137470,8.700390662
49.05410260379445,8.429270058952307,109.62275867581086,0.025758464240845106,-0.011403082311857755,1.9792181142561118,13.710578417642393,9.17732539536384,18.06633233663135,0.04203395444307194,-0.5888545924512397,0.29494688587131584,2.2403082292852194,8.767207546978481,-0.23977306070017682,0.2056438469288951,6.626578991279129,-0.13855696074645762,0.010234639425241006,0.08358686602013206,-0.08731830500351022,-0.012995912872251188,-0.020067071248495317,2011-09-26 13:22:57.756218372,8.810471564
49.04830262592861,8.418313147998086,108.8998227529083,0.25520941697522914,0.010616343540918406,1.7270829824616145,13.597632205120469,-14.188312071202052,18.848888584326527,0.2760081101885873,0.1700832744011424,-0.548189979082979,0.40830097722642206,9.838022078416527,0.06767790183173632,0.3789093076374902,9.749658493156295,0.023227787927766707,0.05436524008950597,0.18330826539958966,-0.02640826293250636,0.022733072315800754,0.07744828836750832,2011-09-26 13:22:57.856139373,8.910392565
49.05243042668695,8.429044909196977,109.63601397687297,0.32903543587592904,0.016292653443139835,-1.4713642770630533,21.308011468383338,15.508335725626925,17.415834709211886,0.2195301023666381,-1.5716537058453988,-0.1324560236999752,0.26612947591793107,9.644349738295888,-1.0726865736247915,-0.19069889452428063,10.650417896218434,0.005859008830601117,-0.00297775315850371,0.10941753049630698,-0.03571039314610445,0.0001294268037156654,-0.04994149027788663,2011-09-26 13:22:57.966119654,9.020372846
49.04647284315224,8.424174148008353,110.06050148918517,0.022260063529275113,0.006012719244814018,1.9675078557716597,15.478189522937148,-10.188949839636908,18.532053921655947,0.41917519436062606,-0.01674583103039854,-0.716098021940745,-1.8209602571511356,9.994229578887763,-3.387746601354861,12.829329535528604,9.08456059016682,0.03076604401396077,0.006198537144629521,-0.0722502990888783,0.012637374653549076,-0.007920007317061882,-0.05691654615896198,2011-09-26 13:22:58.066142767,9.120395959
49.04871368576476,8.423257565950154,109.001140179343,0.043779823722878114,0.013475158746716844,2.987866808078656,15.047954573512358,-9.500156031756203,17.96598427218566,-0.24593108024973345,-0.4850646314541098,-0.037131421223277894,0.6747234154437534,10.36146134470984,-0.8017200895843193,-2.9949396757621933,9.551862262425129,0.04495336601209579,-0.034717182947920394,-0.08633612139673705,0.011431979491177486,-0.06272724298437368,-0.013693341070532467,2011-09-26 13:22:58.166149619,9.220402811
49.045888395826054,8.426035587800259,109.79698408517453,0.007051974149534335,0.06604698971584508,2.5204903522410183,12.713296308689792,-13.929686927856658,15.414574429121487,0.11017398584037258,0.032842211906143455,-0.1025640005149892,-5.28942297186538,10.48373644918821,-0.5246780978900845,0.5054212785677369,11.24207964758365,0.017486405331208113,0.03512684288899247,0.10126507343905633,0.0029237398966502053,0.003132400798203213,0.1152189757649903,2011-09-26 13:22:58.276332531,9.330585723
49.0443336991101,8.415713427705333,111.44369994916524,0.1952383492429409,0.0018433541913276223,1.6189747638853589,3.8864104270512794,-55.84470868931423,17.33806060957285,-0.026029597499040172,-0.006872153924725495,-0.7994123413358382,-0.9455921683713839,9.29892379025016,-0.17759313074569288,0.5113775321833416,9.38152009454725,-0.007817037094222445,-0.015112833750045226,-0.013321911889580366,-0.12209157896557099,0.016644548044421642,0.005304493732594238,2011-09-26 13:22:58.376147206,9.430400398
49.05618332233335,8.429033586134743,105.79554958500592,0.03803759270358251,-0.0015819259166706921,1.961359192902956,39.712579810094276,-88.27365525452572,18.157081800762263,0.13996056811903973,-0.040562470975665496,0.4864358090883284,-0.6944893459397685,9.803864347076246,-0.5973923284094647,1.7433806473572016,9.362753434858282,-0.022075179879222948,-0.000751566229812586,0.0036185183346373385,0.022561122454331454,-0.00950028074889804,0.634446278980157,2011-09-26 13:22:58.476199006,9.530452198
49.045831523803585,8.421542163634438,105.87523756129211,0.062045031225177835,0.02063293227316089,2.172232167210768,20.928837424340355,-1.4796353912704312,17.5238811762108,-0.03297730937242542,0.020234778541087024,-0.12894692535924732,5.341101417295975,9.881117453320892,0.42447192620533725,-1.6072761407021952,9.228967850503906,0.04408439025305149,0.021904307729949432,-0.15855831281754837,-0.04480813650130534,-0.011410693143091427,-0.004928907976861166,2011-09-26 13:22:58.586188367,9.640441559
49.05580338613561,8.413802974904735,107.8497367082184,-0.05461496963916867,0.010583911434494902,1.8832747323201524,18.328752504343512,6.3091800975572045,17.525197105617867,-0.03627428565494056,-0.9522678057764978,-0.33324630623067075,0.2637359129560401,9.76744708065668,-0.5613930357053138,0.3497014361122249,10.672862809625018,-0.007000178925606067,-0.027568179983767198,0.2051333345504914,-0.1998018894566118,0.011795569166561794,-0.12498011367053337,2011-09-26 13:22:58.686183992,9.740437184
49.05356808033751,8.420925396646522,108.57521004269354,-0.10199248324617605,0.014603011639376644,2.135334975899467,8.308285016636393,-11.198210228831279,17.11433806016682,0.22353911467562626,0.033499949748033865,-0.1476562296150742,1.2730647123088064,9.483441958827234,-0.15612507778893464,2.2178480866514176,9.709414178657145,-0.33361361878292567,0.01804766187099616,0.1852744677577901,-0.023549394009720375,0.025580133668634493,-0.06373322782629726,2011-09-26 13:22:58.786201232,9.840454424
49.03178214169753,8.424584881291537,110.6346091216984,0.03984653471393045,0.02021954938003355,2.3573769035946115,22.555453474893234,-8.586896944509965,17.068490776089988,0.48694434838158296,0.058615098857048104,-0.02114329761081442,1.980086630051358,8.74304383986257,-0.3061130032316942,-1.3249928580042796,9.907162603003506,0.06368068623071323,0.009327574316357947,0.6447520323669075,0.04118904472742122,-0.09296192707643385,-0.10532967069861679,2011-09-26 13:22:58.896214025,9.950467217
49.05201358117379,8.424560163087307,109.64272206716957,0.08525166965037363,0.005191160422804896,1.2025302967222173,14.450964708446405,-11.6825944871011,17.432367333679977,-0.03799719233257233,-0.18352353639703275,-0.39224938933678327,1.301625536806677,13.947486776183784,-0.03171943826788767,-0.9223601602799748,9.653474970286744,0.12931492389574287,-0.013330907544025048,0.05446823373482282,0.016394502581888064,-0.011451479190163587,0.07892110323134774,2011-09-26 13:22:58.996215051,10.050468243
49.052570090089276,8.425562084993398,110.49206732585344,0.08105338029823445,0.0083641071440983,3.1306444684646717,10.938693639049259,-52.10105371258107,17.563860806213192,0.07356825912967058,-0.1455107524965574,2.2149223713988992,-2.3399104092994345,9.18565600985564,-0.724079040459814,-1.5249379292527525,9.415783650183691,0.06611485376321767,-0.047951929259384685,0.03194897183233417,0.14894044653206617,0.1493663117688578,0.13871415090488795,2011-09-26 13:22:59.096201767,10.150454959
49.06225614436584,8.428983053075608,109.92464982328814,0.05944360656892213,-0.02953154977084241,3.9617090771640973,16.09384991040661,0.511982876143481,15.364699912229106,-0.5438549045067262,0.11492541139101205,0.1731221777732459,-2.60915055961821,10.056910535634321,-0.30700202418303246,-0.33475625674945914,9.893676366692423,-0.09801621205883532,-0.011083760451992776,0.08879748250109683,0.10477576185923836,-0.29440377020486097,0.6217852214299308,2011-09-26 13:22:59.206318561,10.260571753
49.061607568466485,8.415616696091952,109.07192771720823,0.011314559778675525,-0.0017818739639517429,2.160085926914992,-0.4184671970322622,28.45702091911639,17.871933662178098,-0.0371260405267015,0.006832473839915705,-0.2188044420989585,0.32280275886816046,10.085776286020195,0.5165206217571602,0.5294333122393517,9.97360237016794,-0.11579671249849803,0.1493269510618453,0.021702412342116263,-0.021640960172904244,-0.019201146365222577,-0.08925870730585553,2011-09-26 13:22:59.306244990,10.360498182
49.047056869576345,8.366052984675385,109.4859917242514,0.04616725001318939,0.0606117889665581,2.6792327269431087,17.675669841079277,-13.098158406527151,17.718069739804985,0.029867121930162464,0.06376619633105995,0.6059171769107786,-1.4385791437430304,9.512489552544999,-2.370639680239672,-2.612870596298189,9.822613390648506,-0.009641723523552798,-0.05863105259612821,-0.10187297965233832,-0.031808096910169274,-0.09559291672728117,0.05423764315011767,2011-09-26 13:22:59.416185645,10.470438837
49.032640427079265,8.423121661141305,109.2581691635725,0.022317265359541344,-0.008872890823591661,1.9758689229397468,14.181126464754326,-11.501076333250733,18.312496846788342,0.057553446171144926,-0.019133016706046235,-0.558897757844332,0.24750004908385448,9.44351138861013,-1.2584107148805883,-0.8242640833568362,9.98550008834162,-0.026269427247635813,0.012826414022425917,0.04043015561629045,-0.04707918719932212,-0.008015153580279962,-0.03815861583030211,2011-09-26 13:22:59.516209899,10.570463091
49.03957050805972,8.428973365882051,114.38829554739763,0.029094079906332046,0.012792134011224896,-1.6649783166471988,20.482920095598658,-14.563494321220144,18.0233663960429,0.5802256428751797,0.0725320450540601,0.14414306642226327,-0.12681076831261265,10.02335349729706,-0.31158153455248216,-3.3201929861793342,7.337023181903625,-0.001466052884108079,0.17280093878823238,0.015636760905733193,0.12889378972552903,0.01588968872499199,0.2343803139018325,2011-09-26 13:22:59.616219366,10.670472558
49.0524330394155,8.43256532858641,109.23590850528954,0.045637110154052245,-0.03932550243145771,1.2952140563373973,19.66405796642855,-19.86418646741958,12.094779603595168,-0.04621767459429729,-0.043584905126722244,1.433280225280943,-1.6541346902044745,6.418288324960308,-0.3072544417643153,-0.9556105749150028,9.608082399460047,0.14754329686169596,-0.00950222385231378,-0.10516842719063117,0.003282544266822707,-0.030136301791679376,-0.18066039716289542,2011-09-26 13:22:59.726444753,10.780697945
49.05327247456926,8.419635286311026,110.53110313495239,-0.003418880314373169,0.004110856365804818,1.9171692118470514,12.503368148953816,-5.712308425857145,18.352748187556163,0.11492101908035417,-0.10471118140498681,-0.6298321240251574,1.245783330525767,9.846484870428013,0.713038929264589,-6.304731182551912,10.037656898670043,0.03503580100345759,-0.058878923271150574,-0.6157960692798243,-0.0411087756516351,-0.053448614345402434,-0.07339699086378186,2011-09-26 13:22:59.826224857,10.880478049
49.05627659960035,8.42470325798697,110.03160213896236,-0.19582317092123233,-0.005169356054874797,0.9383728638050512,9.35574581480659,-16.591054147455246,19.12196730958246,-0.019020541682389286,0.09733967783641069,1.2534244991973282,-1.6425239099849969,9.599321636681216,-0.35142350583694615,2.1640031252163707,10.532012222337267,-0.03716000074267913,0.005699084354720312,0.11891400856842504,0.012459188848585873,-0.009582355360210628,0.0755433085608168,2011-09-26 13:22:59.926198554,10.980451746
49.05630596494229,8.425142593410618,109.76729285734562,0.024797492989534188,-0.009163370686754234,1.9876393507997279,2.9298847110891977,-19.483189082086433,17.115197506279262,0.10643717876176324,0.11044477161845655,-0.18917353135542325,-0.8716981187434927,9.593508777015918,-0.09727835531500996,0.2238044269112396,9.814318978191455,0.03516802910873926,0.007344937384673741,0.015684341513079687,-0.0015247758191139697,0.025374919145989962,0.01582328592102466,2011-09-26 13:23:00.036230466,11.090483658
48.984548356698305,8.424537632171505,110.73643383432022,0.022116033693235088,0.010465849374683065,1.586159024636272,14.59930282585506,6.9283414009907585,16.956309917639445,0.060567119204457204,0.04751023408099238,-0.033963285708874504,1.2454275806200286,10.090891439868432,-0.1375014450200829,7.855249637651737,8.85938020537812,-0.053173394917992826,0.017112385127404255,-0.034176052142186386,-0.0206293754138213,0.15498883473535652,-0.0036340264982029427,2011-09-26 13:23:00.136245194,11.190498386
49.033982580701576,8.424777661911179,109.87898830215843,-0.16350640521028798,0.012406714595903048,2.6758809379714523,3.8053530353075082,-4.308144982208513,16.5433419580706,0.006339349773571784,0.007099185852604009,-0.4215796273473122,0.5343083308950591,13.062199895332052,0.1234363694332375,-9.009427370272617,8.876201712337497,0.020273430763774507,0.006076694191715384,0.15533706117482904,0.004325313599977053,0.03441528744391861,-0.1613562114460737,2011-09-26 13:23:00.236444661,11.290697853
49.04898632370392,8.419572310648768,109.98686887904086,-0.3897118219558211,0.005475580367803277,2.1441892460834158,11.435209986799054,-6.825163970099972,17.291138493878055,0.17410158449050994,0.49349609236631126,2.829582287583083,-0.10804751215361166,9.328418742337904,-0.35229849283289033,1.1979169481413048,9.448752448269666,-0.04432632130180747,-0.03705177757011348,0.052693942630410766,0.009598883460759863,-0.03268569561790528,0.14350049214065036,2011-09-26 13:23:00.346222050,11.400475242
49.048658822419455,8.420254391266639,108.25693871293277,0.0850632865316565,0.006546840880581006,1.1492561961249388,65.07537839390531,-18.411979209573783,17.075606927553157,0.13236063761881753,0.15386745024327741,-0.01967933455835527,0.24251247861085448,9.984058411347897,-2.317711717126591,0.2949632121164178,13.374371858228947,-0.019711792231573936,0.024005702978714814,0.14137201656329862,-0.16602837911260332,-0.02696646729430485,-0.006116850014206138,2011-09-26 13:23:00.446240396,11.500493588
49.05517465564258,8.431053452260235,104.71542462736402,0.038734334387404944,0.005303985075319109,0.19337164417454722,13.85223181614723,-1.3893693833144063,18.153472054825045,0.08242747874269621,-0.2896666251780306,0.26814358521686177,1.132133208131278,10.310774054780238,0.1533073807671093,1.738807085727629,10.16622809858792,-0.02765642017246389,0.05431882241150111,0.004292527257530689,-0.07121098860719988,-0.03801956137241188,-0.07507226858890635,2011-09-26 13:23:00.546249290,11.600502482
49.04648520176832,8.39898937815139,110.10151852829294,0.05964643318163391,0.0014063709915791054,1.7033756966278453,39.52426560889184,-10.573664789788397,17.56268943514764,-0.1376218192454694,0.033533478598577166,0.04971019167435035,-0.123541097834092,9.342820634815803,0.06885938153534463,-1.648320510728434,8.941611671642494,0.01673739653697765,-0.004043241111408415,-0.161838474914134,0.0139654810059305,0.004441764087633936,0.1390681334673885,2011-09-26 13:23:00.656287871,11.710541063
49.055517044765786,8.418126502489766,107.98026880276227,0.00967324814549837,-0.05196854098830166,2.3392946823613348,18.36605454722303,-11.582583553014965,16.545945710271532,0.13749586747706194,0.04348142928489722,0.4191939356269394,-3.081030443508017,9.771022070634181,-0.23051166361577471,-1.4098201113028892,10.49180421106519,0.036084420071064126,0.03532083354884721,-0.07063016218191684,0.020192346119774142,0.010968096025839194,0.03579448569837328,2011-09-26 13:23:00.756303818,11.810557010
49.050510877989225,8.400428163550036,108.73157049508906,0.01059909924589814,0.0394734184947016,1.7086015548190718,19.340448358411965,-5.094800759751877,17.316449237868916,-0.0256453640654275,-0.017202524709186824,-0.3734676116463187,5.62585818691275,9.233573250929734,0.10915857588496117,-0.5630590221664495,10.386593573312533,0.022794874549452955,0.00021453038043457544,-0.06781361119788826,-0.027989827812883433,-0.012064801920119116,-0.03962588580977146,2011-09-26 13:23:00.866280155,11.920533347
49.046859241542016,8.417319580933663,109.22415066498318,0.222983021955846,0.0016544433772014942,3.3172697983541672,-48.46760201999012,6.963456493861779,18.17286304152133,0.10219551099276411,0.33801025627992,-0.2932424845345133,-0.035731716524196766,10.252041395461942,-2.4415204964282733,-1.4845241405030676,9.952358491675435,-0.03268567380107841,0.033692006173220664,-0.09765296576241596,-0.04073418598868988,0.0542688611335948,-0.05285588074058208,2011-09-26 13:23:00.966262653,12.020515845
49.04795448348979,8.424619378632894,110.00142698006226,0.016953340102852467,0.007271600672320896,0.1608410287551969,15.860626055688929,-15.402298444659337,17.47997862129207,0.22798096417336203,0.1288906738251262,0.7258347129638217,-0.2372085428371964,9.89389529537444,-0.005254518792515924,2.4432859393165476,10.281094404845275,0.006069818810294135,-0.026673922634928418,-0.0010115907304367212,-0.13381121549600392,0.00039054847981586857,0.27161971535820584,2011-09-26 13:23:01.066261781,12.120514973
49.05568284052154,8.425553926337432,111.09267110008571,0.05624910459875576,-0.0035379783989876613,2.221827689320043,23.704531337808902,58.66035756150306,14.292194359047118,0.13598288487934604,0.2672546417622537,0.2658226518253355,-1.313266309766361,10.15578004109916,-0.8554269085180104,-8.275517492293053,10.01532949472886,-0.006211884455058187,0.030937536382260475,-0.03767588136434808,0.03877817819199018,-0.01751618350170732,-0.10288513038611272,2011-09-26 13:23:01.176270403,12.230523595
49.0625700667317,8.415129156088387,109.15896613618483,0.07130502594314397,0.012634797791683179,1.6324801668475817,14.607006386022276,-11.059258784899253,11.514667105257626,-0.01092157469952483,-0.05063105151572536,-0.34484555662515626,1.1949246323427896,9.171312058342327,0.20059378383527032,-3.3505137283120536,9.637566863612587,0.24041555029241005,0.01380806511328751,-0.13180974093226147,-0.10088107363682429,-0.007901234046643642,-0.21783238017917703,2011-09-26 13:23:01.276545569,12.330798761
49.06729068168191,8.424015957180597,109.96560071035576,0.06925294881471582,0.018209867129851606,-1.0549505665230714,-7.26912542655908,-14.267703502550226,18.489401444679824,-0.19885784980860371,-1.515798491829518,0.689573144260662,0.3798508304354626,9.908331458362042,-0.11118780433527414,1.1673968795545564,10.190392412563048,0.018031280377352483,0.02433483712707047,0.06376621033823054,-0.03308735681429031,0.03650644038975505,0.23482248192012542,2011-09-26 13:23:01.376266303,12.430519495
