lat,lon,alt,roll,pitch,yaw,vn,ve,vf,vl,vu,ax,ay,az,af,al,au,wx,wy,wz,wf,wl,wu,timestamp,rel_time
49.05267211016484,8.424944298509278,109.44691359887956,0.013076502096952942,0.00636385395091586,1.9246041960344336,10.600045671912579,5.246221192132795,17.968209368238565,-0.06095913956643914,0.020725083210852306,0.6386314564499371,-0.7756536753596677,12.303561634449549,-0.756436543892023,3.697197504681949,9.156812718129919,0.005217692526218897,0.014291152908883446,0.051132976929058424,-0.02122784105586233,0.02541089453114179,0.09957454917957548,2011-09-26 13:22:48.945746808,0.000000000
49.04672726404273,8.424813145880403,110.1610850281348,0.05265980362172848,0.042640789757403506,1.5725062168397848,1.0769563506640045,-15.91662644013794,17.683143427410897,0.03239299637414099,-0.13932570906442177,-0.06902760556927934,-0.12434224163870333,9.41920805628772,-0.5595245963630413,1.9053822090853858,7.340012920424529,-0.0017746021664096336,-0.02466422492101399,-0.10589727428338627,0.029485886906839575,0.010099375103371687,0.16289693679930733,2011-09-26 13:22:49.055763018,0.110016210
49.04455101043893,8.424323092818389,109.29715748155606,0.03326018313304078,0.020542866520950824,1.8910146205794498,9.718309292326166,-16.17166846564271,18.22876989123376,0.18420429352263556,-0.005160256211452396,-0.08159032714626357,-1.6467508692291335,9.597502507526574,-0.06686201751487697,-1.8241372221694792,10.388840304195654,0.2354549788381731,0.03162213462155124,-0.010816007101206934,0.0024209750003791417,-0.008902737579588309,0.09997734756751833,2011-09-26 13:22:49.155811026,0.210064218
49.05475027535196,8.415508489940606,109.53184980691367,0.043447820533464084,0.011693891399834337,4.437470074411342,-9.55421397844269,-15.268851797407175,18.220746656910563,0.10038786769304686,-0.1290550353539272,-3.803063375192166,1.0049918662290716,9.818561710883332,-0.19963842761477463,-4.219349657210234,11.433516738134355,0.26475997821715386,0.013281149991120789,0.18440546415688977,0.009587776792044794,0.09168888710258095,-0.01212965631415935,2011-09-26 13:22:49.255922990,0.310176182
49.05182217988226,8.43540598348024,109.43044177521215,0.08438169011251266,0.02117478400715166,2.495064082645387,3.931995640943046,-15.853365894831475,19.82437781317275,0.013867311677374504,0.10890708254358178,0.2379231454421078,-9.175642527339123,7.318870424602821,-0.5106580823104355,-12.51031749581373,9.500886877206485,0.015471749614994484,0.00300684262846473,-0.5733425430622274,0.044380693362668755,-0.02059901262052848,-0.05655005112973129,2011-09-26 13:22:49.365738649,0.419991841
49.05618513010272,8.432998464391291,110.88114383045199,-0.287796981880666,0.006331624690428301,2.172232740813041,16.74250544626346,-10.706101132597272,17.23341997548833,0.7153921298456788,0.14716367241142347,-0.1421013281802628,0.3551859270627481,10.550572900111115,0.43216938370117675,2.2423016784143632,10.015666180095506,-5.823304982635353e-05,-0.006217790176860588,-0.39678432460685265,0.012670126720366494,0.00944260253475547,-0.22559904462358957,2011-09-26 13:22:49.475844757,0.530097949
49.08209462257727,8.41883858421497,109.23666446819503,0.04619768794521122,0.011629960268513225,1.7461597256287629,8.841410313308781,-9.084383419553822,20.808534808258685,0.2608325449343189,-0.19510482048943087,-1.7488309922766179,15.298231329932392,8.99686605070727,-0.8156564818036905,2.747655324975634,10.366529922098099,-0.01585980926091215,-0.022273795162957986,-0.09433209532754869,0.02926240423471222,-0.014858641026486765,-0.10967089006426797,2011-09-26 13:22:49.575789434,0.630042626
49.04870236708733,8.42753773596278,108.8291981485296,0.0969369003841881,0.009818831354452289,2.2083180803766265,-1.007134114400551,-13.066981802490119,17.162598940385685,0.06735221587887984,0.13311811043017635,-0.3643554814027692,1.9955033982713535,9.498177208358177,2.678410887453181,10.352911528479634,9.93399037109792,-0.06829785726647289,-0.011679093181827109,0.17954900764791396,0.050469325715394135,-0.011750682484706322,-0.05121289915029041,2011-09-26 13:22:49.675847621,0.730100813
49.056259561521756,8.420512547928233,109.82082357261996,0.1010471354776091,0.0012292619760273975,3.2526194015356897,8.403366526516276,-16.208305042450945,17.11638140553966,-0.40322381358726395,0.23976248792234522,2.2871834169363043,3.138176381712764,13.510168544600878,-0.2982800346317377,0.3199148914454111,9.884301910152526,0.057944141342191384,0.00023827220437982327,-0.39808550316704827,-0.04399996077818592,-0.014331879354399973,-0.6075425225804826,2011-09-26 13:22:49.785805956,0.840059148
49.04863603579771,8.400828930128398,110.48716282850268,0.06522759481092641,-0.010483997065210929,3.564743030357991,13.799173171617817,-14.407841160240357,18.314784383368497,0.19492060444706788,0.05989748219030079,0.22946502891444273,0.5649358175224035,10.5720018252939,-0.6646724595203648,-1.3662237817345027,9.92671724916175,0.01735913222667424,-0.021652084890958007,0.059611076535056276,-0.02967435889412788,-0.016670241619245886,-0.11642901407006034,2011-09-26 13:22:49.885824378,0.940077570
49.045214988184526,8.426285437986245,109.4337811957479,0.05542423450970868,0.02449874146826518,2.858581463461457,9.524609772227558,-6.217459231233368,16.78273493658916,-0.09415917644894428,0.13884454955904926,-2.993728790719376,0.6080955030691991,9.927438024475236,0.5136418960523698,-0.6677872573627497,9.51597055606121,0.0037908445876560365,0.010522156546923083,-0.05721578082183036,0.05442176981255193,3.4467237708984706e-05,-0.13862955538192667,2011-09-26 13:22:49.985813996,1.040067188
49.091042090780164,8.423947154626635,109.34344910123168,0.019935910495488186,0.0021225162290283827,3.1730312235140414,9.45502955528549,-15.0759454135864,17.330339629626067,0.04701706352243237,0.17152480198031572,0.2411110598280407,-0.2873495328655986,9.576724169991845,-0.5651404123970107,-13.449908587964087,8.323712579987115,-0.009523269352087329,0.05244626724489515,-0.07527568692118194,-0.15915309201827266,-0.04129532363153686,-0.3612703699193857,2011-09-26 13:22:50.085802410,1.140055602
49.057124867304054,8.418235316388623,109.94614084251357,-0.10284988571668337,0.044939926409845295,2.7186183284689736,7.557637684343361,-14.56982999971346,17.069200563858214,0.04026566613680924,-0.008510232886856622,-0.8884839679692643,0.5517696929861491,11.959956901425116,-0.3753709154469973,-7.519367195685933,10.163318614714482,-0.013132259150649745,0.017004682530332042,-0.0003285518658125326,-0.02087940758634039,-0.014379354393543996,0.11350522531594394,2011-09-26 13:22:50.195818913,1.250072105
49.07765150421429,8.426308425619748,109.21609935632705,0.07479525581519847,0.011200383739286083,3.182797730474918,11.914155295466418,-14.313087085234518,24.98068171141033,-0.09251357160518847,-0.8532327267187799,0.11628758823808699,7.653126804936474,8.680219711005641,0.859646961299446,1.2028043035645894,6.291789189308961,-0.02829707974012207,0.002332624481885458,-0.11395585681228194,0.03350877581159923,-0.035267553366391924,0.06692328596576506,2011-09-26 13:22:50.295809380,1.350062572
49.052839998485844,8.425026655183315,108.5455256630641,0.07209370529011558,0.004991322914847359,3.7481282910515796,7.494162550911597,-4.891142686356339,12.084309083987437,-0.03146983694884435,0.038186101095252764,-0.7653516228471808,0.7580410200623908,10.065394486250002,-0.7976176926737273,-0.10179804823464822,9.651069550560415,-0.015535569968505233,0.031870435821373326,0.06992400521076841,-0.001985932114650889,0.14755452619210307,0.7411520893810939,2011-09-26 13:22:50.395867647,1.450120839
49.04185864448701,8.416719708491314,108.5612755511113,0.0347718269506418,-0.022492672281811173,1.9666939592055779,13.601463057030756,-26.322933613598146,17.116454433677085,0.6946118963466787,0.2062168166602135,-0.07173855099367615,-0.761806286939918,12.330846831509605,0.19528962467029826,3.679702537544844,8.950879757520545,-0.019080118624812903,-0.007020462496786679,-0.1277656275545624,-0.045642382048888305,0.03215630769378281,0.06268033913735459,2011-09-26 13:22:50.505834311,1.560087503
49.05738316578388,8.424799944498263,109.30653271145795,0.17659158806259107,0.00811885432740733,2.031472756443347,22.692966100607364,-18.72662014449864,17.342688690177443,0.12854244437643683,-0.5455859317310099,-3.4686218307498704,-2.5898244994769017,9.621018907598613,-1.2265845188734463,-4.6281430022397085,10.094455215544455,-0.006631949494773601,0.03253380116060897,0.11206839587599551,0.03369259191018768,-0.040335825768290846,-0.08421057603369402,2011-09-26 13:22:50.605836335,1.660089527
49.040952344658315,8.423079985364748,109.4617687696123,0.06777773799025691,0.009041644646174567,1.2369269709581332,-14.525666108525256,-1.3003251494360342,17.26842838809363,-0.14272701483054706,-0.8473043218567108,-0.46371618757839217,2.4257651197410968,9.977667950809016,-0.5242551491783827,-0.697626973750253,12.017241687130847,0.0885466188090068,-0.03267012352858201,-0.15138282720925295,-0.016532982294897098,-0.025613198683589175,0.008792754593725405,2011-09-26 13:22:50.705896358,1.760149550
49.060744725380964,8.421951956701701,108.2830592356659,0.012590923847539553,0.002187513000471257,2.073619375842512,15.334172528852257,-2.6943611714070137,17.25814385263699,0.04175431204964986,0.0475721524795234,-0.1646673464564569,-1.3771947907337485,10.141831260458792,0.006749895126804961,1.2436324753104744,10.78778616924084,-0.0410744307142626,0.015315954980106959,-0.09882298615117324,-0.01989980614230605,-0.010978266158220161,-0.17265346939086004,2011-09-26 13:22:50.815896574,1.870149766
49.045860127360335,8.423032564659362,109.984812610711,0.042298914303025174,0.006254620808904949,2.106115993133698,4.142352038958245,-7.8870801280024585,17.010446620895834,-0.11156070523088579,-0.10463252751955991,-0.07461596748719346,-0.808232118101216,9.80574610518367,-0.9517643427461382,0.006750172519522701,10.222138366102913,-0.05312479835445186,0.007354552318234377,-0.1286707758849668,-0.027940423873044462,-0.011011368302059236,-0.12823689624309903,2011-09-26 13:22:50.915856822,1.970110014
49.05699871592269,8.410776142702636,109.89620002940538,0.0707070303390471,0.01687196545273644,2.4119485440012594,-14.853427504766554,-8.016111085303933,20.8239397779111,0.03349352588394079,-0.00889240366908377,0.19812325534414693,0.2450388225218179,10.191663436792645,0.3174285261635327,-0.2626120973451733,10.097705901998152,-0.05370890810988749,0.012937914227874504,-0.0017161341474369318,-0.04190980089178254,-0.05442022880472311,-0.8276444967307407,2011-09-26 13:22:51.025845497,2.080098689
49.06401829167663,8.422543491194672,108.10851558442627,-0.25773462582174445,0.019063604479846556,2.8349598701858185,5.039453474410421,-17.56255335731705,17.128257173484176,-0.19640420826560773,-0.12967636771859622,-0.10877900663537121,0.014165107514865882,9.477176327627493,-0.19784544446848784,-2.4798404005750885,10.039728265981962,-0.04314480759895122,0.026350210729265675,-0.1239371658675341,-0.08261087649898949,0.008654349921143677,-0.10050366025268395,2011-09-26 13:22:51.125838107,2.180091299
49.050379397294535,8.43016108861021,109.89029902665875,0.09062899732937277,0.02813366236926249,2.569438266415441,10.204239128847622,-7.634747448410987,16.85953999059037,0.057945431354759325,0.05079628386395396,-0.2884276559036973,0.7664687036852676,10.528637582516104,2.2234865437731566,-0.6439499674509513,9.77680838862938,0.015976146928874065,0.01225518589312525,0.132934673752781,-0.01793321193076803,0.019749253992340954,0.31183496482271456,2011-09-26 13:22:51.226062865,2.280316057
49.034930144320384,8.428881413090549,110.06145451262324,0.1429557354986968,0.005530133854574971,4.24471912022797,0.8758070260327147,-18.4395705539449,22.20354474296431,0.30279757517052586,0.09505805523861693,-0.21303236355221863,1.0499330432907628,9.9838454485628,0.03159359631161254,-2.133662590878205,10.157799960676158,-0.00480106554198585,0.011992089984461173,-0.11735635159678422,-0.03016405184768675,0.009210664560819693,-0.05802571454853761,2011-09-26 13:22:51.335892235,2.390145427
49.053551867662605,8.41557390955143,109.81599618602046,0.07904038267930757,0.006214326811619162,6.188344781581181,13.015963697805024,-11.916680716747384,21.63965048684932,-0.06917685361553802,-0.08606945693073349,-0.3355850904644736,3.98131111735459,9.529735712568158,-0.0446489195858899,1.4897837422226292,9.719271396527786,-0.017341823663780617,-0.021811984450559593,-0.10575443332170566,-0.026665453521924037,0.006532277553672706,0.10826864453980972,2011-09-26 13:22:51.435899088,2.490152280
49.04734157195323,8.420512110725216,110.02954177173811,0.057172591904638206,0.014176040442909195,2.1308315699577696,46.42462511825832,8.727281050223281,17.02653508904957,-0.2380020347439804,-0.09288278819737819,-0.9956277695747257,-6.081571753869026,10.40875439713988,0.3204486958153783,0.051464260652860916,9.491300248722741,0.10573729279695875,-0.026817041022363715,-0.08655245813683521,-0.021960644455583496,-0.009519817994971095,0.011419767931546032,2011-09-26 13:22:51.535872612,2.590125804
49.052633113329556,8.428479889433424,109.98747847277147,0.0360069720056258,0.008146123697157705,2.575817773684136,13.381642962821509,-22.570435504013247,16.98095176763926,-0.15370431707934845,0.23867433282315265,0.16616639709061307,11.123487811705253,9.762699537878506,-0.061532511660546525,-4.354255095041544,9.53530018122686,0.01930421740700182,0.023673500608088524,-0.12494561648758298,0.12746539109288196,-0.01996885642512483,-0.0725565015133941,2011-09-26 13:22:51.645859362,2.700112554
49.0471029548488,8.418197264137682,108.87062337142903,0.045770865372299165,0.0015807354839636016,3.0434462925011543,-1.3320939234378724,-8.046146215516154,17.173090746870503,-0.3223339079434561,-0.20265003223233807,-0.5510088465610039,0.7122433329655634,10.248117562692665,0.39531528020720474,-0.8875546921670244,7.570178117927158,-0.04507266175057041,0.046461345600138926,-0.1982614915136685,-0.05543911962914921,-0.01276678975235462,-0.012070727767285287,2011-09-26 13:22:51.745918474,2.800171666
49.0514431715093,8.417813509531033,108.4360055584432,0.050896826747032144,0.001797609354671814,3.1278650980782223,47.61697040284356,-1.8463462572891238,16.372130927241525,-0.04683062690461364,-0.11824136659572211,-0.10739117612792887,1.043281510590735,9.37238872075751,0.21821641265272984,1.6822247316112582,10.606448421396538,-0.037302592208192244,0.005581633132866654,-1.0065709346191936,0.039643442008307044,0.005425919131516702,-0.029338365480447784,2011-09-26 13:22:51.845901771,2.900154963
49.028770285141334,8.422082079665309,108.35043655593118,0.013264004895758314,0.019214474106183863,3.5337331096363562,-33.07797035378941,-8.982755654983016,16.526615232600705,0.22175152540772958,0.14765047334460907,-0.07485314456517113,-3.9911558234345694,9.635233533286538,-0.5158650596854427,0.47793240615353993,9.0303606353122,0.025226124426539202,-0.058465375973254935,0.024570064577836795,0.01327823098281377,-0.012960334636934967,0.4838859278657563,2011-09-26 13:22:51.955904540,3.010157732
49.05356968841798,8.421359677888887,111.68563205446569,-0.017165533953769456,0.017624182857868497,2.5782482341595068,11.74530365237229,-4.397670776320963,16.805286981409232,0.05053053285922482,0.24308374594326723,-0.20208276566234165,0.19037497475169052,9.814702825888157,0.4705339053550954,-0.59645128121731,11.529478249206457,0.06710575741606432,0.025716498344833603,-0.19192799126482246,-0.03358164128068865,0.0012933555685130818,0.06173174277474164,2011-09-26 13:22:52.055879178,3.110132370
49.011048027657694,8.42128365999389,109.23118503787735,0.08955438195240817,-0.051137878997395164,3.5349773438716223,1.2651197659946032,-13.502275303363461,16.775428223999935,-0.5037214243847437,0.2466571666900372,-0.42776760233704647,-1.8911360698432835,9.876844613110073,0.1814665577531789,-1.3933458885323882,9.90660029664656,-0.29783908415395843,0.018281008472337674,-0.07775240358847528,-0.019791267142260274,0.05967244577203034,-0.7308652172176665,2011-09-26 13:22:52.165895331,3.220148523
49.05504891965622,8.425811798245773,109.51618405449351,-0.008592890219146426,0.018640040704520196,2.833094077218327,4.378561627579963,2.3385973332359455,18.185420107638848,0.054514043461544225,-0.3373035260511586,0.06260775620337489,-3.0248875364305507,9.22739193008903,1.711490990175001,0.6210403992376996,10.11296190872349,0.02246613270158694,-0.031229174585600324,-0.15916373120708377,-0.015560547837465105,-0.001939239964716159,-0.11956060840820218,2011-09-26 13:22:52.266104152,3.320357344
49.0669176322483,8.420788864370868,108.57536392029371,0.07230033100935249,0.008535597020837539,6.518938405011031,-2.4172704073873437,-12.926556569704177,16.837553197189468,0.09746596984097519,0.36434909329020804,0.08726939237709087,4.94560380265831,9.52808612177451,-0.05212055195764846,-1.1494538645752512,9.058547763176785,-0.018025567493978625,-0.00259823307414788,-0.13886034363074884,-0.014232857817182105,-0.12654476992547783,-0.2595757878253147,2011-09-26 13:22:52.365873379,3.420126571
49.110390448018485,8.42314294313835,108.13214107095065,0.04068399602777084,0.008680230120707235,3.104381709604608,22.586419939740537,-9.236228115808528,16.94894279222777,-0.2939973778605853,-0.7380977792482727,-0.02870628521031583,-1.8609890534542513,10.183371697228038,0.9968624832206543,-1.0320371967111472,9.709363890526463,0.03382589643343809,0.004616797835995974,-0.025877575805919636,0.032881735430390184,0.016986652715487244,-0.2913792359890776,2011-09-26 13:22:52.475970984,3.530224176
49.047187163246406,8.418971830360894,105.39586968377156,0.07125013749387851,0.022486495175991474,2.1038547932369953,24.277541477514635,-15.71354008103588,16.68244303393226,-0.06621141006332426,0.7716259103987635,-0.16101358717730097,-0.5355852214148297,10.265687584859272,-0.015675273976544404,-2.2562467960321375,9.184969189098313,-0.06407245738527542,-0.008359062676306584,-0.13544116847966656,-0.013558866168584344,0.16042625144471806,0.26498856874062143,2011-09-26 13:22:52.575913160,3.630166352
49.0346983922118,8.419841192633907,108.83566926291705,0.20511470997876075,-0.011951645475499298,1.7580522273433479,6.066057004297584,-0.6667883941691102,17.256694754970276,0.13556832434829863,-0.07867703744499462,0.9102475852754237,-2.695833383072345,10.344783686689748,0.048783470180945865,-2.0689212150245946,9.204668218874897,0.03750600659339663,-0.03352853594720483,-0.12611043790641055,-0.07160270213799978,-0.004600790236643866,-0.17816891262284573,2011-09-26 13:22:52.675882868,3.730136060
49.07957908514213,8.42316825339396,108.3938197057027,-0.33918141477758584,0.023674049991079527,2.666264184380132,6.594884382879844,-25.02251567114905,16.980327077121053,-0.2723603650161205,-0.12016010856008932,2.7196584881001233,-2.9365366925238745,9.033427279755774,0.5969550889805502,-0.4097768230618988,6.3964242826842925,0.02821036420177974,0.01458054643449317,0.6640108132657828,-0.0608274681207582,-0.14000146411965292,-0.01446114685853958,2011-09-26 13:22:52.785932600,3.840185792
49.055077701818526,8.424739695237534,109.24735844402842,0.016613122057177514,0.04605043027807838,2.3423819164823487,-32.16765504884264,-5.521882835051068,15.913437913570359,-0.12084849476482765,-0.11987363477576415,0.3859560735972487,-2.9149977964217673,9.690017715071443,0.3028832648395946,-0.3104340465084132,9.645750094913916,0.07788433195290366,0.024400187567955645,-0.019033346038291918,-0.027190795620407625,0.03543773941196208,-0.14359179740684327,2011-09-26 13:22:52.885886881,3.940140073
49.06080407464063,8.422048991563997,108.82877974630495,0.12161739150408148,0.004199109181338195,1.92311614104376,7.305326592726823,-18.150110420929373,20.761306538190052,0.04406109475590286,0.22750412018224728,0.4611179485573169,-3.033976361435265,9.785965463238925,-0.38850785513813857,-3.3127161810304053,9.67107596125727,-0.015895470569633936,-0.08518905962735901,0.0007451399825827293,-0.024136999722574812,0.0034911047885282844,-0.19658481898013913,2011-09-26 13:22:52.985881391,4.040134583
49.08075078039241,8.425217801447328,112.267007891261,0.0015100989864062497,0.0036812662105798312,2.5083533337057693,8.219701786986226,-19.198183770982467,15.665777899997396,0.10269115132731804,-0.11456348087841269,0.5249930072564731,-1.734100419593956,9.983289355241542,0.20151082646740243,-3.2965011324364117,8.791914878592683,0.051378962675801436,-0.003637648706731103,-0.06944541087281653,-0.041308204782415765,0.029244922071285404,-0.1006601948636763,2011-09-26 13:22:53.095882992,4.150136184
49.05630214877894,8.423120198497028,104.14797174531294,-0.40692465754990703,0.012664077389760574,2.7774799234461818,2.00268805391981,-12.211561705299474,16.79840536178425,-0.27402210705523855,0.1679512888162053,4.468987013931782,0.5815070923769288,10.130308343716544,-0.7461584500921391,-1.0588414263028403,11.879273351620576,-0.04025237138138192,-0.01490014230333156,-0.14317412549094294,-0.0023877267102286105,0.02787594611253679,0.17098504746258736,2011-09-26 13:22:53.195892196,4.250145388
49.04801577924491,8.388192244817704,110.59541290293618,0.17372410025070514,0.08532448649446629,3.0967780314384634,7.863818931429355,-61.232289081971004,17.270485086846946,0.800266831367003,0.06101063170589551,0.4729799842892951,10.691787047954824,9.948176288150353,-0.33816880178183045,0.12749976911784144,10.960017092555757,-0.015650303322249433,-0.02512788615676827,-0.5353783683297809,-0.006384475548847213,0.00012171502293391124,-0.17556243993298387,2011-09-26 13:22:53.295913969,4.350167161
49.057348213571835,8.42786467577615,109.89574388556402,0.055670805119061785,0.010138115114269096,2.7885409406856154,4.063421965598458,-13.543527981613126,16.192477786183836,-0.635834314668344,-0.13354746771362408,0.3673029859625019,-3.577776695971891,9.94143529694269,-0.7540291030930677,-3.6336075653499256,10.481616990865437,0.00507701964049994,-0.0467208841219486,0.07750621130596193,0.028933050055671296,0.005890785999103273,-0.2201019650296815,2011-09-26 13:22:53.405880208,4.460133400
49.05047830239159,8.418195383601057,108.35412883777245,-0.03791335850971774,-0.00691405477289353,2.611025648223617,9.192380423085094,-15.7868117183071,16.64027783935843,0.24932049924329008,-0.04500330014164453,-0.051367848194575835,-0.5221686149729128,9.53974871987721,-1.5930635882450728,0.07072052733615397,9.804518413045962,0.014245779088475038,-0.03474402226719592,0.027705547697150862,0.010871458537684859,0.02062373203529703,-0.05566871396678652,2011-09-26 13:22:53.505897277,4.560150469
49.01187511600456,8.425021827407102,108.95882568668681,-0.02443939592496147,0.006808612348282892,3.365852487235997,16.326983220489883,-9.17293984666318,16.732115287327364,-0.051328530926505155,0.21020713894104592,0.6591574395753386,-3.4594796391257976,9.918864095875426,0.27451129151883863,-0.8942963514349029,9.87675906106006,-0.03134921160517535,0.10428714124639209,-0.05322549201641465,0.018559852739637915,-0.0017171141331205125,-0.06412420590955652,2011-09-26 13:22:53.615917077,4.670170269
49.05513092265468,8.42299924607075,108.66760200156368,0.012362828085539658,0.013396032231876586,3.033610312221965,6.692898355230332,-45.84848383648242,16.84901104842267,0.18981027747301785,0.1591431869872122,0.05314982342656391,-1.0761408035537692,9.335744746004027,0.16735203817649602,-0.9048434577222982,9.840382629140825,-0.029558455463387055,-0.022195033426314216,-0.35574207227468363,0.01883030325203751,0.13167293289401416,-0.17600729613633675,2011-09-26 13:22:53.715964961,4.770218153
49.05778238093759,8.419447064644277,109.88482242360394,-0.003944090059719144,0.010264702241181523,1.6996002171615874,12.106312045355402,-4.001679756331493,17.387118328716273,1.3944217134788748,-0.3191758948290727,-0.062059036234563325,0.2901798867624834,9.35742825316496,0.35618636992139785,-4.211924311736018,9.827332622694389,0.022132003721843155,0.028032469924457373,-0.699211954100673,0.018319487741880643,0.03779079712714455,-0.09354434903204262,2011-09-26 13:22:53.815912073,4.870165265
49.04812723670466,8.429176290551245,109.40248595041392,0.014009504046089385,-0.0015996117428938418,3.281821168703572,12.854735009693783,-10.111460064522864,27.291387744770418,0.06081605559148143,0.3124118431884566,0.00866112180001874,3.4268225783379025,10.10331576260877,0.0018974516053458235,-0.19919075423210209,9.494048212163126,-0.006186868033441508,-0.013955835926774227,-0.13464264935215117,0.05465906300050904,0.01040846085846156,-0.1498829848265518,2011-09-26 13:22:53.925904510,4.980157702
49.056074248832644,8.448830767385886,109.89876269725795,0.012478061519823218,-0.034915303734270375,4.048695481139699,3.2740160775388745,-10.586968756385799,17.59067921322868,0.025242891675544634,0.14923449718715737,-0.01864877335308178,-0.7203286093003158,9.54470171039475,-0.4880971288790179,-2.9358697145552197,9.533165098042298,-0.0011561105606694398,0.003939508800974175,-0.04294052353959413,0.07075269700185409,-0.01401014931802741,-0.04358561374099903,2011-09-26 13:22:54.025929770,5.080182962
49.055115478758175,8.418945455978434,110.14801848197479,0.04135274463272613,-0.0037993416172016478,4.061262828246659,22.774278417679206,-8.958629425367564,16.78335345887033,-1.4586053292120011,-0.009596328139823324,0.32044991450151755,1.1681608501212195,9.907141347149219,0.5110639911220864,-0.7813902226072647,9.83347185023613,0.001938639981179614,0.015049376270805841,-0.6464596696989641,0.006252132615308719,-0.024257238266930457,-0.17034267047703844,2011-09-26 13:22:54.125920444,5.180173636
49.05653741502344,8.40909933382369,109.97259477495209,0.05535456165431138,-0.004138228511874788,2.1452090787247284,4.387178019651335,-9.615559473733054,18.409113719180073,-0.1822539233223262,-0.22358266812503752,-4.332192438554419,-1.902703407283831,9.731106972078253,-0.22027692865982648,1.983462210713587,9.778435869677221,-0.048004034660590444,-0.032796570451148206,-0.040412967671117093,0.006281719177694899,0.001608695377009408,-0.13491395578129806,2011-09-26 13:22:54.236185901,5.290439093
49.054310524412756,8.426065219229594,110.75987351309996,0.05540932326141028,-0.0035752911447404128,0.3180506805917336,16.50361581444018,-13.125357536111188,17.266114536935323,0.03978473181781895,-0.07015308064396897,0.1690283606070372,-0.1371031142648128,10.379467666347873,0.22324708134509486,-1.1100540971686543,10.117617030261723,-0.010843343837842672,0.03443556918674899,0.06361273618908218,-0.01086286210940927,0.01377864907038558,-0.10067837323512155,2011-09-26 13:22:54.335988222,5.390241414
49.08931883026662,8.423125350248037,108.97702917414504,0.036513253963018535,0.04698821486445724,3.4373986702479202,10.530380575197448,-8.30145994685378,18.09213659154675,0.18090404150620534,0.12120030291645456,0.6188639550750847,0.8943978070042353,10.510616911704616,0.3149690746021996,-2.349539627182434,8.000351569875466,0.01754316389694826,0.014251057539863988,-0.21335850226773978,0.22286159506780182,0.011816632605055782,-0.0780699552743197,2011-09-26 13:22:54.435971360,5.490224552
49.056649741133064,8.424865018871502,109.13901623908669,-0.08657325332483876,-0.028879353375849494,2.7955520671669025,-1.827875195300372,-15.076913194974832,18.03683053776085,0.09274251739902473,0.25841259660236615,0.25402973154735065,-2.1295333219678554,9.268663693451089,2.7794132457467144,-1.7997825884639531,9.225944561269904,-0.017184538086832516,0.2540831718917766,-0.044280981330109694,0.006073758343942748,0.06841713789628524,-0.1411128678203707,2011-09-26 13:22:54.545939135,5.600192327
49.0592963846912,8.408687863096967,110.13158284568365,-0.15951392377703205,0.006460019669198759,2.312829739972219,26.79590409835449,-8.423962003337007,17.389821480612444,-0.18286493898695633,-0.08892748193445996,-0.12494050280294206,-2.4274758975833297,9.622600176637619,0.5153985782434121,-1.6836850872010962,9.782036905938993,0.008081063555908279,0.23466327741555762,-0.3002229143506827,-0.015195454023652872,-0.00324427232154627,0.25359046567477683,2011-09-26 13:22:54.645940664,5.700193856
49.06109253502742,8.41585538466139,110.42345675281852,0.043975321634073555,0.007844648471544055,2.3918787959604173,5.231603768121656,23.290740198398755,16.636999702965156,0.24261733896854576,0.8609359342046304,2.618043855068056,-0.3804956511256758,8.949149380282364,-0.09781141375727526,-2.7972911304810806,9.85161230192824,0.021861511092955387,-0.00962909743856317,-0.02762725902518151,-0.044906681889046056,-0.10280756729863774,0.02497685228561823,2011-09-26 13:22:54.746140841,5.800394033
49.052177047214265,8.431320193966705,111.36181235188022,0.013961159486224107,0.007194951305052265,2.4500569471973552,13.872889971559013,57.5586236424903,18.973333808659742,-0.5765886088955933,0.6174264766778361,-0.25903256028237687,-0.39238437951578026,9.589623014952343,0.20422002878539236,-2.605706187170535,9.815430667172143,0.018350726166997303,-0.024698826441378514,0.13660749645940112,0.02623221338957641,-0.035688319848972395,-0.13248246107880393,2011-09-26 13:22:54.855951243,5.910204435
49.0523168653501,8.420369293683299,110.2461074284337,0.0058977496291026735,0.017464644688746377,0.7137124220282602,2.435585872882598,-4.631356385870073,17.977340503779896,-0.15330258354318693,-0.1621942417637569,0.4233810614898582,1.4647295872593724,10.043515485021214,0.2767860388681155,-3.7098995677917745,8.644945202519699,0.01545512242034601,0.004990951173219243,0.15084513528212445,0.07004543885499138,0.00019099777661919955,0.038816419182945455,2011-09-26 13:22:54.955998693,6.010251885
49.05412607588095,8.43392177498731,110.72689404636964,0.07532613230149174,0.02399734458346067,2.5448524153207894,-1.4803366571725007,-7.317587236009396,14.894620113837586,0.10462634700276574,-0.08675468446188545,0.40204455551025586,2.633496568183458,9.507223169508814,0.3705340968012718,-12.223225387259046,10.008869222830699,-0.018893482451684367,0.012035116389133294,-0.11501432862826247,0.04893490156887284,0.024817540997854264,0.26190496993332657,2011-09-26 13:22:55.065956110,6.120209302
49.05075238599216,8.417929735450532,109.1378364202928,0.014995256729091307,-0.011523162909338896,3.491531923232169,25.208585973473355,-15.64794968879026,18.116846723628264,-0.9082348891457611,-0.048942634363542896,0.7078613980980466,-0.8413975128719,9.972415042852273,0.8153656216872436,-0.7753782630143926,9.586137810088836,-0.03132886760494191,0.08622938236764072,-0.0679939663399393,-0.21191426133856744,-0.008638510285384766,-0.09016721833276245,2011-09-26 13:22:55.165967496,6.220220688
49.08309647649598,8.424335163662782,110.16843066077413,0.023432210566805653,0.011649139092440683,2.659514836051586,2.1304894440904416,-16.89143179179466,17.260002715501017,0.03741108232500561,0.06688662640883383,0.7492942537374394,3.8720790927650452,9.25616577275835,0.7093549698076661,-0.8837888141088367,9.791618044061527,-0.011270843798040596,-0.0027885223007492136,-0.061418084116241806,-0.19787200701301708,0.062205176335254,-0.03605594085067452,2011-09-26 13:22:55.266026330,6.320279522
49.03858511869269,8.488312495586213,109.89166315129464,-0.059133297316068104,0.007563267183091642,1.5520513086846384,7.7577172571148205,-19.86359669098927,17.465203993433178,0.005396278524322406,-0.19267466387171478,0.13206508839515863,-4.418814107848339,9.816808205004692,-0.00975608508467285,-0.6530939380120673,7.292863690156915,-0.043934185348273716,0.019192341838003016,-0.03246802674613101,0.22766640294734194,0.024193496846811356,-0.03813038441249328,2011-09-26 13:22:55.375985831,6.430239023
49.070655872277406,8.433164138377277,104.3242903271999,0.057356516389629034,0.0013183860304343126,2.6264032323884576,33.54836217638095,-10.475773428538949,17.417467608889392,0.06579469934021655,-0.08350359113523964,0.3870661222481136,1.7127463173232653,9.834291085246596,0.4232666709666595,-5.127642522606937,10.473987434009333,0.01708356447666038,0.239157667634123,-0.22267038492457963,0.04724158142386587,-0.04782303907784297,-0.11492158205325431,2011-09-26 13:22:55.476026540,6.530279732
49.09179546780966,8.42000838015607,110.25070094577814,0.055738008624501074,0.00558704316840064,2.0399955396329834,26.520835240585846,-0.9185722137863177,17.62404617205274,0.5732379546365508,-0.18190837534798732,0.33238959692137227,-1.8842522372185173,10.451006709338195,-0.03789509099949623,-3.245369896629965,9.121067917182616,0.20041358184934782,-0.07003993332446781,-0.12163684149375102,0.07188148995501188,-0.0653002845862646,0.046020641638887305,2011-09-26 13:22:55.586018329,6.640271521
49.050207048653114,8.425321899335653,110.43349149886677,-0.04370187669304795,-0.015736029271300155,2.008047359433864,15.377287933784249,-6.948030556408991,16.742379661063204,-0.11579702315127902,0.7566931069514751,0.09950983822252556,-0.48203703476767523,9.161547574260414,0.8538247692349716,0.5631725916761854,9.819116003991054,0.005036409783809471,-0.026985745805327352,0.06423503477590595,-0.027802787745792867,-0.020950165682797,-0.03408386438983958,2011-09-26 13:22:55.685984983,6.740238175
49.05652600650254,8.41925544825352,110.28803350170226,0.05749743245786662,-0.0007579100035706929,1.7802999703711035,17.202301924245546,-15.75372736924073,17.93204714866618,0.40740331263133334,0.008538450396909786,0.3492727066880029,0.3641732362780222,10.116997577403668,0.7491732159693626,-0.08097798429927283,8.948918832528584,-0.039234975647569975,0.023410623448863823,-0.07945539390353266,0.016377530659123632,0.00692938893663071,0.13213019794729064,2011-09-26 13:22:55.786021787,6.840274979
49.05157730658703,8.427623263112123,109.12021552323553,0.0317085717294467,0.00669294756378129,2.372454795208171,18.562208658108005,-20.450013714210733,16.31019363324493,-0.22269501276790218,-0.09174163918723344,0.2552192405711186,-1.2377926482097275,9.921867357749377,-1.3339029315291706,-0.8504230615330937,10.253122486798345,-0.00032835459913110746,-0.043318728265601784,-0.16239794960153026,0.002605184458638065,0.0037938481412236524,-0.09066959688345923,2011-09-26 13:22:55.886016590,6.940269782
49.05724238027341,8.424017444802233,111.94434435628924,0.022473704515307263,-0.0034250169707931467,1.4937020028886425,27.852163667144396,-2.1358432090062323,18.832746020153586,0.17703042256848467,0.24403592494571855,0.9871269977208025,-0.98796767953662,9.752219167843569,1.1691078036233002,-2.3106153242776744,10.19784441855352,-0.029526554441472112,-0.047793810804192226,-0.1763124322916417,-0.02946254878163248,0.04967589279561049,-0.14304566655128279,2011-09-26 13:22:55.996065179,7.050318371
49.05084199563907,8.416495337698338,109.64794846089008,0.07063060532751017,0.018573653697762593,2.3534572550746797,11.155123684982843,51.643960738296876,22.248647568687712,0.03643250674561489,0.055388609504499545,2.012203401788964,5.227702517380875,10.123742253971415,-0.14296084148559215,-1.2124350412520355,9.548678716985485,-0.004907906229102402,0.03770585197057064,-0.10774651586021045,0.029544971693644024,0.020246393919732524,0.08986893833845469,2011-09-26 13:22:56.096029582,7.150282774
49.060288647014865,8.421276530462332,110.3439614410694,0.046629883690223084,-0.0073679528557689215,2.059009138454781,4.35808518804599,-9.524765245837703,17.392982099671766,-0.040751424694391275,-0.024526761225736944,0.2924487499614631,0.8648160301174026,9.367519046563487,5.321862496008209,-1.9431275661648415,10.384124950622173,-0.14982683992888018,-0.0017174952066694106,-0.3266284018144171,-0.18198326988954044,-0.0070749727954831365,-0.07336868802445953,2011-09-26 13:22:56.196024115,7.250277307
49.01391575331776,8.42279608452394,110.96501325019223,0.09214249814155663,0.016565420797353167,2.7229214440391596,14.732924244020527,-10.190955999542208,18.56742691546803,0.09731748285363441,0.1890714040705388,0.19856197693430652,-0.906178908491381,10.093834828955483,0.5365663189091071,19.46364438700632,14.260958009448451,0.03384276876730408,-0.005059623088390778,-0.12635971355240502,-0.09214371081743672,-0.02847889668219434,-0.02579792335785916,2011-09-26 13:22:56.306108489,7.360361681
49.04588757050932,8.412785739711438,111.01009062038761,0.004013635574571545,0.01863355651577845,2.527365450728521,23.46435729614351,-4.072660639435306,18.242706234620407,-0.8445090124232306,-0.057841005892365044,0.303067067362485,-0.3734545185028645,10.170976252418,0.3068410148855345,-7.297303391028088,3.9674825152565,-0.033984490327816974,-0.016504730654232257,-0.06794163064000032,-0.01703538085881704,0.01373980357923488,-0.3362208357718884,2011-09-26 13:22:56.406084818,7.460338010
49.05733919895592,8.421516261078446,109.59039549906403,-0.0021336938842915626,0.014092638251207448,1.31798825893323,60.190601099412156,-11.18236521755515,18.327615130528184,0.8103601738345715,-0.050178290205161465,0.1260178129642055,-1.4441321295218006,9.892657238715067,0.5606890649074674,-1.6759234139573451,10.019549548841205,0.04278191087703071,0.018880344187256363,-0.02988826416867562,-0.014334840212382035,-0.23496467932095927,-0.093903584426765,2011-09-26 13:22:56.516036812,7.570290004
49.049556911537024,8.434242628389994,114.0490999515372,0.05798055388898117,-0.005342456474408482,1.7586360742107445,32.81742865347417,-6.293944111598034,17.900110664868528,0.21285801726535994,-0.18425404554900576,3.624834898912865,0.6453741956595704,9.78442269398229,0.6673750296465155,-0.9044126229666714,10.604036803499726,-0.030546550012700034,-0.011006243676746389,-0.07782380455289607,0.005877418224961197,-0.14911555269230678,-0.1957613667217179,2011-09-26 13:22:56.616060361,7.670313553
49.04765919313064,8.423150561622306,109.45098252541254,0.010280055156622565,0.007942317232851721,2.5284763028149313,14.07236045634689,-6.884301379412801,17.544728115292106,-0.10852205973644004,0.043739906597264275,-0.62234474504892,-2.455640059668505,10.696338551017627,0.21805579835002015,-3.9850917258786325,9.500917542178797,0.03630807826038466,-0.015422573448081343,-0.14596829928611602,-0.024490030679147814,-0.010222303210370112,-0.026037906981703718,2011-09-26 13:22:56.716299891,7.770553083
49.04727722995586,8.427859658255036,109.47412416874327,0.06642224347116728,0.0034634082144455536,2.202006229191368,12.043274177665268,-1.121979573637196,17.94879587370416,0.009673033249989343,0.1867890600506718,0.8443735374640311,-0.05301910703989893,9.661724708661549,-0.6377045287672518,-0.0864394885468871,9.564287173301548,0.03306050155895073,0.007106264969671998,0.129000816333016,-0.06302717586016614,0.0012950024936162158,-0.08189596167178229,2011-09-26 13:22:56.826099296,7.880352488
49.05606888601441,8.422988589466279,109.09162220216973,-0.0009496721862395294,0.018510019836517316,0.3137506406244255,-5.959377103576314,-12.749478739957466,13.540343484939903,-1.0373000365779297,-1.6415451771623997,0.3718709729598122,-1.5744542129751742,10.076980787173609,2.2200609454107187,2.25612557808223,9.670674828796647,0.025807721940071096,0.0032493644396489408,-0.21986896539562517,-0.021385986288873195,0.02647698948210521,-0.04803198885846684,2011-09-26 13:22:56.926079700,7.980332892
49.063094261238426,8.421039625414029,108.71137859379397,-0.006841169337416561,-0.005343172782091019,2.541428852924927,-20.812453649045977,-14.132614910946101,18.55273122624157,0.23542427323658763,-0.037287921833674936,-1.1019195966972708,-1.9269949339815722,9.716909460086974,-0.15422214289174271,-1.5773252418879606,9.458196510642244,-0.018376945811409383,0.027785155490965007,-0.013615541584890034,0.010667489525409933,0.02116773232414449,-0.07955727212082872,2011-09-26 13:22:57.026105084,8.080358276
49.05351704078481,8.410936570839537,107.53812795796735,0.04824037258788734,0.02239337709723832,2.055112906552746,10.850302367004002,-11.606984657381451,17.55165395891443,0.1293510986824753,-1.0461126045033748,0.7840066267302515,-0.08420435123526121,10.19919681964264,0.44779441853803736,0.7355962856006565,9.63092083588152,-0.12048158131275,0.04681776644792779,0.01071108796353238,0.0464477514214862,0.015219323727807078,0.19677518061546256,2011-09-26 13:22:57.136165571,8.190418763
49.048985947486635,8.422142771409293,110.23539326604188,-0.002750263279487415,0.013857105046867673,1.4891562669273184,17.213400923706253,4.281185083409623,16.79759930828181,-0.0036620898179566402,0.1407877761539087,2.565420172245682,-0.5761759783297569,9.43615453058398,-0.07606678523915125,-2.722250512709725,9.445553359615273,0.0231233114792194,0.11505610996315646,-0.6545975671391524,-0.03170875113959758,0.13724996611306509,0.0443822622496014,2011-09-26 13:22:57.236185522,8.290438714
49.06131752081439,8.41368349274302,108.64278248499494,-0.11008048968740171,0.022916970678482106,3.5485818800629767,25.985412633760745,-16.018694827008243,18.18212987196815,-0.059235412505160956,0.10694610761839521,0.55526907173755,0.2118206220576468,10.26255326903285,-2.2502227314947887,-7.37106803168441,9.026909237889885,-0.040161551706696635,-0.20834412154506374,-0.13203792184331725,0.0031573314925541036,-0.027148828445469026,-0.11732613587304562,2011-09-26 13:22:57.336123367,8.390376559
49.050495571432435,8.42363413967703,108.37657386751555,-0.01392477190125567,0.0019673809156665273,2.574748865991741,21.031941381736086,-6.1909527607975505,18.898359240032477,0.11542859850796945,-0.1450503802825433,0.0034007287188504987,-0.156633199896766,10.19981009036267,0.7752554342693035,-1.0680400486504045,10.605719393946684,-0.0023116305859721444,0.20725465269330204,0.1240333583174405,0.016343000102002347,-0.03610932064401648,-0.006189871035203631,2011-09-26 13:22:57.446156169,8.500409361
49.06296089984875,8.415840614440633,110.28833559171434,0.04457938020847375,0.016534719039497107,2.7628185683043878,43.10590166282404,40.95347745910348,18.251525207520064,0.2137262719235522,-0.03527439016148169,-0.7046393436500482,2.4374242321725705,10.242197984875192,-0.36724656319679877,3.104752738737998,7.485616465875852,0.02022980270167088,0.015530033259618853,-0.05609832386055129,0.019870081524063193,-0.017717402305113594,-0.01414634293708113,2011-09-26 13:22:57.546145502,8.600398694
49.061617163006034,8.429660082895836,110.2513483734761,0.09596273450694762,-0.00499770497960064,4.5028283086486685,-18.609216976453553,-49.715908950142804,18.62743577577056,0.18497150833348436,0.02717847462602552,1.230332375583433,1.7557446924949023,9.862073482405204,1.202861813367615,1.0947845806795207,9.362583711347371,0.08966484012731854,-0.005975839564243254,-0.029436311701655067,-0.02235432710272823,-0.042336057849091085,0.11652311239090125,2011-09-26 13:22:57.646137470,8.700390662
49.055718161632534,8.42507151756532,108.62766593640644,0.10407730374389565,0.004367330748881127,6.419322443496888,-2.313770077059356,-9.37138178538884,20.80806188066333,0.05181782202241813,0.10522256234183683,-0.49571908479556254,-2.7575178972972543,9.679626074043028,0.09813028783419486,-0.7239849311447928,10.326577910893816,0.25882452740586914,-0.005284184929974879,0.019406199325517952,0.0523217003265332,0.0531919007331289,0.1395947327430503,2011-09-26 13:22:57.756218372,8.810471564
49.03414244238047,8.43166538931941,111.30963648403922,0.05610535773779182,0.02791304451510574,2.3726672365674886,8.88550804172818,-9.682206714214114,18.077254947988397,0.009089645638770454,-0.2875046065280625,-0.9470093448017995,-1.453680521929387,9.735055305789242,-0.5711023648970731,-1.6232871606922072,10.058922621517139,-0.005880730456162921,0.03418488572172033,0.1334391220796865,-0.013153734385712811,0.06341373715581586,0.035436768036233246,2011-09-26 13:22:57.856139373,8.910392565
49.051028631027144,8.425858528871698,108.95621717550377,-0.006193826469959869,0.005951703594980167,2.170560857153091,16.996760155671204,-14.011725567313865,17.97482622199746,0.23691455269891992,-0.03960487523779526,-0.24750562974694848,-0.2926022603206964,9.056355663047638,-0.16127022175833694,0.30552452690298615,9.022428278749711,-0.07753923629051747,0.019865436477874542,-0.045975791631060026,-0.00403362438678506,0.03274188799003009,-0.2856876762912619,2011-09-26 13:22:57.966119654,9.020372846
49.053423958390226,8.425683206053833,109.31658274528728,0.04537163255645646,-0.013452599861547447,3.4183787095640294,15.45240954345589,-8.60444809588651,18.68591459994399,0.115901521549553,-0.38551513758861183,-0.3847927678219133,-1.0680698267498256,9.741140804402102,0.49421604796674323,1.6915193577525278,12.000268817863875,-0.013431682992959555,-0.004531015991971327,0.02809679914785769,-0.02651624324245371,0.0015305030235344664,-0.027082039611931577,2011-09-26 13:22:58.066142767,9.120395959
49.07375066398301,8.41825332132687,109.73453122075564,0.03564679369928771,0.009396860428925334,1.4913687811825191,19.990192797074226,-15.679123102337513,18.407884791241624,0.27508300543298736,0.9123528060127839,-0.6197218742071043,0.5108684911853557,8.48596114055323,-0.2426131262269945,1.1683055811657992,10.44455432024728,0.03972359823864939,0.02175308206983961,-0.11538394059105515,0.010923148436525046,-0.013407677479234367,-0.03716655987392655,2011-09-26 13:22:58.166149619,9.220402811
49.03102596555185,8.421383867182929,111.44228560678836,0.028360224385807577,0.006256918731372697,1.7607799545211806,-43.645324507936714,43.96742646778834,17.177759874380328,0.15418081303561085,0.2560867796252702,-0.821280151960136,0.9346210643075435,9.874702298214931,0.28028002606345076,-0.9819609564271935,9.804738697937278,0.004441307598936826,0.03259170944028734,0.14821963268288163,-0.005263460113504434,0.024362978077401145,-0.29515239498397766,2011-09-26 13:22:58.276332531,9.330585723
49.05341377082229,8.396434190870592,109.11334697218604,0.01757247353078378,0.01662103352976523,2.6770064130245363,7.428795559290777,2.257916642952827,17.91148696789893,0.25306119560375345,0.044347327393375456,-0.6374257089082562,8.259198823065883,8.462267708167891,-0.4787561563181364,-1.826156304409211,9.73680253564118,-0.05240725207779857,-0.003958392327574872,-0.038071037036034545,-0.030755638214428182,0.03316100414857351,0.09833165734032215,2011-09-26 13:22:58.376147206,9.430400398
49.030737761569476,8.423635118381796,108.1216490631161,0.11123770951616818,0.06502501746321072,3.6478023782640854,10.959754769496701,-15.632687720745164,18.035015660078095,0.18724668020079788,-0.10139828155177168,-3.271796106149765,-2.396893859266204,5.6758040766027005,-0.040811733911648135,-0.7196274934600786,9.87499676389631,0.0411069123350318,-0.029221069487786407,0.0014673418580361656,0.2802831369885943,-0.006694886369603764,0.05667488555898687,2011-09-26 13:22:58.476199006,9.530452198
49.04884656689203,8.433714475261475,109.53866337756669,0.01675614142328665,-0.0022738995173396566,1.3739689845326808,18.767331468528955,-9.682786937526412,17.00839328764253,0.04216800311794418,-0.21676438993960634,-0.5343676464845348,20.083276338948778,10.290894442529728,0.2311409474201357,0.9702513745558787,10.171488086449274,-0.051296403304454286,-0.08833452880121159,0.0004743234879778243,-0.010520381782820816,-0.009959264613910123,-0.09513958211223449,2011-09-26 13:22:58.586188367,9.640441559
49.04790541186178,8.419342448990369,108.80731308135918,0.051195985306074956,0.01389363186698506,2.126127607016101,17.709840371506615,-13.3273920892266,18.870485840186024,0.0725953659255644,-0.0020551103356388697,-0.13499583505566815,2.6938757569161385,9.844839917571734,0.2496253693945799,-1.9918165827880978,9.581616858826592,-0.005180972597133222,-0.008682085088553646,0.1659917833279142,0.007025171937435817,-0.0117439002488017,0.04979963899517713,2011-09-26 13:22:58.686183992,9.740437184
49.06065599066734,8.428312990740098,110.3249089905282,0.06081211895065897,-0.05898726989904813,0.7227159691168317,-20.95507314347779,-17.521139047227955,22.48080156476574,0.05016016649419432,-0.06015231187956975,-0.47606725784834025,3.440071657659452,6.8921637969701255,0.4346066219246004,-1.2193147548947338,10.215028298623773,0.08905067770180639,0.0331823702723289,1.0835727329847655,0.0033600283734451456,0.00014442351908651105,0.3895122511928243,2011-09-26 13:22:58.786201232,9.840454424
49.04909829345382,8.431645768242827,105.14385561644275,0.11074826056864633,0.0011067647259128763,2.2980472646894663,30.017499762539263,-17.436736845989884,17.458624447269155,0.1906952166100234,-0.14631406622894869,-0.5731210843030348,0.04237212889651523,10.134971664329528,0.2705361160035779,0.933964695833585,11.821265319269115,0.06986846409210679,0.008771599814069907,-0.08071894298863223,0.02966962833979695,0.01722616040905544,-0.005648087786203782,2011-09-26 13:22:58.896214025,9.950467217
49.05431938830526,8.422208201987225,109.63778037436812,0.023187527495751627,0.01690421882217149,2.91268405988997,9.049115725492522,-12.040295898963347,17.589141775383794,0.06902444844988961,-0.13805081027300753,0.23668995309289387,-0.6612729709966625,9.812907423422114,0.489777524873322,-15.780702486257868,9.394905015676063,0.026200009025547564,-0.012369871751166226,0.06546350901884114,-0.01206793370272759,0.10309923170870423,0.060591972105239436,2011-09-26 13:22:58.996215051,10.050468243
49.05074345213822,8.414426386324429,110.04205232328681,0.08439320400523115,0.01003239123531621,1.792341313179644,12.26747211758802,-15.020274223342419,17.445127462993895,-0.053279070989839306,0.23212540507258977,-1.0854362411622729,-8.15908750466012,9.904148302139987,-0.3888563903136163,0.9716349007717382,10.131384696988178,0.036310179996025045,-0.018533218174475986,0.07887376390822472,-0.0516344531861061,-0.005215619390167097,-0.06317743090601666,2011-09-26 13:22:59.096201767,10.150454959
49.05740604236875,8.42850261244649,109.21452098083839,0.027843379161282086,0.015069386242417222,0.691023168357727,14.844203475891172,-2.8362159055765055,18.263955278992732,0.31278615396041154,-0.08899049006351234,0.6398400895133612,-11.5876418490723,10.431346717997847,-2.52251266682985,-1.0753496660324102,10.259799518818626,-0.04283098694339242,-0.0061342091054923005,0.5590913191068189,0.15865899152208734,0.0035341808186767475,0.12855990336976275,2011-09-26 13:22:59.206318561,10.260571753
49.05171487363707,8.412953125391448,109.20487782224019,0.06716696999206738,-0.0013898004888895504,0.9393258985902371,18.421076428815955,0.5228503076433757,18.53039589656987,0.21705879757946717,0.0745854730744544,0.16967818619362574,4.554462372610647,9.940612315124158,3.650634891086467,2.3653715399817323,10.145352807421443,-0.026448633742888583,0.06312290599557369,0.14352216117758523,-0.05233036056718937,0.05089112107478261,-0.07382489008999159,2011-09-26 13:22:59.306244990,10.360498182
49.043808000571715,8.419460776351919,109.64853285176859,-0.009717241390737888,0.0006261860272720361,2.0402901671923583,11.466542421295143,-15.035342449123938,20.221809312677923,0.20732580069904158,0.4280725128396225,0.16082625884352483,0.22861849320367944,11.100872267943165,-0.913207767047703,0.8824297679338293,10.107006890547334,-0.01810054137478109,-0.012925542422805834,0.13314198351833606,-0.06477470132822845,-0.014061795749986485,-0.04791946203691813,2011-09-26 13:22:59.416185645,10.470438837
49.06268150443321,8.419353496477958,110.84746859446525,-0.33003405490788346,0.002342504982868327,0.15763637714080758,-4.968533289568448,-9.303201009976677,17.956934526605576,0.17628857739272097,0.05938160574737427,0.36966333599263146,6.460548360717458,9.91638320388137,2.4567129420680525,-3.3731906603648185,10.048763557111451,-0.01524323604241433,-0.028570802409730478,-0.021437481967169103,0.0023075718775133237,0.0055878918761981455,-0.07785145589602485,2011-09-26 13:22:59.516209899,10.570463091
49.0570321084373,8.42539483399358,108.9386904695861,0.14547053639148314,0.00975665856605046,4.922346415267789,2.101997006866574,-14.902782659559723,17.06541472363334,0.004069295731594633,-0.05239557512768151,-3.3305781786923974,-3.5098831102828614,11.488458464671103,-2.7185653633195668,-1.0864752737029941,10.362264293038631,0.1552290485675542,0.022240663673461687,0.21687040820989895,-0.009973742582117404,0.021293842738698995,-0.11739619751062531,2011-09-26 13:22:59.616219366,10.670472558
49.06318213591942,8.431279303405637,109.90650517436667,0.06339506590035368,0.05281231134275786,1.9373379252907188,22.023508909234025,-20.44661067393575,16.935876909494677,-0.7183014821567554,0.08584336494376281,-0.15042431057947941,-0.25942331451072187,9.272320530074252,0.10430324487282121,0.12852263372057962,9.408649722330475,0.15980574947689374,-0.011645882124327349,-0.01999789669453592,-0.09001504202131559,-0.1492527051760107,-0.1049072180848202,2011-09-26 13:22:59.726444753,10.780697945
49.052823044688246,8.420421025520005,109.87254676517378,-0.009182475903252791,-0.0005663949903806304,1.9613849175236229,26.341178007234785,-13.886183772566604,16.654313831792244,0.05522569720404033,-0.06435635067545556,-0.06971005810502601,-0.3873349106004167,10.175867767789638,-1.5065974951517036,-1.7319942517984432,9.75920389685368,-0.013679470446628506,-0.022361258478656998,-0.042662202559379026,-0.01783046055307763,-0.039509954823679604,0.21237933889992106,2011-09-26 13:22:59.826224857,10.880478049
49.04425125052016,8.415861321571278,107.07988351838051,0.06922446054215692,0.019844444283218042,1.6173167838352644,20.142506833833263,-12.412392500702582,21.71173857136536,-0.05412460958661211,-0.13974897379140466,-0.31892492413626167,-7.380402189641307,9.06603238444368,-0.0182016348210208,-3.013705649403536,10.246608916837268,0.04323591657315789,0.006334494666524752,-0.13869050036686706,0.03842601488219715,0.004106534447848009,-0.01765717521546706,2011-09-26 13:22:59.926198554,10.980451746
49.05681007701381,8.420248004970771,108.78790217951294,0.08458909437793992,-0.003139143181496375,2.4930408106638455,16.210339594778894,-19.372817929869342,18.433661927991416,0.1488016194221206,-0.09000369060399264,-0.0967318629129261,-5.058584429666348,9.612452643139411,0.07704004716946679,-0.12236757130773593,5.979033061138492,0.06671695451662099,0.005554954275489201,0.05985712606505285,0.011293605590093705,0.020275354084060164,0.02236655823796165,2011-09-26 13:23:00.036230466,11.090483658
49.04887478790422,8.406778072569264,110.99898129449572,0.0008268214238046842,-0.027640380089845918,1.7619890731798153,-41.44996728656804,-7.18023505614728,23.32942179814353,0.0074909685417178795,-0.07700755600781273,-0.6661012149527548,-1.3278065229677987,9.371433880546682,-0.34075072332281475,2.113173604993151,10.433652499995095,0.08452358747151746,0.00527996937431598,-0.1396162733554575,-0.1863135614405837,-0.01568338778365737,-0.6854836472318887,2011-09-26 13:23:00.136245194,11.190498386
49.048523152873884,8.42839000812918,109.6013682235287,-0.014185012687332,0.0076227073729386655,2.8312137129416257,12.451901314260507,-12.470227424800061,15.592467211793512,0.3708664162539814,0.658050877837651,0.3244155639969123,-0.1647091832988285,9.712050630436535,0.21227216721435016,19.446730577539416,7.165759695913861,0.02622408568599748,0.009430531905852278,0.09357150941120655,0.0010931301416882105,-0.06328015370062096,-0.16154512138538568,2011-09-26 13:23:00.236444661,11.290697853
49.04370144695213,8.422600086165454,115.65345107324826,0.005523125695586328,-0.0070616685125641215,2.7257267305303565,11.596783221099434,-11.428083218059902,18.274811039794933,-0.40722115068266235,-0.11263517390720987,-0.6152634127798726,-0.18126782935787425,9.988358960300909,-0.1212824376489427,1.3313462296991254,9.088240204560734,0.20980600300713745,0.18530438322643267,0.05889398384855412,-0.04462358667223955,-0.015014926294434324,-0.03564127533293476,2011-09-26 13:23:00.346222050,11.400475242
49.04631785192182,8.424929130143052,109.57870296958976,0.05360224251985993,0.013372410146504584,1.6003899541683877,21.623902102117363,-3.1939852243503397,17.765929227150917,0.23065983336718332,-1.3565211089632743,-0.5225082854923804,-0.17344477063241087,9.806779289743378,0.13597222268194512,1.7956896163943892,10.128210914453259,-0.0035415664566793596,0.005747761580922826,0.018401667071897148,-0.4259316290143821,-0.026011821635663193,0.08317586328040595,2011-09-26 13:23:00.446240396,11.500493588
49.0537527838763,8.426962357273386,109.33597364657169,0.051193694358862965,0.007856630152315578,2.0802733921893157,28.651085856664118,-12.586345225216881,16.966952962565355,0.17402635300478062,0.014751014501944852,-2.6792829263789804,2.3703814976288697,9.948951189487298,-2.6300481000344815,-0.8937026601011581,9.681495619834665,-0.023867304040186645,0.024585467926998318,0.011484618756403213,0.022336598990953145,-0.021468056612324347,0.08838755250120368,2011-09-26 13:23:00.546249290,11.600502482
49.05256897705869,8.426589259624865,110.66101697668446,0.04088932706919192,0.0018744445761835187,1.7683673880186224,13.383108013931995,-5.658421907615749,17.10649644571536,0.06068061991848472,-0.042356732971718325,-0.3791751101100966,1.5951287732407402,13.570915251045378,0.07247397251550006,-22.12295725582847,9.509443952381352,0.21139284286011348,0.030381978581688618,0.06475001094901842,-0.02807400556814839,0.04990132827374433,-0.11589476037679794,2011-09-26 13:23:00.656287871,11.710541063
49.0553881789185,8.46773617251207,108.46421127720153,0.016876658203866607,-0.004401583355759199,3.0335109128798887,23.228865136423224,-12.486916466111499,9.691836934128233,-0.10333213594614406,0.07434341077593079,0.7387365047566878,0.39781279938531444,8.816549890192208,-0.030225230358993715,-1.8507487596642087,9.52902809321521,-0.00529111336237563,-0.10436652010664355,0.44137124793283633,-0.030386938741021982,0.02811464353285758,-0.4426118097580105,2011-09-26 13:23:00.756303818,11.810557010
49.050547057250995,8.421322666115971,108.79603226301494,0.2523833432638414,-0.01044614610733604,1.8434510170648402,6.11738366867767,-19.594118868326007,18.145266169239157,0.007953261747855725,-2.552776296776709,-0.04286067700396054,-1.660350690662649,10.003403659572243,-0.44129973602791306,7.915554910388295,9.062778580356339,0.04597271354879473,-0.011377717693477427,-0.016842465510597364,-0.01484893709252726,0.03183772183142235,0.057881381709205725,2011-09-26 13:23:00.866280155,11.920533347
49.048662393089195,8.420887145872268,107.78323795584933,0.06239489310378987,0.0029714216678823424,2.1093936262347603,10.780838347119168,-34.967176796742606,16.406005403406574,0.0640969996259794,-0.6885503371489738,-0.9687387407735295,0.800320391477824,12.74412649843134,-0.23760500825687725,2.6429492719648473,9.841202359552938,-0.01155778558700098,0.020816032566540715,0.05080036939322578,-0.028757169822211277,0.052123785581288176,0.08062984768878426,2011-09-26 13:23:00.966262653,12.020515845
49.05434723554148,8.425075116440508,110.22380334666164,0.08569562905285828,0.010089481041138208,2.1417045424717776,12.280786777135209,-36.91774888399885,17.316419225393034,0.12904312654786385,-0.32199743698880795,-2.701864655121359,2.0129159692159355,9.951576767313359,-0.032415387954341617,4.926495056919478,10.436719590958212,0.06036543781793356,-0.009701418672270205,0.17105982504917494,0.014440402812891438,-0.01468973473510144,-0.05560460998980594,2011-09-26 13:23:01.066261781,12.120514973
49.04287376503803,8.41253711024928,108.20645722813137,0.012775479664761235,-0.0032098557696424133,0.31927633932990607,9.732441614110257,-14.306056108945908,17.744991944695485,-0.06048618044574679,0.0028562914196807697,0.3443858341957291,2.2718457271918098,8.312201832597449,0.39834401066225167,0.47949402465733254,10.126991212075852,0.001635904783749287,-0.03618826028171039,0.07844128936522571,0.03435724183739352,0.00852268383916388,-0.012141312321421004,2011-09-26 13:23:01.176270403,12.230523595
49.05229149446791,8.427691519649388,109.62067137983493,0.043503604226704275,0.005555448086356961,2.845229427102825,17.136117904705213,-11.031586277810264,16.95839171821894,-0.056470523098957615,0.09851849128445977,-0.664894763957853,-2.7138342498130723,9.798013797877644,0.38665529622000905,-0.209078754772145,9.804043117816198,0.0570265262948532,0.014987396600380249,0.02909381483483206,0.012059207014407852,-0.02544697522477233,0.08324238235398425,2011-09-26 13:23:01.276545569,12.330798761
49.05283829760647,8.421247643148906,109.01955328384483,0.02349329102044453,0.0046141222652044175,2.3833848519659586,15.362842765134154,-14.419401445602926,17.3040148181729,-0.047403824451186,-0.12003872117876799,-0.08046160064767305,-0.706535865812614,9.712602090983735,-0.4253790931045902,0.2794563665823326,11.750584222528062,0.04897953044834785,0.018082746874982715,0.10358186438866783,0.27399396711250584,-0.015323178300985861,0.03605738995682461,2011-09-26 13:23:01.376266303,12.430519495
