lat,lon,alt,roll,pitch,yaw,vn,ve,vf,vl,vu,ax,ay,az,af,al,au,wx,wy,wz,wf,wl,wu,timestamp,rel_time
49.008038111665726,8.432848251256388,114.50798485552362,-0.0257929247772377,-0.009395192301187377,-12.379578860311181,-1.3946657702260492,-13.791623645647226,2.9061332069935917,0.10539879979609058,-0.23821814584680684,3.3517128111400436,1.5606113548147422,9.46306217640852,-4.1074067954490445,-4.5680821454410125,9.912853773204487,-0.17907602495339023,-0.04270482419341171,0.03003979017692847,0.0368830954919922,-0.04014739770482368,-0.5788321426531278,2011-09-26 13:08:24.969505176,0.000000000
49.01027611195294,8.430665157101972,114.17161678150754,0.13139105887921051,-0.042319029583250636,3.1083905628570228,6.997853952302643,19.349711486051888,10.818103792324138,0.19883218856975254,-0.9083285071837836,25.309532768190692,3.0101798414278775,9.625692930170908,3.0453218451875093,-1.689885458508385,9.994474172598117,0.017018523557142434,1.5382747725486978e-05,-3.5864835580924703,0.009731972417620721,0.11722578960416115,0.1353437239482035,2011-09-26 13:08:25.079500082,0.109994906
49.00836193210795,8.440676156820855,113.50394588545839,-0.1851196214645745,-0.0013525072314042397,2.2007695859043985,-17.39128947732074,18.23849214480339,-7.757661696757841,-0.23861388622201507,-0.05257618905237305,-2.337900728338811,-0.4968981674399432,10.01032857916928,18.875353220737928,-0.7113040483559366,10.122910518177695,-0.02771044705011631,0.012548047413956452,0.4778931291604802,-0.023939875948693116,0.0469660715491583,3.126880463744338,2011-09-26 13:08:25.179548150,0.210042974
49.01189549472023,8.435690381166816,114.40014991077652,0.07494287723225247,-0.008203362897489581,-0.7225846030454617,4.78676261862926,13.595737190910373,18.24528953156142,0.11385139142210973,0.01770393382728002,0.657826063379245,1.4024274315611698,8.671533329628073,1.4641433936444028,2.1845409533369704,9.184312622912827,-0.12050189237446474,-0.2630679608666328,0.07954294041593371,0.020024293617765962,0.008959109374319856,-0.05175997037132956,2011-09-26 13:08:25.279558666,0.310053490
49.010456601698394,8.439149215388218,114.13187783650048,0.09475121968310346,0.012391219673178546,-1.4180569433113464,-6.034258048486705,17.231082110831693,86.07225659288541,0.2618768757556096,-0.021220837343755742,-2.3155397112931095,-6.890860845557078,8.912811858932015,1.7839866629237728,-1.7263322192467752,9.986200019521974,0.03724499733740272,0.023210223434888547,-0.20741157098648733,-0.027153087096463115,0.0893921698434777,0.07274473434177513,2011-09-26 13:08:25.389489568,0.419984392
49.00981632039045,8.438571809394663,111.74803801100802,0.04970756160942659,0.02672427066521829,1.2587996202701635,-10.352085978225078,-19.833285812638763,14.835734635698675,0.32752121041215176,-0.02312631229785503,-4.049757687025058,1.9714800713794278,10.712785637829525,-2.5934312887554953,-1.236228693459354,8.216008037511793,-0.04426525596345934,0.08704640201882494,-0.25847971904048955,0.06653462992855934,0.02241887206763707,0.524904796602348,2011-09-26 13:08:25.489509979,0.520004803
49.00765604344227,8.43877369526033,113.71940238303792,0.10346204963577307,-0.04636242222535786,-1.5928504103050045,2.85697342702014,16.514232559946386,18.012612448324386,-0.24412453987262422,-0.17694037177805622,9.745044750743002,1.0901753304089359,9.15264025953097,0.3211555436073801,-0.2009336596027689,9.374244361581203,0.017343440437364147,-0.014153812206927635,1.174618211242241,-0.013889359277494757,-0.01873339303402527,0.772961902168772,2011-09-26 13:08:25.599582464,0.630077288
49.00987122824285,8.440286278538945,114.06891005337478,-0.00460813401912194,-0.006663733131958889,-1.0623672620092397,1.5087701797318789,22.12830965642245,17.554010782206223,0.3818544607875119,-0.2511101926084878,-8.83123229735764,0.4388741825716136,10.344958871528549,-18.612760262904224,-0.2725828209651349,11.018817787211232,0.015205376208712392,0.0038228449331454573,1.027813231358542,-0.043934946811255114,-0.0037679967077198697,-0.0036512061937181966,2011-09-26 13:08:25.699659193,0.730154017
49.01034226220866,8.435410846391484,114.20708525327568,0.05206357544456593,-0.012389706695972008,-1.7771642157013137,-56.79327640948686,8.912683671634536,-54.73203358272463,3.023689320791242,0.053898032173507936,-0.07533850989705487,-0.3931329618869356,9.871238928516682,-3.0565251493255174,3.0917601017276,16.500929455365174,-0.04681567809407812,0.0046465864236558,-1.5079992615161362,-0.010824541266491246,0.04088994614781334,-1.702825971687923,2011-09-26 13:08:25.799528739,0.830023563
49.01159557162524,8.432471657561992,115.21375752775924,-0.21091676501231987,-0.009201112153140815,-0.9935924482296097,-4.521558773342362,-3.2717523896031278,15.76367761462073,-0.16391264123243465,-0.09353303304611033,-3.066421245255118,1.7066495915173874,10.458501575965654,-2.282308363249904,-0.2939687708841166,9.718338929264577,-0.37803641718565295,0.004331046099714492,0.6229677895995056,0.013103310095565078,0.03326914162197857,0.9802075213120984,2011-09-26 13:08:25.909528505,0.940023329
49.019345305110186,8.41581164025556,113.98284345419098,0.019385540327434794,-0.00013362973730219035,-4.787522954507045,-100.20891691498464,14.90817968327215,-5.583887945763687,0.16377836479111973,0.08286826242311648,14.327252968938586,-0.726417674935046,10.89965669009433,-1.3908483508957947,-3.311678389564939,9.678410260006297,-0.06418066740737897,0.00027941154663043213,-0.3323522293979197,0.24596321107100264,-0.026565509569806252,1.0586523466144269,2011-09-26 13:08:26.009540007,1.040034831
49.01084575976998,8.432638040649465,114.37893701105891,0.08527766095510486,0.018260129641228917,0.9479327981320955,13.19524003891382,12.115764868048638,-0.9325595132724391,0.642664860970881,0.07348581036301012,2.7802558094884144,-0.8704313353316021,9.09885136446252,-27.913959729335183,-1.4956153492861919,9.384844538564417,-0.012823510590846113,-0.00468297545443819,0.035433134158294126,-0.1961495167813667,0.03438522360743214,0.47847803921228405,2011-09-26 13:08:26.109501990,1.139996814
49.00947204945489,8.43607725363498,114.25638614417754,0.05066708521017132,0.002458851373166977,10.884593393089613,-8.050526007738402,-1.6973961333870484,0.9492865996899926,-0.08592988206043008,-0.029712053088293163,-0.05671860958239783,0.20752878709559147,9.920316200234774,-1.2497027792911821,-0.3233938812859982,9.486994935220013,0.0484131868887942,-0.03358184340167717,-0.517496870285165,-0.020737945133718225,0.022812309824691637,-0.5560911129821724,2011-09-26 13:08:26.219644264,1.250139088
49.00875725886078,8.438022512055172,114.59218680300306,0.08450138470226548,0.011501243138353691,-15.490104952475308,7.937676015438436,5.039196963622795,19.655953518285727,-1.2527954323790254,-0.07342312759003337,0.49487094344762567,-2.128457767747606,9.198056105963264,0.007238188888670338,1.4345479516408055,10.59467483154025,-0.06657396470913178,0.0070045003345624015,-0.07397900841770388,-0.040038419067597975,0.04978240221330117,-0.32448650250455846,2011-09-26 13:08:26.319575106,1.350069930
49.01161625359592,8.435650885088073,113.93339167947448,-0.10616730775097134,0.016744701809729885,-1.249843678447581,10.704532982581707,15.828082169079671,23.855500523994152,0.38910622384524746,0.15659861172562034,0.675361749346612,1.5948069223759016,10.707707283212637,4.499221541498196,1.1268358590849736,9.548516469230856,0.005206566330874095,0.009379442635515208,0.4050991014679738,-0.021920839323162043,-0.01584894870687966,-0.11579287716545356,2011-09-26 13:08:26.419554627,1.450049451
49.008148265882106,8.434478889565574,111.94217916752653,0.29729599569537346,0.012098752041857777,-6.629202987001803,13.207988354775893,13.757169215978594,15.253807855581051,0.06752842864690398,-0.0045449660717399795,-0.21390328355133498,-7.555537427182657,10.120047740597998,1.5475215190247575,14.509882856902143,9.919841926629472,0.00047315436190179276,0.02758205481462457,0.14239815254092458,-0.029686672741023563,-0.027433073345734478,0.06605611178169662,2011-09-26 13:08:26.529544659,1.560039483
49.01131594389329,8.421620528869965,113.89558417602694,-0.0008002163871530521,0.013311233717830686,-0.2360782159729206,7.869763452179473,11.100415263444969,12.292207447568176,-0.015179908029429354,0.3974772437339869,1.7233721696675526,0.6240448125790361,9.839139032268266,9.187943355782085,9.43791082178204,9.575207765886613,0.018421279989586883,0.021227692166195012,-0.6138555520114503,0.08366125150962399,0.07691250272546524,1.166078006099336,2011-09-26 13:08:26.629560981,1.660055805
49.011198796299205,8.43557011971942,115.6444934066542,0.16022140645494187,0.011502921717795489,-0.135316438634446,27.46420474692085,15.35183910865724,16.423022885165995,0.24538698833427897,-0.009745846174151841,13.939201417933342,1.6714749296818932,9.385729169843307,0.7237439502766725,-0.7738870418667655,9.337639685553066,-0.032509391569007236,0.043687566352965605,0.29324247210195453,0.0265401295093139,0.038766803527374646,-0.06730540976131959,2011-09-26 13:08:26.729578420,1.760073244
49.00907491460836,8.43160430273412,113.5625375475228,0.07154398709215337,0.022475071578135282,-3.3641230249215677,8.666605364688362,13.448031757289128,8.82413411551181,-0.2369663154493742,-1.4102033026325296,-1.9315867367543045,1.2010673297398735,9.603909386065052,-0.846540050261915,-2.5150519562871647,11.123698125284111,-0.1374887180527439,0.05479307854428677,0.07516698079431808,0.04627061890296242,0.024913929488787078,-0.10454993308307309,2011-09-26 13:08:26.839570600,1.870065424
49.008640950875034,8.428330877659551,113.55702224359314,0.03746315137429711,-0.011279310234235732,12.277476709360888,-7.412730949836511,10.662015553308239,-7.198765288567941,-0.274310071013629,0.18145745682033063,-1.9305529991489419,1.266896463582568,10.326826641222484,-3.4404758214575897,-1.0545712570292312,9.124639029196828,-0.025652139582919595,0.27978662448470215,0.17692355052810688,-0.039651953739570624,-0.027125093059896587,0.4839464831386454,2011-09-26 13:08:26.939565443,1.970060267
49.006757423701366,8.43775186204186,111.53539493773911,0.045379127889901505,0.06227262501060108,0.901282481226587,18.783012730589064,1.0718213000367758,16.204624844515187,0.28411397154749696,-0.06271067522330188,12.06315789276268,-0.888507416946531,9.332084649468962,-5.276518204732028,1.1417959345317295,10.771047674863654,0.0012644953109874155,0.03679968158205392,-0.3297569286998081,0.015533146226626438,0.06598255061776777,-0.2626646966177455,2011-09-26 13:08:27.039596881,2.070091705
49.00899747003478,8.43982585130185,114.04865872529714,-0.2810217433335964,-2.6116818332169896e-05,0.2642294572955067,-14.56109516446633,61.60938812831468,0.9435576780232839,0.037871114237987315,-1.2267045182126917,-6.059907003470149,-0.21063794459344232,11.779254556273814,-1.433061787892464,1.6633364488516322,7.666310388242049,-0.03890727112957251,0.30911864634253255,0.36080920514037923,-0.314498919540686,-0.011212293882233083,0.47773546535491274,2011-09-26 13:08:27.149571467,2.180066291
49.00952622895128,8.436335526514428,114.36774847400912,0.12079295331646903,0.01870153583904318,-1.7329394627748282,0.8302396450285321,23.59088987182558,-16.40419559021139,-0.11624512016067001,-0.14373811321943486,-1.024826137221558,-2.4974128479093465,10.10392961576009,-3.772579668482752,1.493597839622958,9.658855603496965,-0.05984721441975186,0.024219799198054656,-0.09700344390522482,-0.08299214025070024,0.09854653639620269,0.031765109903241245,2011-09-26 13:08:27.249578975,2.280073799
49.00762270801294,8.44094338645162,112.46385949956317,0.0633505137779802,0.020327568382486037,-0.34084532875691465,12.085860160986307,11.955880175092188,8.73453036817211,-0.060583510840506505,-0.008894783520796708,3.6268750206231504,0.8419404417590932,9.485937446167824,-1.3086834259531672,-1.2973311634280138,9.789451778459279,-0.002815041251640624,0.015548694783396095,2.974314641910447,-0.0007459719030904685,0.04423265248240878,0.275401269045748,2011-09-26 13:08:27.349607184,2.380102008
48.991807130378305,8.438252059872513,114.86457955724596,-0.037060860754298694,0.061715303815873375,22.63592380605973,-36.45023081365386,11.863805087663241,24.208090182699976,0.055998228557584746,-0.043535730375416665,19.48010267372597,2.145611366968777,8.980932181839874,2.142366487329587,1.7080442904310185,8.88858165145553,0.15356779445265983,0.002736017771504946,0.5103485186003679,0.02587086037385879,0.07149647613023385,-0.1890376920720559,2011-09-26 13:08:27.459559770,2.490054594
49.00734447030414,8.438005408513611,114.91987789565958,-0.08274108977976838,0.004768376015283368,0.724792501277016,-38.552618934425865,-2.0267356334937734,-4.104268152520497,0.26421005794821545,-0.3218011915198786,1.607448159869032,2.3036169472286794,9.831131644085126,-2.175188471314577,-0.004218019750972078,9.59562221062856,0.36541642975352784,-0.0434260533799317,-0.00687185134446406,-0.013374558495284633,-0.031723629980715304,1.1038059373477196,2011-09-26 13:08:27.559577286,2.590072110
49.01016654801157,8.441609102564632,116.30717287790011,0.11927155472041842,0.005558550586704941,-1.0237653856359235,-6.798928203583405,5.380849348419196,14.429353781667604,0.16909547999991298,0.03199737146921122,-9.396497109247697,2.2284139631547903,9.557946819748215,1.7527286385842409,0.9050560005260074,16.386859846356046,-0.028385528592139452,0.04298152133258924,1.3050138272130518,0.01588356712862169,0.06160834580383509,0.2568421582210875,2011-09-26 13:08:27.659582432,2.690077256
49.00832042269438,8.43849216297996,114.96062946496819,0.06630784596480334,0.0040162180555035005,-1.6596287047202178,-13.25411368069398,21.69219284120866,-0.4096440205077396,-0.2217022018957528,-0.018879388209324513,-1.9142014683844313,-0.06670495169768631,8.987313154655467,2.9689685301483086,1.0762234046825603,10.279313541379839,0.033276377776261114,-0.027290748497080956,2.180628585635111,-0.010160858202414174,0.0368824638217908,-0.4046108696411811,2011-09-26 13:08:27.769687986,2.800182810
49.00886346999923,8.450721256222266,112.0211960892352,0.06382560477106866,0.011744965371821507,2.34151100573274,-7.424230087880494,14.487849515154124,12.945707454738612,-0.10359402196908803,-0.1012975439557517,-2.6354580458785026,1.4719235741290713,11.78350705417235,0.32437276706765883,1.6154693556852946,9.563246415290273,-0.017800877829192284,-0.0530222508758269,0.4845282951255458,-0.42063679127142345,-0.003137129753300539,0.15535781353332825,2011-09-26 13:08:27.869619886,2.900114710
49.008185663630194,8.440296394062855,114.51431080360591,0.027720717143367095,-0.001440623637428154,-18.744351939085014,2.870474555120293,8.798627481911174,67.47310108677644,0.3277528931877301,-0.1024980970381538,-2.8131433193603312,-1.1155698758247272,10.364812968750321,1.0807728440727096,0.011454836509194048,9.436366337691593,0.15214621117458416,0.014263685114946538,1.9042884764320145,-0.004577226081187505,0.29574057304441265,0.2567636939135331,2011-09-26 13:08:27.969608711,3.000103535
49.0067215078736,8.436651432822245,113.59851018845583,0.008794592007682074,0.0016218956220414062,1.2865751300539612,-81.27975621753158,8.184471363184183,7.8533555556386965,0.15311309646510263,0.04907879270667921,-4.483760288025575,0.2652587937735528,8.791379683365388,0.3483065214800084,0.28783744762226104,8.77553878175691,0.011040925002562617,-0.021595115733084997,-0.3505897976345723,-0.0735823609220163,-0.019072841160775764,0.43696712431809215,2011-09-26 13:08:28.079637615,3.110132439
49.00980168743846,8.43990040433636,114.41266252171657,0.0524979752755561,-7.367035547984312e-05,-0.5691911794069875,-3.20202308514404,-57.59762521672022,19.621429370664735,0.033785039411548826,0.03322286413009368,1.1091104251516106,0.644042488558864,8.356938414393452,4.223183589401179,1.6779026589855095,9.541619119416119,0.03721152633367919,0.0258187414932867,0.5495889823029643,0.033774025248922125,0.0735883549240328,0.6712175346674003,2011-09-26 13:08:28.179826915,3.210321739
49.00895583669139,8.438046077223346,114.17620841209026,-0.03788773674531,0.008429308840598632,9.60531943414716,-5.967145620036874,26.994016627942898,0.9260053549177893,0.011364809634933595,-0.11037328033709524,-1.4577277320648212,-0.7864801605051257,9.801399689424832,-7.377313677129491,-0.35896020694923453,9.52873941991701,-0.5181721195921917,0.03621146431773634,-0.47249114434350464,-0.07659104210798694,-0.1549840155160261,-0.6099696423216902,2011-09-26 13:08:28.289665346,3.320160170
49.00777294726247,8.43463119684176,114.98796855534377,-0.013235615033090044,0.0014027876511413032,-0.5792564219176856,-0.4128180500638652,22.938325878988195,33.30232976700551,0.2925762402233235,-0.1231145194565054,-0.8299240441650982,2.300990836946834,9.863688839870177,-3.0115723567284705,-0.3721411324887994,10.549700830764271,-0.05769246556753945,0.05811020832007514,0.2792877571303678,0.04978929418836379,-0.043388002431662666,0.1396896630116306,2011-09-26 13:08:28.389589105,3.420083929
49.00632894209947,8.436484445737383,113.55258678161226,0.061848226524061495,0.008660205489587203,2.2079070128529517,4.047381285516146,18.301466503356842,-57.066934277036296,0.08666880988572219,0.11089928151317284,12.335733370343394,-14.720876973060639,9.565350710139594,-4.108278435240691,0.2536487494921651,7.582848724853724,0.2382360353004512,-0.18316183994903584,-0.23200648694020448,0.14208378021370477,-0.011460291821170313,-0.14336932820986306,2011-09-26 13:08:28.489682778,3.520177602
49.00894051026208,8.432792511726852,114.77549708985698,-0.03321836776798282,0.02208561200666459,1.4745284023927931,83.91503424523953,2.952723259107324,-0.42498588083447686,-0.04561415162837533,-0.08786757660735897,3.926341375566361,-1.3089413260927896,10.364181964190008,0.30135182109700054,1.2909388130104402,9.461389441980161,0.2528034587808266,-0.020587734601193262,0.04202902644827451,-0.21557030996941265,0.012418924082356371,-0.05361223876338917,2011-09-26 13:08:28.599653315,3.630148139
49.00997092396701,8.43576613196934,114.55280102510939,0.1422793770623198,-0.0015357388286823762,-2.0075954868400596,132.35796527197195,-1.3882902966858932,3.51309632113868,0.04135534657073721,-0.18784232431345904,2.5211609951451606,-2.8666439545964275,9.601708916491305,0.20853780574702113,-3.6722484568097924,18.067276376187614,0.122644172374843,-0.006508888636969816,0.40196338259172343,-0.05547900485006477,0.03893134220324645,-1.4570977172730624,2011-09-26 13:08:28.699890211,3.730385035
49.00920238306166,8.434838601614302,113.73133453589472,0.03701250146608955,0.011040011377662246,0.4437283479335005,-20.269894376465135,15.45697341677469,16.709618910978858,0.18944534657240686,-0.2677406136500569,-1.3184341072862384,0.8317213888861884,10.027159733036926,-1.8309439899715287,-0.05824963854956869,9.885026072716762,-0.05659302864789013,-0.016971922116456394,-0.03539996655829884,0.04555476320313961,0.016390209118662617,0.2536482558987833,2011-09-26 13:08:28.799648576,3.830143400
49.00836936625366,8.441802449339413,113.71209774138708,0.08408113135854131,-0.013264640516676082,0.4877962398251758,-43.17937627182878,50.28742918732138,3.207932754891158,-0.06407387945893943,0.10347919494911811,4.0441724039994735,0.05482651064490118,9.18188538372084,-1.3398945131382964,-0.3387877589687599,9.6329061870185,-0.07024189413222766,0.069827307315008,0.11511071473103329,0.012655628465203737,0.048880530966514124,-0.37662720409980566,2011-09-26 13:08:28.909669960,3.940164784
49.02224837288156,8.434383818930394,114.53553039423197,0.047882917367484096,0.008758732467178528,0.15452011627927614,1.4187695376001823,7.5933565164530545,23.990532872548606,-0.2600753245618106,0.5388919521136438,3.4260588903016886,1.626937100407861,9.101089779963655,-2.699282318113715,0.9377309660318824,10.149326853449008,-0.032196012167000965,0.01771897297175424,0.5160313155228279,0.0003062488320716853,0.019937201271686286,-0.34859825607056505,2011-09-26 13:08:29.009645361,4.040140185
49.01021326751832,8.446841928493878,114.2983272950283,0.07081694989081637,0.002498851417315035,-1.5098418078590117,-8.633961827531717,-70.29513380306797,30.35920955351027,0.5717295940039631,-0.018830099734056735,3.678798280086804,-1.9300512657015796,12.98442839129775,-1.8277094220459242,0.38911793132625905,10.155894641008043,0.016680202268066952,0.01766184452798192,-0.12689398351163148,0.005331683316455147,0.008549825333380421,0.3431261511561289,2011-09-26 13:08:29.109658299,4.140153123
49.00939537629554,8.44334572655034,115.27565889810586,0.04614193134085376,0.011077723182991184,0.03921664669550351,60.641430270532176,2.7723401378912813,6.7916875246342325,0.11315689278327873,-0.11719467794467225,6.744051697076213,-2.5586935660185928,7.143955826121072,-5.284837874104301,0.34009191890845797,10.495728937386502,-0.06359532079513144,0.052601269507382364,-0.2870495353918859,0.020927609353433352,-0.03330291206369823,0.02013280923887248,2011-09-26 13:08:29.219797292,4.250292116
49.000181888987065,8.435090968189508,113.37107712666162,0.00973092953517702,0.014554095757766077,-0.8698696229317213,-36.761174459569666,12.86060217023093,4.376056547351533,0.12803398626021065,-0.04727782679574304,-0.6799752483163468,-1.4569346439789763,9.849175632098955,0.6486836885321576,-1.2805286231002129,10.409542834046617,0.02880291875385705,0.01661406125073614,-0.10735094098362558,0.03682173166882394,0.16984686374258964,0.05776559948081395,2011-09-26 13:08:29.319722497,4.350217321
49.01159731248852,8.432584154133101,114.75836787081616,0.0166606409741126,0.008191352669508184,0.6766527117489356,-4.78430585135538,10.817971393263237,21.67220689917181,0.06204171984078345,-0.20509478088283256,-1.1311352199148617,0.20927318546854978,8.818075120935875,5.4030920590163465,-1.1447477004689846,9.031335252705494,-0.0014861688836419126,0.02977000034116464,0.29549951404063524,0.05089489543754606,-0.0038989602965988804,-0.2941813806169925,2011-09-26 13:08:29.419669975,4.450164799
49.00967695676249,8.472067090337799,115.84515403300846,-0.010913952676723841,-0.00928630974073031,0.12291394567622393,16.14566568149928,25.074377306478773,-54.06302156609704,0.3166370673488593,-0.22205033442373892,0.6740688170353275,0.12475001901850001,12.257342052984812,-1.8298965201046329,0.1771583249567637,11.961523698053098,0.016538232807830934,-0.04157542470301597,0.28015734071541737,0.021990449051170334,-0.4389321883604047,-2.062836327423084,2011-09-26 13:08:29.529674761,4.560169585
49.01040384483244,8.458735708444166,109.48935213166173,0.03915954171578775,-0.0002077787202730587,-0.16267669381549954,-5.892647652385967,28.43217091599024,12.237376766963472,0.7444757016770249,0.05584332264081561,-1.398449889172563,1.2660988269702265,9.462705857723007,-4.786484688173809,-0.5861138895507232,9.104676088459037,0.026740839645918335,0.005190687806980313,0.1668886370872003,0.04974297855034864,-0.028651590152631877,2.0089163931008205,2011-09-26 13:08:29.629695643,4.660190467
49.00845039164487,8.437189182801738,111.83097108142562,0.051493888018016166,0.06791100699468075,2.3582835568172094,129.66020856701837,20.00494465421029,32.25375004596483,0.7328587941760167,0.1815776659083822,-0.17710464445069884,2.949208215598454,9.62029960847517,1.2065536403521784,-1.0264115091867283,10.20308866088334,0.07738916793647295,0.017546835671008995,-1.5094264642532245,-0.021989107495060167,0.030325423615990558,0.2849465349919582,2011-09-26 13:08:29.729713462,4.760208286
49.00738412824919,8.428162482883288,114.01258643884294,0.05323425192252571,-0.030578571295121298,-1.1286035150539728,4.341151025429744,6.7273327135072085,25.518619225561174,0.31114441547189897,-0.003971078818496274,-2.1262180344094466,0.10267373734775864,9.836490475664503,1.9238874152336858,-1.6625838027018758,9.353218849395718,-0.00443935367173922,-0.005895534340232494,-0.40834450311945913,0.043585734017181035,0.0031394582541329264,0.2632947766845289,2011-09-26 13:08:29.839734067,4.870228891
49.00856358520116,8.428247246510976,114.36171848693058,0.07435638353334321,0.07861104069502162,-2.518810512535053,0.710144310122022,21.885529405376914,17.098448705639466,-0.3329128513676359,0.08228839288663421,-3.7976577679707733,0.9530125196927655,4.045695963074872,-21.706207458869137,13.00874788759963,9.497922363278228,0.056215852257818416,-0.025127549604825977,0.20318304690351538,0.016532799952880376,0.0423229924897808,-0.04813876799712573,2011-09-26 13:08:29.939674898,4.970169722
49.009346455160326,8.440631817566985,114.76501533568343,0.07741590230694241,0.009084944976990163,0.28119407292551984,55.40209500213626,15.213364540877587,16.36891582756028,0.4357728937162032,-0.3695108799044491,2.1843253842714367,2.556317576346042,9.794124947972396,0.6623710595935721,-2.884302230864618,10.841440104506999,0.021286885510446392,-0.06622366746252345,-1.3935122852354769,-0.07922550514068118,-0.08093246020769312,0.014502919950398464,2011-09-26 13:08:30.039737111,5.070231935
49.00896624731448,8.433964415062878,114.31115778406227,0.1734884476242366,-0.002218673611741263,3.680840183078022,-23.961182756248135,10.215771217149033,24.407063276792826,0.22021085341659655,0.00027682953144218814,-4.815422956265495,-0.18578669150164406,9.83086800738491,-3.077510939541728,1.8048252985025592,10.830183892567423,0.03131406147904867,-0.00926539631516372,0.21250633221280987,0.041269173407548064,0.007003730734886884,0.35909617903925145,2011-09-26 13:08:30.149705771,5.180200595
49.00869865321253,8.43284551157745,114.44562688325469,0.12210713907072004,-0.014969658673408697,-0.2946562974901748,-18.628213212843423,-0.13489506977788857,-56.10206558556692,-0.07585076201780452,0.11986107192121151,0.6999273665460449,-0.36290977252343093,10.24242057954222,3.9425071268064236,-0.6457860070570369,10.14473168744948,-0.01156200377281862,-0.49897123790853437,0.785668507153598,0.012812619289338512,0.1590578600709834,-0.10022473981261384,2011-09-26 13:08:30.249704622,5.280199446
49.010139562637264,8.434723990880675,114.60311097019397,0.11082392334020355,0.005853592668552922,0.24402168063210627,86.8749488487357,20.750948025794507,21.799931418965258,0.2867223340218211,0.008081070653794037,-1.6693930414690419,-0.6264721797985546,9.278084951756453,3.353006103613737,-0.28213559304731206,5.186414882101481,-0.01065763680588011,0.0367684669414709,0.06752184716812698,-0.017556307081304377,0.04661213313212198,-0.4595531647503232,2011-09-26 13:08:30.349716446,5.380211270
49.00970483312657,8.421368030705569,118.0090033585,0.016325872760417075,0.03416886498458262,2.7432368262852638,66.08158787679996,26.02040342236698,85.70097544712533,0.3709239547681912,-0.9988873417594598,5.131330009797592,0.47911845284229637,9.03560563354991,-3.0955150258857316,-0.8753331704352709,4.7369561970003,0.06487583620990177,0.06307931278577092,-0.5107174759584976,0.025546079461848427,0.022108664830343766,2.235696563312113,2011-09-26 13:08:30.459701702,5.490196526
49.01074769030544,8.43969344216541,114.66351542991961,0.028438946909330198,0.017501585983280752,-2.1653209243142606,-61.75444633737816,2.0756865294123568,0.7261956362083204,0.14653745425339684,0.04340518965057232,2.990976776942819,-2.9801073233785855,10.75743332963433,-3.0655714712499957,-0.8534524343847779,7.6975380630674755,0.006342959033126897,-0.017412216294508922,-0.09960375646609528,0.04584670676589464,0.00855322108984666,0.07590176321935896,2011-09-26 13:08:30.559711102,5.590205926
49.0101866634931,8.464442959650471,114.98937696927844,0.27933364878683176,0.029377437767843136,8.648649866505071,5.450277299439648,3.7951703944556714,6.064736707645493,-0.02067934790906112,-0.1833838741757018,4.3592043057283245,3.2317929617061276,9.700977831697525,-20.231404321035548,-6.98283828484547,8.993472234316274,-0.023525931228464914,0.004415266277276974,-0.34190229972169556,0.0764200334220611,-0.030747612942412537,-0.262173501613863,2011-09-26 13:08:30.669824158,5.700318982
49.00692072599231,8.438553721747933,115.30887993056427,0.07855149571430627,0.028511714192270318,-1.8373309859393665,-0.3269466485825472,10.035985068861235,-7.848335420288436,0.1584338319087899,0.0048251524602932055,-4.1093622068483935,-0.7994671256171544,9.416824856664212,-1.885062500075351,1.2151034689056055,9.722090271991812,-0.011647971176921356,0.020009960393410547,-0.3437611038769435,-0.018851384860809513,0.02861066305337153,2.7381114975715013,2011-09-26 13:08:30.769841203,5.800336027
49.010828159671874,8.43864323201823,114.98893527855594,0.03534292937636904,0.019050746752224686,0.9359954496789997,-49.071464152043944,11.684014843495216,7.070633567661068,0.05748990419243788,-0.20605247682468125,-2.0877303273583645,-2.081571855538083,10.34111309698114,2.239020008772229,-1.2656533756847261,9.740659802921389,0.04214785540700923,-0.0014189995659681888,3.7808534279700994,0.05053030797205221,0.013521639982324623,-0.019660127649749733,2011-09-26 13:08:30.869692259,5.900187083
49.00989011591104,8.441400717412503,116.90863194887946,0.08281152532530503,0.0027371216445146417,-1.4999561971988042,-11.511321311961849,51.498456075802736,23.389074221028906,0.6377764877262777,-0.016826874855322787,2.933798558892186,2.1645902409283924,9.430974347945467,6.969249582758799,-0.1772030162715433,10.29518914537173,-0.04460484208639861,0.032363098090166305,0.20642765615802122,-0.06461362283708195,0.278657696705557,-0.10215863433502825,2011-09-26 13:08:30.969721589,6.000216413
49.010469644712416,8.414614174904528,114.16994813182565,0.06349217430026975,-0.02390860216765217,-11.887127919153585,32.87639047602233,16.227574639542713,34.160695880397704,0.6673977830568234,-1.0180043819584674,-0.2585486778204443,2.0403519522894844,10.124229591910535,-3.1810956843778015,-2.741704068332979,12.149136145303135,-0.03876128939463639,-0.0025933082651093883,0.6794585652646501,-0.053485447554818114,-0.01861101141273511,0.04007489903360055,2011-09-26 13:08:31.079751529,6.110246353
49.007499964598246,8.436948444967333,114.11642587203477,0.5702928066656549,0.012408475752746088,-1.1768271591863102,-30.668807912351213,18.306117011930976,3.9732804848180514,0.30972683814912133,-0.11232467318361752,0.27318944522541466,3.364543919825768,10.342724997197427,0.4452872897704543,0.6594847011217586,9.437082557801219,-0.07820496387210694,0.0889623290170772,-0.13763625610171365,0.07468235511278573,0.020791287121012664,0.07448145281930203,2011-09-26 13:08:31.179942239,6.210437063
49.00795801012651,8.442487538468425,113.68254559728308,0.16226471520096314,0.013147434795256752,-2.9484689941929045,32.14940972532938,62.41254268680443,24.41143490465413,0.5194758051106791,0.14372322129665233,-1.9282471385646138,4.672211943329643,9.797564681228469,-0.6059293625832081,-0.8560208162963442,9.738796808092303,-0.06252364847586564,-0.051624904882917405,-0.15650962592951467,-0.0597262512877041,0.03321712742560254,-0.10494270235853856,2011-09-26 13:08:31.279800507,6.310295331
49.01817552136656,8.438072481411815,114.92874963374187,0.30268968805541624,0.033456832934663554,-4.84506802128811,5.558760267351241,26.825191841074293,31.930334830571233,0.13942045620461946,-0.25586723192929417,-2.9481133612729824,1.6816414234390051,8.752955053041171,-1.2654207284339296,1.4333902003504262,9.499396816469112,-0.05513336012080537,0.00390435264336426,-0.4497715639908992,-0.046333665230876064,0.036162213191917154,0.23844151579568332,2011-09-26 13:08:31.389789958,6.420284782
49.00762185025324,8.434014742121812,109.74602375693519,0.11966453150037715,-0.09847596732295506,0.972205253346333,17.03403806298181,23.212636713950708,100.09150889790702,0.31434395131434245,-0.17511667253179836,-1.100722638913943,-0.033246096309474726,10.190478998962138,-0.2630335879277023,-0.9147683599890304,10.182459456932818,-0.03764144949496416,-0.028646759871273915,-0.4759454045338028,-0.05426248736109911,0.0039707706283248385,0.21175539533462887,2011-09-26 13:08:31.489754996,6.520249820
49.01042944773816,8.448294114989833,113.42816294430995,0.14847142857978027,0.014691294081539335,-3.0982984852737805,-21.717539108093607,9.13587834492547,113.1402117235607,-0.27475477079199595,-0.18327417244297484,0.08490336428212295,2.0328061986509347,10.185868255509119,3.986041596743249,0.20745857637935572,9.766673923347854,-0.060028922400236676,0.02374356028326544,0.9531121026093328,-0.017429669808036726,-0.05305793552914825,0.026361998916903613,2011-09-26 13:08:31.589753322,6.620248146
49.00975905598895,8.44414624086456,115.03578884158266,-0.034752980172026375,-0.04772346109032578,3.812729160780878,-16.244172457730127,19.912262833704695,14.536859529479447,0.05631348421802533,-0.039245530216654986,6.151286376137447,0.18239585599945923,10.04524722219374,-0.8781143104377378,-5.545038303807023,10.32392195125332,-0.1704516167827821,-0.053430261747337636,1.5131584971176344,-0.03286756404840724,0.052342788399044056,-0.38299063913073483,2011-09-26 13:08:31.700053025,6.730547849
49.01127533629056,8.434878727574732,114.31996002012251,0.036389771868341726,0.046068529850736,-0.5149151367149226,-8.233094435649866,24.129798147045385,10.98700357955972,0.24867960182022286,-0.3260207869840125,-2.800420239824765,0.05384511789935942,11.171805838743062,-0.9244651681396139,-2.625845613710399,9.393148325450486,-0.03444091917102428,-0.02561624252150338,0.10238624743750901,-0.020386897549664388,-0.43858902996853627,0.19177622099350997,2011-09-26 13:08:31.799791743,6.830286567
49.00951222636695,8.434242250644381,114.02108954049504,0.030858745576883482,0.02904215928805528,4.140119535935805,2.804495535727742,1.0274763082538545,17.60218153119218,0.3302881916136806,-0.025888766653614274,2.0042749542421334,-2.203818091386745,10.728818614510859,-1.6553365698490998,1.1670867413564237,9.355863338681873,0.09595254283912458,0.029106771920745622,-0.231191156224467,0.006837025557990517,0.0010827836151735635,0.28678384776043453,2011-09-26 13:08:31.899777947,6.930272771
49.01135180858743,8.433326918982779,115.28413216621102,0.09354240235186129,-0.007850257693260738,0.5879700463316944,-8.888587122099219,-142.39151078725024,23.03478084308516,0.2857536752996686,0.19991182656657447,-3.0643857665557888,1.2001427263513702,10.822311324213686,1.159058861221319,6.502010695778544,10.364578766391707,0.027749958154419864,0.009708283169151405,0.3385138622257923,0.005565278501179469,0.053411213317425495,0.1426487216174178,2011-09-26 13:08:32.009790796,7.040285620
49.00816417152745,8.43586189574219,114.57404326334603,0.006129361337514357,-0.006303273775141308,0.3133834422582217,7.901858746727877,-5.6244315371788165,-11.567999140156681,0.21725937162565423,0.27709850416024745,-4.842911156881231,-1.6719286173695265,9.086228519130369,2.5004663200267374,-0.0010011409060279586,8.641510471778075,0.270422349719955,-0.007274796288470789,-0.12081491310800939,0.3578319578302445,0.06560200893805394,0.36209441676712695,2011-09-26 13:08:32.109789775,7.140284599
49.00847485008728,8.436966002675826,114.90379434262226,0.06217064834020965,0.01958660353313897,-4.2983442400165774,7.883549863401518,31.38511667175802,17.6002138536332,0.0851680442077222,-0.0011276957109680064,-5.686126129524293,1.0381617448194111,10.666859248862584,-0.23556550420285785,1.464134422510556,8.931474593309845,-0.014295935256046326,-0.0023948208229938855,0.19612746504207754,-0.03733570565883762,0.012236173961283884,-1.4700807630487716,2011-09-26 13:08:32.210031079,7.240525903
49.006223138549736,8.439564573053351,115.67099175750351,0.19146691603747018,0.012912357836903946,3.4092014649813516,13.798358074080904,-5.448179169645023,16.334396537067917,-0.18500137248169055,-0.16670682815162088,-0.9137768634528759,-1.1161032023136088,10.063921314243666,1.3676524745962837,-0.4941066428887105,9.368421161066363,0.20266435284147988,-0.09247068271479088,0.2302774007437206,0.004344834282042906,0.27340609817777767,-0.5338119516899452,2011-09-26 13:08:32.319868406,7.350363230
48.998322554342074,8.446215673284788,114.03604368064798,-0.03306448240080195,-0.037863772701962166,2.271897556735828,9.021419614641786,14.278118979449232,21.07069306004371,0.15545361335844515,0.03531590964852891,1.1319454068233625,-1.5879713559657898,9.331611015502864,6.9329935578154815,2.289005742216818,10.360453098753968,0.0005774969320211025,-0.017945687890083193,0.05902881581210903,-0.04156736195452838,0.0029899867919636245,0.3013042265566149,2011-09-26 13:08:32.419814584,7.450309408
49.00854629653274,8.441073486993433,114.84082615754363,0.49912782868631134,0.026867876876226264,2.6604544028125536,16.846358346000248,7.32522928709256,25.35985400573919,0.36732365346364443,-0.09456149958976545,-2.469189341852969,-2.256692823699799,9.254970978776889,-1.922638049160645,13.438384451082507,10.02723121338238,0.01681009994135886,0.029367290251572774,-0.10566081651636351,-0.02362335400147443,0.08744642568274448,-0.2126862889808041,2011-09-26 13:08:32.529781144,7.560275968
49.01209224767132,8.439221191630818,121.80189658186606,0.1514505638620528,0.008833513894275198,-2.023988206538455,11.92257053339645,6.485346924720248,27.588377671939682,-0.08847802068288727,-0.03179843438771489,-2.429907569293088,1.3182333585601467,9.814647646371835,0.7758135990344007,-1.6744621407411573,12.242601797230858,-0.018483887958340002,0.0421001119440047,0.3462912214772518,0.0457184271150818,0.10688709915708725,0.0884241885167705,2011-09-26 13:08:32.629829035,7.660323859
49.00911252421174,8.44193130775489,114.67231334247938,0.11468532167461346,-0.008111323964012688,-3.025577451688489,45.91268718037498,19.50816638411674,16.178245557559457,1.5302575625825439,-0.18882327351348266,-2.670248075534723,-1.00381024674853,9.811826290346811,-0.4742937728175203,-1.9652226244261386,9.540446244652863,0.05029111362628534,0.11134341857609402,-0.25389140036526564,0.059120781122127986,-0.03169645872321394,0.42579635299961505,2011-09-26 13:08:32.729850821,7.760345645
49.01038217520053,8.438904094650646,114.26845126961732,0.023154979577576805,0.020377295360003794,-1.3023125018878432,-4.652740124651228,12.748170545267575,11.27450110078713,1.1808829845475302,-0.21770845927031904,14.744014183474096,0.8398565559093836,15.054737335274588,-10.06266375677057,5.839154999480694,8.890057063307761,0.025613596176475763,-0.10800675446852595,0.3992305483742141,0.03537706043778151,-0.09378471342734246,0.36481540345025404,2011-09-26 13:08:32.839790156,7.870284980
49.009911036921366,8.438213872104003,113.77999620124237,0.06578712933199068,0.016184798011285074,0.33335983436072897,-39.78713632625999,42.51678156140219,-26.005753855575083,0.47453410540132335,-0.2191297155386825,0.35064641102767174,-0.014573102552236206,9.283274259956416,5.554518317098834,8.345631861708702,10.007168887093256,0.2615640752647138,0.03617445142760231,0.10041894306718041,0.03837098922130385,-0.04286118712966937,0.2703240404589967,2011-09-26 13:08:32.939824302,7.970319126
49.008154971652864,8.436425953728039,114.84418244571364,0.09697071359488299,0.008934844715296125,2.435736202212733,-2.878615713324106,16.36316292901357,0.2101261548863178,0.6049685557008256,-0.061339252768508636,-0.15469555072901636,1.1179477394325317,9.360127759692103,-5.029720297182265,-0.7028322524792222,10.040800482646809,0.024462788624288537,0.006035683697455748,-0.8830071765276646,0.028508272237212015,-0.0525845131320643,0.08542395307643662,2011-09-26 13:08:33.039846462,8.070341286
49.0081890675647,8.43700736206007,115.42248226812094,0.10535632471992659,0.0339110708001461,-0.0975315559935859,7.000903386452651,19.977007501902342,8.140619501992017,0.4166020949121671,-0.1859040934794529,-2.0603326907577393,-3.983892317624034,9.060777504583974,-0.6523439852704013,0.18662285121536257,10.164952990931727,-0.3293309244067872,-0.10465454197759509,0.2806874168734122,-0.10027155244160305,-0.04004709875587652,-1.9355959308554673,2011-09-26 13:08:33.149834099,8.180328923
49.008599573074214,8.442398086497883,111.66173686842167,-0.2483115887317781,0.007976813584856215,-0.05933206951679232,-19.1408182109631,15.87671999533186,62.0779270432089,0.04956652195120481,0.10905080782236998,1.3006708490467045,0.9480846638226006,9.213204481046924,-3.842986333189716,0.8611475989243664,9.620499773060402,0.037015706822681974,-0.03896025490821989,0.4580333193542107,0.040226723049876206,-0.012273805899041902,-0.3877386608076725,2011-09-26 13:08:33.249821369,8.280316193
49.009773331217,8.442543197702262,114.52731717420464,0.06617152850034738,-0.000633634652667062,-2.1118204386916326,-29.129164855731602,16.82223251911533,7.405581659722646,0.06442132658991694,-0.2224617230864808,-0.17191284481713226,6.09349047516836,13.456658451586476,9.727662189276288,-0.8674545108739075,8.797416854686208,0.048264951896903385,-0.004262602630849835,0.2885595685004971,0.008351310075744226,-0.028917564544766423,0.6523190002584425,2011-09-26 13:08:33.349822981,8.380317805
49.011093989340196,8.43607380265324,115.53438666512596,0.03424077093619318,0.009524932321307788,0.7349318366285511,-41.926264158388776,10.078722168182123,13.766164488588222,-0.3116092189754476,-0.09697273142652615,1.6135151896961442,0.5512215653586832,9.99651486499198,-0.4543518522511497,0.22922696365468048,9.24779812006198,-0.02320866838908709,-0.014872626241815453,-0.11215958402429733,0.021866232235755706,0.23462308132374518,-0.005481926850354819,2011-09-26 13:08:33.459804761,8.490299585
49.00994620921411,8.478429795854137,113.86507237611204,-0.34411996598547684,0.011494927290307873,-0.09046298311585049,-4.7553207411879095,29.582752623738255,9.456697760229375,0.05857729398487263,1.301296684514099,1.340194999125938,1.5006282059266116,9.626878221594449,0.3895636163753838,-1.7305330811566257,10.23050186565994,-0.01830039557001875,0.08101509079969024,-0.01552899142838394,0.021664714807211924,0.003859627896788052,-0.22325476355800347,2011-09-26 13:08:33.559804725,8.590299549
49.00686630153258,8.42438207477765,114.9842165784095,0.048276623671791453,-0.10883970404909041,0.468293137450849,17.089252850131025,5.245564392087502,18.589118516220342,0.020496800407533794,0.17495280363781113,-2.314015800598289,1.0398087999291605,9.13510795851324,9.052729991711287,0.3114855514628836,9.877841423218745,0.09308324725835988,0.01584822078238993,0.3852677745160238,-0.002229368745008606,-0.06746548924055999,0.38644732811267424,2011-09-26 13:08:33.659843956,8.690338780
49.01035113692445,8.439672946356545,114.02694772091682,0.03372315308370881,0.019394553950630406,0.6339812714758284,-13.39204600044021,13.394349307706413,4.867848328976223,0.6278987652084292,-0.0911681849797053,1.4205830866710825,-0.4792697396068941,10.06863358264494,2.402467254596565,0.20909467221601105,10.195551343146048,0.03478312881102022,0.0139649841395355,-0.10647275773960296,-0.029547390174293982,-0.01865554076320977,-0.15417642148842037,2011-09-26 13:08:33.769867319,8.800362143
49.00917040617236,8.4324397444411,115.06332283096982,0.10618208769437551,0.024578298017980116,2.2038062591591867,0.5101351036647368,9.664288927410597,6.022499840931482,0.4951196271056778,-0.12985750808052376,-3.8536468047458445,-4.498333858321506,8.775175050630567,-6.6183342407049155,-8.666701324736138,9.533315334100967,-0.006096710606086415,0.1001941019982525,-0.014769382351371547,-0.013766871059012076,0.009064916937927981,-0.38131307286186505,2011-09-26 13:08:33.869857978,8.900352802
49.00984947720581,8.441519489311961,114.36173854276494,0.07756107005974604,0.003418802222489978,1.2475606675540147,-43.01356362973007,6.875798219155297,16.656222916106977,0.18478216096991174,-0.12691876165039193,-2.4911408288370236,-7.167865770415067,9.371461361834033,-7.5981582798379215,2.6427317865533393,10.246602629889074,0.1417182278942403,-0.014866209367580749,0.14887299927820133,-0.02556386190108506,0.02771152810296671,0.5574236232644424,2011-09-26 13:08:33.969850605,9.000345429
49.010200552827,8.4364400748279,114.60348086945993,0.09595019934818047,0.0024259068804134126,11.056979994268048,-32.14061788528696,3.7071408376205905,17.565393685556405,-0.10222206279516222,-0.11176516250380397,1.0569176214943434,-6.946000896914752,9.702225902173875,-3.4016199527130664,-5.264804857893409,9.276328333694268,-0.011575832946922982,-0.07382532033769831,0.16982077038926024,-0.02565298027045389,0.0319143787776013,-0.2682803420757765,2011-09-26 13:08:34.079875512,9.110370336
49.00969798764264,8.440782260321251,115.08689511518561,0.20904343909465736,0.015537602976037889,-0.04626995972645012,16.415836828072027,38.610187505897414,11.070424113648103,0.03566909477012897,-0.11407293294784676,-23.108043845611338,-0.6419854392225527,9.908414294484762,8.331253839445731,-3.000012646231576,9.907260759297381,0.02270238952328016,-0.07743421891678824,-0.022730202218490602,0.09335042719450493,-0.07636972422243894,0.515503112854268,2011-09-26 13:08:34.179857906,9.210352730
49.01271688386345,8.444492838420636,113.61940652543471,0.07565357349594132,0.013718201817069686,-18.765923670556372,0.56245499885175,-35.77390089167913,14.398794143601446,0.02388121027731155,-0.0030768905330120083,-2.752161986468914,0.11045794191075986,9.527206614846387,4.423575524948072,-6.408175028399378,10.455775340378162,-0.18653881657840798,0.0027187854852844112,1.9551830997772426,0.0651272156372183,-0.055065023316007586,0.29170142244153796,2011-09-26 13:08:34.289906739,9.320401563
49.011466716188146,8.436774262693755,114.41493838563025,0.04979236176512312,-0.0071183138322827855,-2.392786074052281,-2.9297953226475393,-41.2369217792875,-3.0595651820830003,1.739200463419441,-0.11216534324718797,-0.06436620029262663,-1.0345357522764096,9.622536074565332,-1.67343689735205,-3.521938039228024,10.67907078632544,0.2784687272154359,0.02466950358922646,-0.044872839384900026,-0.012304800237584994,-0.009759973996618435,0.3453589002373037,2011-09-26 13:08:34.389842274,9.420337098
49.01046499284469,8.436335754414358,115.91241376018854,0.14545198039523027,-0.01772188184099665,0.789971161523736,4.696343684870046,29.874622052261206,26.072052574963557,1.6218944595149385,-0.10932505885040902,-2.341396970285724,0.07071058362183039,10.96956229574638,0.08810244545871981,-0.05654015017916181,9.545818737948098,0.023347484174692606,-0.027502508239027106,-2.246393377638459,-0.06762307551365095,-0.01936327494682092,-0.4572840061935319,2011-09-26 13:08:34.489878350,9.520373174
49.01088508757171,8.43378876812333,112.90569174918726,0.029563810399522474,0.014831435912542615,0.12071346945812367,-21.906946564130394,3.5182422783484837,78.40758998456764,-0.06740912883206046,-0.020741027454563136,-5.486707833630813,0.7111013678104539,10.547378060309171,2.3627302550299913,-1.8083036129167835,9.526677927550658,-0.08173642750573815,0.06738209380733817,-0.37662852754348536,-0.04885334017288703,-0.03162224225803768,-0.1921257542891052,2011-09-26 13:08:34.599907497,9.630402321
49.00893993009036,8.453377527654702,115.6103021855237,0.061137729177353606,-0.010107611397263074,-0.6660584997823455,4.50216970813691,-15.834912096534405,19.105229927388123,0.5220166305105766,0.006232383629244556,-1.8859305406290947,-0.8661496864328112,7.541570158855153,4.056221655636908,-0.7915279642223517,8.731734766987694,0.03657017568768012,0.07444311434493009,0.04305200432403822,-0.03404281142735659,0.018560761401352096,0.2325963635836864,2011-09-26 13:08:34.700042032,9.730536856
49.007938632482414,8.439396226617772,114.17171112760546,0.06064018379065745,0.005781995055196356,-1.4505009849685762,-4.455480884452228,90.34927739470271,29.856057897173564,0.44011409851531835,0.08088501247030158,2.9820560998048498,1.406970592211973,9.208900359692372,0.6205983200555925,-3.701996124151627,8.952721880974103,-0.02061538769012424,-0.1742655164794211,-0.31858256023134435,0.009619089222580104,0.05303881449309207,-0.9935939303785798,2011-09-26 13:08:34.799900841,9.830395665
49.01028359411171,8.436588642178462,115.65437407052596,-0.12524246459891025,0.0053960610758347,2.7762273826974497,-7.477058043965124,37.97833971020028,23.254687387854556,0.21372947640724935,-0.01466975701339792,-0.47903365959960065,-0.9516859631780007,9.855271477402866,3.064593419603217,0.048971040344167605,8.993720130075074,0.015936513844578518,0.02974429387613863,0.17185423777435094,0.020881682315531412,0.1525871923232545,-0.32323005317342496,2011-09-26 13:08:34.909920500,9.940415324
49.008938461373056,8.437638955806221,114.92912476616083,0.038706801511989554,0.06597610893974305,-6.3433569241982,16.556500574116647,-8.430864719455816,15.266393077833865,0.6022250051981441,-0.1377403067189627,1.3131042472231738,-1.4061193729205388,10.4038272024545,-4.51007423606549,0.6185454168175224,9.247974757647034,-0.01912420135109598,0.04928062394328483,-0.09302147106565495,0.04628703862387243,-0.04729726448522849,-0.6790997512693521,2011-09-26 13:08:35.009910526,10.040405350
49.00861876074681,8.449082381587372,114.3051634864556,0.0756179148194793,0.011462741271310271,2.0334639458654804,-19.22062938959872,-1.015707573079336,25.4580946968167,0.11025976389230639,0.11568279074885951,-1.9824109099577847,0.06571412459244874,9.30903402429731,1.2656990462653297,-1.6500994565044766,9.641717014687938,-0.022419348139640905,-0.05614115790999215,0.266696205559527,-0.039364311727376804,0.002315142660656796,-0.05774467720230774,2011-09-26 13:08:35.109899747,10.140394571
49.00697311355141,8.43961357347731,113.27510226426787,0.07054689388485375,0.01400697978557822,-0.9635707272461551,-15.808570731694083,2.3602222722640605,33.09320675051334,1.3561445065088584,-0.2826668946806839,-28.7392022483503,1.4537759642066939,9.471370970408792,-3.2379237273865127,0.7709191965979605,9.341124001797889,-0.009424805916398812,-0.1831862103449298,0.6161281264242442,-0.05750547344072755,0.021148303478227166,-2.6296989292973922,2011-09-26 13:08:35.220073934,10.250568758
49.009396870886036,8.437307194153894,105.26499921822443,0.06024362008495684,0.010200305249726566,-4.51606900181141,43.164409190207344,12.351457559356113,16.591115942182498,0.215409289850536,-0.23110519910964927,-1.003942807474897,-0.7184112716335411,10.429916324098578,0.3845314923494312,-1.5484961559575066,8.415684028357143,-0.3552089327770871,0.04219318792197167,0.1320009703033332,-0.03184984768342916,-0.021195401671063745,-0.4858139566982158,2011-09-26 13:08:35.319948450,10.350443274
49.010038264940405,8.440493297313896,114.37102417617382,0.06367467360878656,-0.07013660455603922,2.9961354774908706,11.02794989627884,15.595346136272276,21.993775593176096,0.10430346069742183,-0.12909496284030456,-2.346142005426772,3.2044549143007988,9.785548932639184,35.128482145935656,-2.177861594955806,9.61950223181199,-0.008094001426456457,-0.04104198320531379,-0.27537099959673955,0.029705119760272368,0.16629163219411208,-1.7061139857018668,2011-09-26 13:08:35.419895503,10.450390327
49.009373918976515,8.43753522288408,114.82620330851026,0.09257677775660189,0.01803316468621965,-1.2116820451648729,-24.2881484906142,4.398174407295059,15.30202794440001,-0.09157482948781834,-0.09842843195648779,1.4884819657144481,-2.3278524340845497,11.29036895046067,2.1926350824387333,3.3921366279573895,6.143364688078804,0.005767974586585879,0.03416645424506859,0.1265017635916266,-0.23793987179898798,-0.01747201464091639,0.2473416551344976,2011-09-26 13:08:35.529921120,10.560415944
49.00910094506182,8.437605834471613,113.70781716035778,0.05661594773076821,0.001628047143777827,-0.7512047929896617,-25.350146816506836,-5.063533029377375,33.27069514572427,0.16180543842836645,-0.09735294975380412,1.9616928095379234,0.49872489896640954,6.61948363443372,-1.2472353062921024,0.19927803446085024,9.595846804809637,-0.009458225186799136,-0.008225093862281105,-0.7187407046102585,0.008578741927955724,-0.3556685408016799,-0.5435065366037379,2011-09-26 13:08:35.629929612,10.660424436
49.00992693488118,8.438754067612257,115.21458551586187,-0.12580161852779898,0.054142578655584264,2.4221895867913905,-191.67628089373164,19.208930388868325,29.236282878467232,-2.221436696315396,0.05064998365523722,0.12836049690413442,0.575290251550045,9.699983977699866,-2.756888055263748,-3.2159725486711785,10.665876595087825,-0.05845524971687263,0.20222248096043247,1.0123530526523878,-0.011130684126695831,-0.016013082108461058,0.5765583234210424,2011-09-26 13:08:35.729936762,10.760431586
49.00826424905192,8.434160412747406,114.04311199161717,0.07586982480208343,0.008457642945646313,-2.6095761660753087,-0.6227797932470938,5.802637789671307,0.30819623532400264,0.6390118318701508,-0.24750805000440287,4.940118000543571,1.4406232143557516,10.056355027832167,-2.095292873108545,-0.8399080992625235,9.806234092608177,-0.03808332553088379,0.0018540909597298772,0.2140467711575163,0.020980758318593862,-0.2931446115211863,0.09881950275403911,2011-09-26 13:08:35.839949374,10.870444198
49.00709258208517,8.443300702156437,113.62288723870725,0.05758370888827299,0.011967298601650786,-16.32512197527359,-22.559170065095905,10.334510889481011,-4.116027149360923,-0.24168420354721823,0.19415231400493624,-1.6640214033306058,-0.012234321126746939,10.653329892105107,-2.3382611339466726,-0.488164932166441,10.612692593670712,-0.06520613368419417,-0.0403200426657821,0.27992262591291484,-0.0807577084518779,-0.029592217368188206,1.8276662298002906,2011-09-26 13:08:35.939908156,10.970402980
49.0035243977064,8.442646315408163,114.17318839873495,0.07775826146881853,0.01671818996635874,-6.130791939076469,4.418217091271298,-19.057377109617946,64.34777006122562,0.1807924008304279,0.5112981795720114,-5.135930286199634,-2.212073913505261,11.25127873418037,0.32746570706732714,-10.0945609721126,10.17801129792689,-0.03183037363200232,0.026568548932609456,0.10177933706455161,0.022864227952955646,0.0028383220622836846,0.38157130374085363,2011-09-26 13:08:36.039973117,11.070467941
49.01896217805743,8.442395600052382,114.56445360139801,0.12150873776295275,0.01161698411465293,-10.44406640726513,0.897416837257035,18.8499512601374,-10.66403709097508,0.30680964023297685,0.12306616219526353,1.2531393779388729,-0.5740896878300432,10.092599655550444,2.657526070535978,-11.219562612869066,9.48603030336655,-0.0395358935517309,0.023637581033127197,-0.3431754224290673,-0.22002567147126673,0.43596832818877707,0.40415595518111697,2011-09-26 13:08:36.149957574,11.180452398
49.00693676606213,8.440511116763767,114.05718268206203,-0.12071327586664332,0.008430152888117775,2.210517553917731,12.726142818286693,19.171246827878832,18.79132345548971,-0.37521683614054807,0.07388466128914223,-4.492441056796746,2.9570344976946847,9.378670522076401,-0.1535900984648168,-1.8500729301368586,9.325250948187781,-0.041905864612887034,-0.021450470887267082,2.3319386769234463,0.006534136778933938,-0.21916559343274641,0.1396430752497687,2011-09-26 13:08:36.250069811,11.280564635
49.00949755754521,8.435382705405713,116.62434405914473,0.11972135311464903,-0.00912197906791555,0.553235608078454,2.192791526919572,-28.42767589075089,15.022729889741282,-0.03991283284180913,-0.405508455465186,-4.175704619108747,10.480888075781703,10.15179135127424,-3.2538151523181673,-0.45497424667721204,10.523982409138116,-0.03611036487460403,-0.012656087150526083,0.361356187109853,0.010520673939590948,-0.03427481129528137,-0.06940472126561495,2011-09-26 13:08:36.350073610,11.380568434
49.0092655185152,8.440901122137792,110.72305431119999,0.04249685189958571,0.008938539266638373,0.6935733423474562,-15.313208896339827,12.659706890268808,-2.361426920130139,-2.365985215046361,-0.025208054837506752,-0.77319858142306,1.2644702536986676,9.61373761589965,5.264909692010226,-1.8875931591524517,9.571347561583536,0.022904192744341554,0.055254926645955264,-0.16356898134500414,-0.21205221400884064,0.04560566220404608,0.3185446036913154,2011-09-26 13:08:36.459997720,11.490492544
49.00783000504194,8.438869126343649,114.20756422134542,0.032370387987324646,0.004203623473229736,2.3439259985314096,-29.33710712688002,8.588761163285366,4.344830667964434,0.1251796692594955,0.039420513707519284,15.577270024739867,1.3404596336740235,10.073522744151333,-1.7394778795425618,-0.8316382862074541,10.096038542683262,0.029477061158291046,-0.03800953068441752,-0.19439961366732536,-0.04338218933415761,0.030853264602022458,0.40431081972144695,2011-09-26 13:08:36.559933429,11.590428253
49.01118734262531,8.426118542583092,114.0863812791056,0.005612055204688465,0.028045728084284228,-3.8523371400138515,12.39792475476113,17.43671480170859,12.834593646237058,0.3909598333222922,-0.18782885385244455,-3.12318176103187,1.0443890757017193,5.874077467033782,-3.811909800445722,2.289756967793289,8.416262490285678,0.04524914080027491,0.008758001893422242,-0.13633412130742345,-0.01229362680868952,-0.05510671884818661,-0.3793403281472905,2011-09-26 13:08:36.660025629,11.690520453
49.00839617678182,8.440900244827182,114.38132167460972,0.1091432460813313,0.0059172165305741145,4.428628763161388,-11.351940598390817,3.7708901919196665,0.7569987572222594,0.33681606846142065,-0.025258457895881773,-27.080916895958904,-1.8217409630153034,10.237849606630325,-2.239554836561117,0.6547681958138621,9.5116841915277,-0.012954065205361227,0.013140577997346489,0.43672510196536646,-0.21394854891149764,-0.11078119069779159,-0.5075663934405449,2011-09-26 13:08:36.770004895,11.800499719
49.009693966887056,8.442594620747935,115.72396191782045,0.05973495918945165,0.005661059343321799,14.679344887392553,-16.30538097111201,-3.196956242330838,11.111142978160983,-1.1358350988365955,-0.05435856048140906,-6.0173287131564,7.634509909073908,9.790942866112074,-2.8647075602571084,0.1679003972693301,11.221316095971888,-0.04877974694427707,0.10635157847406057,-0.3314546327948335,-0.03753425216471362,-0.005881722348707975,-0.04395712242465526,2011-09-26 13:08:36.869992373,11.900487197
49.01711499676105,8.438477413172285,116.92659805525929,0.07971334825537942,0.01761922347121052,-10.39927420173855,-7.686360181232826,9.024851983008782,33.35218368496122,-0.16782728079952597,-0.09935680058034607,1.8989075158474547,0.7447431150623605,10.790225414086043,-1.61129732824647,-0.14127371816133322,10.312627573467482,-0.010945165055878909,-0.0699557949061115,0.309041552087478,-0.004862035578311819,0.0216798877605699,0.10399894654947095,2011-09-26 13:08:36.979985111,12.010479935
49.00824441462906,8.438756522251733,117.66426114687414,0.06649974996177477,0.014055476797758263,2.808619202071282,16.43799566137997,-1.2836877164833886,-4.732464227920394,-0.6435574103906094,0.015524819389846935,21.910511246098018,-2.0932143055843735,9.371987459081012,0.296038875844983,0.36543098770595955,9.543332534706064,-0.059554799995451366,-0.04631271531290737,0.11195675306368971,0.01740356907869689,0.025219541891432155,-1.9111820001892903,2011-09-26 13:08:37.079990777,12.110485601
49.00803668677484,8.437806649935926,114.82570543675135,0.12901880617500788,0.012019284173138425,0.2648614499758332,2.407383201091715,10.475164605368919,-0.9901135658386337,0.09156443630066734,-0.0032996757088881515,-1.464065757723256,-2.271264436044053,9.310122410246882,-2.0158913535688425,0.3108204040485629,6.113609701469385,0.008094232598011458,-0.01862115159426313,-0.5220855375993482,-0.03322518401508172,0.030862287827682723,1.559839239703557,2011-09-26 13:08:37.180202130,12.210696954
49.009886498325564,8.413307232810455,115.40198480589443,0.04100422530323495,0.04127091952176763,0.6538243649932889,60.04068833943241,14.679941092795215,3.713668054491033,-0.27616275826227965,-0.08474441776245056,1.787795014670016,-0.2356616793568026,9.232524851531005,4.783446232772722,0.02535591481331903,9.506890538260667,0.07843109510678688,0.07370415833776332,0.11658620319566541,0.005224185409455219,0.052571720807033304,0.9939328227371114,2011-09-26 13:08:37.290073010,12.320567834
49.01157234566065,8.439578845561186,113.82275765337725,0.06205511487596024,0.011547922991782613,0.48778631509781645,-15.374436012625107,14.099344817896705,-41.79675834257154,0.05041105470018506,-0.027446335565228387,0.12131200516602958,-1.5543654505605151,8.882676951473039,-0.7293449502547649,1.6090514866742793,9.232493617025913,0.0030778336730120214,0.21358141859303653,0.09786395419592686,-0.004820160585178902,-0.020112835505278363,-0.0500259786114079,2011-09-26 13:08:37.389988671,12.420483495
