lat,lon,alt,roll,pitch,yaw,vn,ve,vf,vl,vu,ax,ay,az,af,al,au,wx,wy,wz,wf,wl,wu,timestamp,rel_time
49.00912055709601,8.443075058254221,114.87874482050324,0.07414695197401602,-0.01428935601036632,18.377372758912784,-17.499788041292117,14.888774668661924,16.049811339482513,-0.4165373799225362,0.1900138738308844,-3.304987227411674,-0.9963785168704401,10.169147793427598,0.183050075683877,-0.02980462139221482,10.069539895270506,0.08478713278018103,0.0470234738157846,-0.331961462397702,-0.005730198487222962,-0.06312954627391497,-0.6418619279995398,2011-09-26 13:08:24.969505176,0.000000000
49.00362189243819,8.441900984381192,113.27631870981688,0.11975986750582629,0.0009277593867521475,-0.8006875985772237,-87.34760286422495,-2.307281689061236,7.687261677928178,-0.00357400851346662,-0.07693913000238808,-2.508682440879646,0.0640782739047343,2.2360365713968697,-1.8197258878356137,7.0661622320838875,10.001952832228291,0.015429978766664394,-0.036536227096121664,-0.9443953464919617,-0.0781731485681132,0.4858131103340451,0.2447263431856489,2011-09-26 13:08:25.079500082,0.109994906
49.008584089863874,8.446272854000703,113.99681052105456,-0.00943471535984397,-0.021774111471361518,1.2254535355680045,-84.97605245052839,12.198710238380315,9.563755635801373,-0.021802064647483847,0.11031370588198725,-14.490338928796705,0.6872877023837819,9.584246581424937,-1.3205330976917433,-0.7734742779393674,4.8491453486877845,0.038125176602273436,-0.22923258414862346,1.421661844904887,-0.037058875649592975,0.04722609944503177,0.8690970565239245,2011-09-26 13:08:25.179548150,0.210042974
49.01032474565163,8.434596665316976,114.10506561026098,0.09674562154463719,0.016266447067582592,0.11123346541879187,-10.271251845533747,19.02080206584403,8.052201244926486,-0.07985560955739515,0.1429709028471339,-0.828641506576494,-0.7290937999539837,9.407615086287999,0.8187399750297207,0.9483091277540698,8.595309080671266,-0.022836126570121795,0.014145918562648688,0.3460433443219135,-0.045194936807326676,0.060569694304108176,0.10366918763121279,2011-09-26 13:08:25.279558666,0.310053490
49.00730644450453,8.43266653323895,113.60190201288705,-0.22338055686025332,-0.012926492301340426,-1.9630271181715435,5.401027086743127,-6.449051612855852,124.66001799927288,-0.1225178654976182,-0.10139529716172604,-24.77054157783308,-1.4412508136540145,10.429165917721239,1.2203231094168008,-1.3867282114513673,9.573041590509282,-0.1695002398797531,0.0622816933401728,0.18836524420079692,-0.06862016678125923,-0.1606608855610207,-0.031838443639615174,2011-09-26 13:08:25.389489568,0.419984392
49.00800958085795,8.434573485397726,115.15458740880824,0.014482627157806703,-0.00691949178808436,-1.3288941607408253,3.114063905830816,25.9818352727713,0.589655708034563,0.2753457292313021,0.0238239827479355,4.236731468063645,0.8417501109508395,9.053510685224856,0.0191860369681687,1.7064274909657975,9.484166370429852,0.12761577316174666,0.42573985791218083,1.2370502518626947,0.027056849320253408,-0.03556782498958199,0.1881723250046491,2011-09-26 13:08:25.489509979,0.520004803
49.01624332370869,8.43676319330735,113.89027547592495,0.032593091233403294,0.018326350540478344,-2.5232821856061687,-27.957895378014985,27.830727666184835,14.734649997181124,0.056310549490895825,-0.053100740222295856,1.2315688736914987,0.4562532955792424,9.385310386291389,0.883545051362965,9.372992445765238,10.086988193243071,0.012895074590130775,-0.11760668181567152,0.42748651478787675,0.01654477214476549,0.03679218242095759,-0.44126445336920134,2011-09-26 13:08:25.599582464,0.630077288
49.009172083284135,8.43741773532477,114.83809190046657,0.06346480751914751,0.015151604292398565,-4.698482391054299,-33.375709818589016,25.7453093086539,-21.55097030109673,-0.15211282132525183,-0.06012497983807595,1.7463572862888908,8.048478855776501,9.026266646268402,33.82332867611254,0.11401528111550142,10.69470004700107,-0.06090415775640025,-0.07638643624717924,-4.325990118604177,-0.09138278127443412,-0.04455158980294897,-0.11928660655851148,2011-09-26 13:08:25.699659193,0.730154017
49.01069746193313,8.432879867503887,111.08484658239304,0.08746524601778798,0.027200242241947198,-3.89994342780835,103.54385976707934,0.1266389577577307,9.13151164473553,0.1625029437472949,0.22414335733756013,-3.2870635758173226,-0.6994456023805361,10.230476776194292,3.156901415091283,-0.46929000361577344,9.756644343371855,0.015037186651193617,-0.08780319017828034,0.31455994574006324,0.015274398942877352,0.0011309294024056428,-0.27964123052428586,2011-09-26 13:08:25.799528739,0.830023563
49.00765705367318,8.438310473197904,114.22748842608058,-0.016920445315426483,-0.008375912774010758,0.1175459699929477,1.5456355449359975,5.409270408080735,-9.312573529146157,-0.07999036563243567,0.05218049406740357,0.16649551462548937,6.176810078911679,9.270901432404775,-0.45555033464448935,-0.5643949799696169,9.104478498344086,-0.001987997833606742,-0.01568308631593664,0.6443204721290771,-0.01961879543294802,0.20324800408196372,-0.2270977267858334,2011-09-26 13:08:25.909528505,0.940023329
49.008577141843,8.437970292889514,114.73205821259131,0.07838478934950574,0.01816770861270937,-0.4859857362002039,19.222815273879828,6.152992141143445,13.913996046219996,-0.0964716435687231,-0.12364926015201264,1.7379967743610014,0.6577372131324131,9.92347530895944,-0.7889086205802786,1.73818101478406,11.040820753621135,-0.028838408477767932,0.004146759275223375,-0.1207427997581863,-0.0035223580191132892,-0.07213875764187203,-0.12402937503485881,2011-09-26 13:08:26.009540007,1.040034831
49.01144015264026,8.4379623921718,115.30889150955413,0.2998286429475919,0.027472762695034354,6.953168763423241,0.9091509532139561,1.9469517742491096,1.6526728637938906,-0.2313315834678084,-0.19543722871832664,0.4146242879029484,0.018480358580134082,9.525638548040359,-0.9451751681717733,-0.4158345533268682,9.093758938699562,-0.018410120653950507,-0.05635657373532708,0.05454797957330169,0.017978442650010733,0.0352898061885958,0.009246320869545062,2011-09-26 13:08:26.109501990,1.139996814
49.012110241669184,8.436820757433205,113.96157788857579,0.06291514461201296,0.005843426606498325,2.0068688895021145,-15.410506963656923,-8.523616675456523,10.430997346528965,0.2732764542526417,-0.021595897384647882,3.80417322958518,3.241325156240065,6.795910232866068,2.4012987509344375,10.228942491817836,9.085259379614726,-0.05314235473437849,-0.0345890559305684,0.3108537557483216,0.011339872069578955,-0.02390172749466352,-0.287855116255782,2011-09-26 13:08:26.219644264,1.250139088
49.00700396033243,8.434586606571978,113.98403736129943,0.12293288356112078,0.008209727823901222,-1.8777439923832153,-10.016937452834588,16.290380545245018,27.483061484485177,0.8663965646475847,-0.9106697162230889,2.369942507873599,0.1576708095290153,9.952325961518765,-1.336965130254706,-0.8600566730223198,3.883241910305401,-0.02138493865809339,-0.4861496526038687,0.06325640221892134,-0.0068284728334847625,-0.01046589921823702,0.10317039179852706,2011-09-26 13:08:26.319575106,1.350069930
49.01051301684156,8.436800686451742,113.51920113160885,0.07844246137870539,0.001991256512160443,-3.0791015330784877,-22.187556430195816,-8.402432017175363,-54.86353968352425,0.1398306300052573,0.1061598821745395,1.2475742811313455,0.7010040687846274,10.523058226506109,2.3564176405566872,1.61785459275459,10.020386928411197,-0.10751822302231094,-0.004172918430186318,2.985389520628927,0.06729397170057684,-0.028796813473721816,-0.015683848002205864,2011-09-26 13:08:26.419554627,1.450049451
49.010803345437104,8.43842130680953,113.83023727697734,0.004959078069281628,0.00892132342657568,-1.8244083155100093,-1.6064929521655782,16.199218394946367,27.84759001665706,0.14317498562910752,0.20613088464618337,0.6514178070017855,9.07141157450789,11.84771579972172,1.6537839142775432,0.2796434382858945,9.61924017906214,-0.25059679552100905,0.0895009942144194,2.740795293510647,0.06939509241060973,0.12476027798045757,-0.893182412799126,2011-09-26 13:08:26.529544659,1.560039483
49.01003656641294,8.46736105624151,113.86088586195547,0.08685553549885695,-0.00997722506292186,-14.804495519470569,9.026691681778567,12.117323047751984,104.90955133337354,0.18402151462764943,-0.12145287459776885,0.7986176176352062,0.3295193734536338,9.728407514893012,-3.2783439293929857,0.344221242733679,8.012603429530206,0.021506384838051867,-0.0009567772061227038,0.13308920215937278,0.012297292930253553,0.03106826235669143,-0.27463230249851683,2011-09-26 13:08:26.629560981,1.660055805
49.00768100070787,8.433450494882873,115.68264181171138,0.01151109926820941,0.008646824848953141,0.03922758417583655,45.86261042765754,-36.66025400847545,13.83017057681473,-0.2419114831731358,-0.11149629610201228,-4.2983622959127565,-0.6163443029114836,8.638854535115248,-1.275852571794858,-1.249139990369414,9.694620406936558,-0.02475766616569889,0.06542325666094329,0.08524185066323947,-0.01325987422087865,-0.02028362843359323,-0.395396558328968,2011-09-26 13:08:26.729578420,1.760073244
49.009349569142884,8.439244201434759,114.84299375430244,0.08958705842013168,0.0377849756546606,0.9317658019936823,10.186504548710287,-13.273593424971722,-6.423006535065301,0.3165834043371504,-0.8785044290076742,19.00488677618072,-0.9744015336783077,9.923042792751394,-2.4236215276473216,-1.0922687701019957,10.87645343271855,-0.060409188193433334,-0.04418379024445448,-0.5312331676236309,-0.03994363447390436,-0.045430070299485176,-0.7045348213331387,2011-09-26 13:08:26.839570600,1.870065424
49.00935614789537,8.42801464789817,116.39406258615213,0.09481523617815739,0.025666469387877255,1.0708864978131571,0.5337605425776695,6.61632094100497,23.03636965501767,-0.21066107934426387,0.008799252556751319,-2.81062576032529,-0.07296224580532379,9.79407429363426,1.1890886392798774,-0.5957984468339736,9.2900302771584,-0.010533872078339033,-0.026317695601517394,-0.7499715741698786,-0.018219879079214796,0.030254319461053173,2.367645547243421,2011-09-26 13:08:26.939565443,1.970060267
49.00872679172893,8.432987500425213,108.14379979542629,0.08393118504389845,-0.009025343270416326,0.48082561984287653,-7.530874919477952,16.290582224778746,9.083765282935685,0.03863957479816614,-0.23432043063330849,17.816338254262558,0.4198483766673706,9.709707196350568,-2.629347639801546,3.937976545187558,9.702173746928942,0.03836256617560317,-0.005104531631813675,-0.7806160631117782,-0.06504592117005857,-0.05181851669213698,-0.17773973935716902,2011-09-26 13:08:27.039596881,2.070091705
49.00111223807702,8.437925982945046,114.51923350919155,0.16525461289773224,0.002569322886208306,1.8211043802071383,-154.26672124264053,15.502958119124369,38.149564019810214,-0.5156176255085401,-0.10002716882622065,1.4728419503362842,3.2669318044493805,12.744641966950383,-2.414343506776331,-0.75434388967957,10.055612028209254,-0.08762951844562461,-0.011421429809293131,-0.3273583976390367,0.1201266345133339,0.07733213365529017,0.004296592294788662,2011-09-26 13:08:27.149571467,2.180066291
49.00663853721306,8.443125653701308,114.05722334050593,0.001287320059937959,0.016460364977487447,-1.1947666579716407,-5.16641826505227,10.020696535010899,32.22449590471253,0.09454327466877373,-0.19306728756816138,1.8906194945775714,-8.16460377040718,9.104310606624129,-2.154982396758825,0.33447901184837425,9.270985351950047,-0.04195324972113895,0.05311629650546859,-0.08455980128844555,-0.09066439964696124,0.0048749553979915115,-1.982953855466842,2011-09-26 13:08:27.249578975,2.280073799
49.01041100157118,8.437419495652136,114.69254631245772,0.003136035942419284,0.036856600932525005,-3.6885639739037903,14.990323964757106,16.51780387017737,3.9029998356294877,-0.26142369902162776,-0.13409551868063382,-2.0777464698108,1.2878514004520039,9.42958297576533,-2.4095364995273525,-1.9651867950159423,9.729620443835662,-0.10527655853757605,-0.06092856654414157,0.12680039068505958,-0.0012562085802744621,-0.031152790376499418,0.2597288720812794,2011-09-26 13:08:27.349607184,2.380102008
49.00670563689062,8.43666604671925,114.12726138869785,0.02580373053596524,0.03144928943798674,0.1725136532631223,-113.92901640039952,16.64189850575922,2.971677396433421,0.13738175668352165,0.28096655125831277,3.287105402718841,-1.223372436838936,10.137359472827697,-1.9692906742654608,-6.084828030590845,9.339089569758027,-0.0018050940973816376,-0.06294031081910337,2.6301926906912096,-0.027399437413940297,-0.07469339013341722,-0.23134521330051602,2011-09-26 13:08:27.459559770,2.490054594
49.00234623085063,8.439222546282698,116.02714343805046,-0.01659865322401901,0.009854286573952594,-1.1886432731378351,23.311063644331767,-8.598707764772431,22.0340267621621,-0.016391636466738954,-0.26515331913887197,7.155372413953394,0.9368508223387046,11.014902811174764,1.7823423180205722,-1.100185063732678,9.52450949948604,-0.17287494143223908,0.051148183004592535,0.12156528268906051,0.021011099806966468,0.4960032744410028,-0.4594595855667675,2011-09-26 13:08:27.559577286,2.590072110
49.00737454028933,8.437483553489225,114.3786202750941,0.020946236027285167,0.005348092636901639,0.7880824789949838,-6.964715104369608,-15.50819216226552,-3.3430442626743844,-0.10847006291310941,-0.14142367723692928,-1.0911758876784687,1.7850016143469571,4.947555641807326,0.100818281797115,-1.3395640398983193,9.920456814091363,-0.005310855609772083,-0.032642353287896116,0.39988123911155,-0.01254530139028526,0.30111838662574386,-0.0579353796031696,2011-09-26 13:08:27.659582432,2.690077256
49.00789575502482,8.448098786910895,114.54437170981403,0.04426569711309289,0.006180732802613763,-1.015336299180023,1.2705340937869192,5.520512308333689,12.36702759804685,-0.5128880775297571,-0.3147711738622718,-22.10376529452089,-1.1474427833857472,10.832429309077312,9.904945665768459,-3.1695875436167302,9.829314688314858,-0.04303450203901374,-0.006379866152895491,-0.0020586032527988418,0.11918817149383795,0.17466706276438604,0.19256535114193607,2011-09-26 13:08:27.769687986,2.800182810
49.008230318651854,8.440636382265664,114.60413228088912,0.008445627565641926,-0.0033489396068022183,0.8709404265729348,13.003918190351081,15.74196870504419,-5.693484810931704,0.05973590264888806,-0.018878756229353436,2.916053840517336,1.4840435486428105,11.348642402754987,-1.3989408986597347,0.44337189327314375,10.456406321603867,-0.04708786995546998,0.013375479494605332,0.0015251328262938756,-0.1301147243241889,-0.04771539959789858,3.2480618424475343,2011-09-26 13:08:27.869619886,2.900114710
49.008534833797285,8.433638951081223,113.7594233424771,0.0533001055962476,0.008690294216290022,-0.8534008369966574,84.22126385494191,7.587668686048545,16.80096538126424,-0.004938809227052546,-0.07711829112739903,0.8821920261296406,0.9725709480203648,9.646744736403413,2.806968414218717,0.2564479977239193,10.39114536375034,-0.10332915460267522,-0.10000762287072636,-0.03979588896262526,0.3485019997886157,0.015535681889490451,0.5651969486833627,2011-09-26 13:08:27.969608711,3.000103535
49.00867430790156,8.441911957388482,114.74925651703786,0.003927897676430862,-0.011058693241911069,1.0541036135837922,52.81413765756416,8.35135029855204,-28.95261876212329,0.05775833595374901,0.10371823331780124,-1.4894033890602274,-15.079300504608833,8.78528451041132,2.3988381462664,0.2559581032924116,9.827293239098479,0.005304115185612947,-0.034441241862789414,0.2511521090804956,-0.04318890435712228,-0.01866028634798919,-3.665086182909444,2011-09-26 13:08:28.079637615,3.110132439
49.01086024868423,8.427259046980708,115.18770235361207,0.06448836155468665,0.009224882511315799,-16.517129173762182,25.714405952410505,9.621522715865547,31.884878020287324,-0.03690686887358219,-0.4985880810447221,0.5833817352826645,1.3970453868330002,9.898681946332847,-3.1777622168220647,-0.12726257033211708,9.756666168355927,0.06104892297650841,0.007198645853593421,0.14482601056050898,-0.011877091511677852,0.022442281898243596,0.6773834125231728,2011-09-26 13:08:28.179826915,3.210321739
49.0077698811462,8.433405795879112,114.67086774891713,0.07070100204152223,0.011455957796396177,0.6270906813445365,-15.916415903638187,-9.057292491092179,-0.9337086454870374,0.5452450586819136,-0.1598202840992396,11.82184732027447,2.7999468354554575,6.961007497533594,-2.250719849230071,-6.597770734407284,9.516721670607303,0.003591595306705277,0.022222887094444716,0.11152229397266411,0.0028068346918973027,-0.16002113207509788,0.08442666563499435,2011-09-26 13:08:28.289665346,3.320160170
49.01129312321666,8.435956741455819,115.42556827705218,0.043170004795088444,0.02773986395200321,0.3761141920426701,-4.132361716739249,18.71467998330326,0.9716188244695161,0.7004581172436215,-0.006388888887614658,-13.98453709506432,-1.5850796918723375,10.679789265285418,2.9449984200586856,-0.4106458630780325,9.750501587044592,0.050785771734441335,0.016445574894029372,0.39026973567005835,-0.07657453426948059,-0.0840682905913213,0.16609507573315999,2011-09-26 13:08:28.389589105,3.420083929
49.0001811566784,8.434029144399144,114.87232212966293,0.13795403795895386,0.02792240271290427,-1.847756585430063,-7.454412697317287,120.2402295710246,-7.162995874498744,0.3855777718541131,-0.07467516074057529,1.3761065856429429,0.43013751075776646,9.885977064631772,0.8302728092120302,0.21617750746138037,10.04110765830359,-0.02216980234300154,0.04044897230921404,0.08569194396131077,0.02777207582123437,-0.08179555519209912,1.2597955640728042,2011-09-26 13:08:28.489682778,3.520177602
49.010313412309,8.453539967806197,110.49459666902966,0.031012139837461462,0.04386773847278777,1.3270567530164512,-15.510260699521188,-1.0418398553303287,18.452005519783075,0.7506121170640642,-0.038656591729695704,-0.4680527348045078,-0.8703118084073355,11.044780325540929,2.2227647083482664,15.64362412165198,10.030313076264322,0.009733782254261582,0.03487380059099631,-0.286591389198651,0.030920227940299104,0.024566154330030527,-0.035662951290852,2011-09-26 13:08:28.599653315,3.630148139
49.0116915187861,8.438916374922101,114.22787195087888,0.06648460811275927,0.0182652503279783,1.2024847443909332,-5.588352913369949,-0.19597122285855484,27.760860723866173,0.24551955685826427,-0.026364021258258777,-9.354314399639085,-0.01371046715463381,9.817111961101052,0.13154303452849742,-1.149424058506277,10.782600779575104,-0.03213973277078586,-0.04259185928426658,-0.23129013548769856,0.18270227145002194,0.014145706234908517,-0.4260579884935504,2011-09-26 13:08:28.699890211,3.730385035
49.010189770862056,8.436999099282023,114.33622790093914,0.0905299870105036,-0.004287173969095391,-16.626932458671323,-16.59841203166338,17.650592127955868,8.982911724137166,0.09998227758662281,-0.0778673952769047,-8.15989245682522,0.7866854328466762,9.897396240409963,-1.4492789990282928,0.6177461264114019,9.61200240229002,-0.06027864327339776,-0.06385459856172523,0.31197376143360944,-0.04010124532546324,0.22140494500317992,-0.14531087073754093,2011-09-26 13:08:28.799648576,3.830143400
49.00888730553951,8.4379851188578,114.34389320966204,0.014923236946842871,-0.03706628994021646,3.1040607229376875,0.638388222740772,8.222512558805517,29.367237765164862,0.06375847229931687,-0.05602667823443564,9.849265688953928,0.4884681480782893,8.501209651522554,-1.2577416249749631,0.5385360419931856,9.393127932924756,-0.051550207065932836,0.07609456350503242,-0.32992550084571337,-0.041784488544543766,-0.049128421407407655,-0.5978714516346129,2011-09-26 13:08:28.909669960,3.940164784
49.00881710874258,8.43466878789266,114.20223533845127,-0.15416120661308047,0.01651061651822995,-1.1830434352649308,-20.266599458104707,-33.368366767703534,15.92017823384045,0.07467916177464545,-0.1866337989977756,-4.650571642621022,8.761756289480845,9.162520408972707,-0.40808927463416506,0.3928785474448427,9.360112052874106,-0.051902157685075195,-0.08301434330792233,-0.8411513063550105,0.14593621133295717,-0.019800708629539962,-0.027620381952015133,2011-09-26 13:08:29.009645361,4.040140185
49.008644734991535,8.412660849086834,114.80604356210992,-0.027806237981765014,-0.007446538621354562,2.6620368882273144,29.06615164908709,17.14311532031177,-3.970830085224023,0.5931633704846364,-0.22609568461730156,1.4661870888321529,1.3114262846302533,11.43568018678818,-5.346033973483655,-2.194618836701094,9.076927404306584,0.024832269192507944,0.04258682396295094,-0.13639465387746433,0.05146178341361911,0.04016369440343387,2.5351546883002953,2011-09-26 13:08:29.109658299,4.140153123
49.009989359239924,8.440045186565566,114.75515365250047,0.07919144636612303,0.01017134796518264,-0.751112412598405,-42.34258064863265,19.57452498313834,17.96161765061221,0.10276679548412147,0.13532977328939472,1.365330433676242,-1.3042001231320028,9.02575397205495,1.2812060691815084,0.7185089417206387,9.144775827815565,0.07943773163501862,-0.015618768608052551,-0.41287129977607645,0.32409350165191514,0.031192302293277463,-1.9288658514347579,2011-09-26 13:08:29.219797292,4.250292116
49.009988592112045,8.438842140069841,113.81726500503625,0.0662972109268112,0.02564437012633102,-16.330769347295558,-37.37855051535373,17.829737771705723,2.214372465400638,-0.6641429909907117,-0.12347632830355858,-2.2832656956711856,-0.5526104155949795,10.359542245702633,0.5808537410383556,-1.396397583667233,9.64156732347979,-0.031952895974665635,0.053475539885679775,0.13512760875148194,-0.046452302363514344,0.0033298104320423592,0.0003053221174542618,2011-09-26 13:08:29.319722497,4.350217321
49.00932506557279,8.436345700483972,113.3751084397484,0.02231985457370633,-0.007543365532894206,-0.8785491872022175,13.070504287216782,-12.950263248607039,14.658821038265355,0.307821984912228,-0.2509358062204704,8.143536767701187,1.446317673051119,10.033731901503657,5.72205532599784,-1.3245874078695183,13.434207001564744,0.04617683508555159,-0.0031544321100664538,-1.6684588352695857,-0.04700393631299868,-0.07895443523558315,-0.8938515387879225,2011-09-26 13:08:29.419669975,4.450164799
49.00944687312302,8.436806297462262,114.04388512968775,0.24514009316755747,0.0040074032633767185,1.6268627591827505,12.964006830414448,30.211793273334578,-6.298137762553898,0.21272909478720087,-0.07914669148717102,3.8376747285268586,1.5976006701694094,10.605674382749143,-0.4847488602683424,-1.9912975201277971,3.9849122343931223,0.07854823600444523,-0.11623809871135955,0.6474102668303338,0.018036975751747772,0.09514935383652852,3.67790260910677,2011-09-26 13:08:29.529674761,4.560169585
49.00697082273684,8.437697194097751,114.84120764244875,0.043844680160960346,-0.0010390035002805203,-2.6863231464366715,-13.855177907319696,20.968689496015095,16.238543253150567,0.3681824091703871,-0.11016489472715957,-1.72020078131283,1.820569368642714,9.589282904634375,0.1957882406342618,-0.7946396603739794,9.819127945798545,0.09928567029775001,-0.03241881899695569,0.10370291512751476,-0.028398863306832584,0.3359070215698859,-0.5682286104793174,2011-09-26 13:08:29.629695643,4.660190467
49.01601255686615,8.416982665232252,114.37549716667067,0.23147624776708176,0.011704426776224184,-3.3822724652274347,-0.5628910565255141,5.924392374008673,8.418547975680976,0.037473983570042446,-0.20905111529073991,0.6642159505922884,1.4417649880854175,10.035117450662844,4.317066136962959,8.121219661410601,9.586585722936823,0.019464014472017344,0.39837289880839366,0.21880834737847774,0.09708465573494235,0.07677073380813841,0.3684384076397934,2011-09-26 13:08:29.729713462,4.760208286
49.00865957711185,8.434198695673352,111.26037867805276,0.06370826123923941,0.001893872154678405,-2.330209541663903,52.538885793436144,14.351133287680215,21.53093510560967,0.46672502396702886,-0.4751808090986695,-1.1022557111923597,-1.8445149740080484,5.091053611808533,-0.29074729330312055,1.7499850329538909,10.056607706164169,0.014690548337249296,0.06829336641662048,-0.2121760289284125,0.036547279924576286,-0.05659412015789891,0.39276691946259795,2011-09-26 13:08:29.839734067,4.870228891
49.0097029208374,8.436779630611918,113.65051701219022,0.11447498440260369,0.020539212114423097,-0.48933819638729337,-6.727823546853322,27.582188896076225,5.280343563780143,0.13420472034827044,-0.23849524013728457,-2.588880335042155,-0.5933406988000024,10.669677085187335,0.7374693839298214,-0.25315529418281973,9.208294929832245,0.086792911962417,0.030922757685319897,-0.0017064885184101958,-0.010592557356233774,0.013360256015018772,0.014098087300137122,2011-09-26 13:08:29.939674898,4.970169722
49.00692968363669,8.44236382669338,114.22610280080863,0.0722174282917925,0.033141014104610955,-0.2996081022653248,-17.80699757358132,38.925551463232836,6.984359970042566,0.29839841477568124,-0.3393428092125161,0.28148196495934386,0.17511356470716122,9.268002774946241,1.624932101060559,-1.4631916261315718,10.403488422926124,0.2934633699421294,-0.2967035281659231,-0.006124425653876074,0.017897628742554697,-0.09461133771193254,-0.5187020489186147,2011-09-26 13:08:30.039737111,5.070231935
49.008485116637445,8.436338088228116,115.46399381349049,0.019000622066049626,-0.0010468277496939473,0.22839389530155435,-25.675955950185863,5.99636404582009,35.536606071066416,0.38225319458001855,0.07472673385225231,-0.742918197480081,1.8082085221306756,5.056021596096286,-1.216959874268549,-0.8957042557589303,10.19816317600476,-0.04469484068191709,-0.08222893815094987,-2.851890739089172,0.033277158828591606,-0.0446460338275583,-0.10579240000685468,2011-09-26 13:08:30.149705771,5.180200595
49.00656357540225,8.433149262584255,112.82750506953987,0.07441645886116108,-0.020153223973769632,-1.7974893415536894,-36.51414887432271,29.887603665169955,-3.507245244795275,0.350798485704818,0.05713452356175447,2.458564891111595,2.187545664403852,9.479027272414147,6.450028138371034,1.053732146151824,14.505702932699911,-0.3747777745684644,0.0715874363783984,0.03627170059214215,-0.007610553465239292,-0.23122016813403512,0.06802696393257873,2011-09-26 13:08:30.249704622,5.280199446
48.995083399391866,8.440286565186815,114.28951821133256,0.16016630626863593,0.04926631608280726,-2.8336618060452077,-19.468997427944544,4.487908252181291,53.09943468450255,0.336210476892919,0.11656034556709428,-0.5660863290543767,-0.6260425101535745,9.704421407829878,13.417304282672745,-0.2329226650929293,10.127192553565521,-0.006353873998773646,-0.03511523180294334,0.08959355913846442,-0.011316074589443371,-0.006217610297125704,-0.1017855646258232,2011-09-26 13:08:30.349716446,5.380211270
49.00780404164009,8.441170433284782,114.2679952730344,0.08540946528667365,-0.0634565544253449,3.7712428291799864,-1.0802921485510457,19.71193062725892,20.18642358595779,0.31480278175319804,0.011898705763201664,-2.680528253767844,-1.0345846184774616,9.728653635847126,15.190789965932577,1.2904315917395466,9.62579561612701,0.0540215066373538,-0.09751414125486474,-0.09205205499570783,-0.013966042519221747,-0.05584290580973748,0.1321747073057666,2011-09-26 13:08:30.459701702,5.490196526
49.010779060754864,8.434495369699956,114.64511829126413,0.03939479720056481,-0.1034740901743489,3.1361349120414226,-3.436856964808272,-34.428169408572714,22.02565240436873,0.2391182569329009,0.10459764103076469,1.3254673360482212,1.1073505236869121,9.31039637217905,-2.076286008649686,0.8802700516098655,9.741982191694332,-0.010413094085678512,-0.0553566436082333,0.12999106698816015,0.19474782941429958,-0.040887467112064854,-0.046786745928727426,2011-09-26 13:08:30.559711102,5.590205926
49.01128025908935,8.439117567886054,114.48684700971795,0.09533490141532242,0.00044241377016395345,-1.9959889660364045,19.784593251901867,14.707516239086805,14.434101496155375,0.10371013514509908,0.0352240224436813,0.3852054742511088,-12.386587991996267,10.048386016498387,0.6003184991640587,1.0315280723223217,10.26187230983564,0.2236904960843532,-0.03076659506756973,-0.059655651084091224,0.0478121781107687,0.07943823700453893,-0.15339540410668365,2011-09-26 13:08:30.669824158,5.700318982
49.00665462559337,8.433786421778867,114.40841125449104,0.03237760751028557,-0.03851928523744634,1.1833325222663396,-28.533506440344585,20.701163140355987,13.842324615356144,-0.21005258197844348,-0.03919112272431391,0.9290739096088076,-3.095721735645424,10.622343335727326,-6.724556464597751,0.4709415787909382,10.67946822625088,-0.03584127186414167,-0.02667285058882793,-1.81064138856346,-0.3024069235619038,-0.06064426157086908,0.3797983479206049,2011-09-26 13:08:30.769841203,5.800336027
49.00987322551179,8.437500877501506,114.6993386150131,-0.01673622319006013,0.006418947493241142,-1.1343953789009347,14.944268571731504,28.673600912275006,13.071331406788618,0.21288272776477707,-0.05939153273675998,11.094875944455925,-5.524841357820112,8.16208926651546,2.4981279124385054,-1.33009213886226,10.184359375942632,-0.00953813011669051,0.03396643225823656,0.0007388589475221374,0.015554581438413737,0.07952958059816993,0.8345138968859972,2011-09-26 13:08:30.869692259,5.900187083
49.0076302334507,8.448453247423254,113.433742476967,0.010960293401595607,-0.001216224027229004,1.8782138209623478,-2.0514570550591413,-2.00380689048761,113.52080773440652,0.28621893024669975,-0.04647103065951261,-2.5552771456751118,6.2419557551027065,5.440290528047862,12.333353704939784,0.17273293210104992,11.268781560228845,0.404471274015388,-0.27051626518846733,0.17693990353679867,-0.01975010007962303,0.03280007617808071,-0.8265389397829129,2011-09-26 13:08:30.969721589,6.000216413
49.006950658688915,8.442706450095512,109.31407576375263,0.1274683482189564,0.011652808146373948,1.1762810465035087,-17.784911825192438,12.848264266187456,-8.610892349178439,0.19084745340943998,0.08870151799962048,4.059428370177288,-1.8360405199918084,10.060036609985323,-15.47942825863318,2.468891803054388,10.012347914281843,-0.07593907682705554,-0.03412197568540669,-0.2471187179514202,-0.05462060580344197,-0.0474078642312215,0.3991625686023334,2011-09-26 13:08:31.079751529,6.110246353
49.00910091612869,8.441301527710976,113.34242177224391,0.08425247328173965,-0.009953529590428981,-2.6853457058159504,144.50449903245465,-0.3450023359120955,2.5083398940702963,0.6789138240262844,0.1987414923793341,3.1169352682531777,3.1202612885327454,9.276353412518736,-2.9309192539773,10.097809213309933,10.614042192164645,0.04781780062235481,-0.02223423272491939,-0.20358836274719433,-0.010353094799386762,0.111902076115822,-0.028271768753225825,2011-09-26 13:08:31.179942239,6.210437063
49.01139401004753,8.437058397919246,114.57546024699774,0.1679394278042026,0.03928166004702854,-0.5221474449173009,54.363445314614296,2.308287999203893,-14.599149931421357,1.3254391230065892,0.20759849069483688,1.1345753710015964,1.0324274245388692,9.882059478628271,-2.1948127273251914,4.336388751229578,15.032050429244475,-0.0630666739175743,-0.060171390685485535,-0.14941574324271475,0.19016472871168114,0.01823713777336944,-0.2291895669728799,2011-09-26 13:08:31.279800507,6.310295331
49.00774191619828,8.434029667769813,114.54756510991898,0.09944450106538849,0.015174932204558178,-6.582212538043063,32.810557851620935,32.384018627200014,-0.07694763199751442,0.08091518914868633,0.8437592837705111,-0.27330336628025353,0.13862563714532605,9.362284294732136,0.6484334158903106,14.760574053104587,8.969615582787695,-0.07786825091785095,0.023082753826310063,-0.0826975570505438,-0.07886528955963397,-0.025477340946235848,0.22113237477006858,2011-09-26 13:08:31.389789958,6.420284782
49.02107588062018,8.440216707231144,113.56441974743805,0.04945922504209835,0.005460514197914729,-1.3045848340489579,83.45393583247419,-10.050669274430645,14.888679384364735,0.03646937675942602,-0.214845465999414,0.6832656678401168,-2.645691200757347,10.093824078474944,-0.6377751350053377,1.6796629984011204,8.138919934166825,-0.010091394443585002,0.12106547170772641,-0.44943023893788986,-0.05553200199426998,0.01533503435051492,-0.20773714267132434,2011-09-26 13:08:31.489754996,6.520249820
49.00999409361978,8.438793492236965,114.24566759723452,0.04893123821240477,0.00804605105504292,-10.14430298054607,-120.70721140610603,9.351756194940846,18.05323262312585,0.015431106712427645,-0.29003458965771856,-2.014757263260184,7.919188522371071,3.8001210452974927,3.363328282915697,2.1804461775083936,10.218474984162514,-0.0547575009027126,-0.08812789797869207,-0.248815138606466,0.008170017912323944,0.01968549060150427,-0.13417831745905978,2011-09-26 13:08:31.589753322,6.620248146
49.00865404469102,8.436523348883727,114.37117763251314,0.07971730064055994,0.014831811311781542,1.6060964132319047,-105.6147322478568,19.706758957630797,3.2149644237181203,-1.1050612908008126,0.17265783117415717,-6.658063706443675,0.7156898707682392,9.478582122663749,-0.6713116179395064,5.711148307497924,9.982510186093817,-0.03678083646267965,0.05710164765655135,0.8237832876330473,-0.010399482605613367,-0.008984473460460614,-0.2081818641949121,2011-09-26 13:08:31.700053025,6.730547849
49.0087388338905,8.43977652845786,114.03445988681601,-0.035248826681249915,0.019353910463033877,-12.921207967907844,-6.13163172685686,12.244355672400275,11.576597929434621,0.33534706639569933,-0.23994868990498747,15.833299506973649,-0.17834529379953779,9.739231137308021,2.081191311697121,-6.523594086789077,3.9183178007569293,0.042264673219877785,0.3698389099167791,-0.19080498852259498,-0.08075181651846074,-0.13760052225864147,0.09491840233244683,2011-09-26 13:08:31.799791743,6.830286567
49.00979900008105,8.441188641646448,115.43468224807205,0.10432928412278877,0.00696568551363903,-3.6616800382014603,-2.737774147942205,18.566814742760002,3.6108572076398193,0.31327244484518324,-0.1038506261387421,1.9829004016464467,2.187017887160806,10.33875357465477,0.12953207272122785,-1.5676655409769054,10.96392648630074,-0.02380714795258283,0.0034230354911867263,-0.20834720516129468,0.07768810203156179,0.08064682087662683,1.1676479741914303,2011-09-26 13:08:31.899777947,6.930272771
49.012833535673316,8.415006336266117,115.23260319283001,0.11976305059062153,-0.00875370988745106,-2.7758739308144804,7.155049806145174,8.53414682494168,16.850838870480164,-0.001452141674629065,0.08139421455850451,5.12101335663572,-0.1747920920198779,9.9632557963358,16.70785439298312,0.346088936646581,10.927066397953297,0.06164055624322824,-0.08221827642609586,0.2690008364157465,-0.008359584971371542,0.05068393471682761,-0.5130366949272608,2011-09-26 13:08:32.009790796,7.040285620
49.008977387888756,8.466616695294022,114.46479976024222,0.04201720726291063,-0.005905819435347425,-2.8656345990808747,-10.93968601395788,-6.247371043334249,-2.7220979401691547,0.543942699527042,-0.3638181196529468,0.6013607024935994,0.24896984425579394,11.663934956737759,3.0123337825248977,1.4727694405702723,9.7002082966711,0.042160802331359,0.05852996801298261,-0.3721798613752797,0.04482958425854747,0.012001144471525374,0.4628183636196532,2011-09-26 13:08:32.109789775,7.140284599
49.0078661906319,8.43799525798764,114.20938493837961,0.06545947492090326,0.006899361021128807,1.164389098850687,3.091639608034654,61.29331861180431,15.83338733590857,-0.07578540580659471,-0.20503628198250592,-0.8915906090981353,-0.37734613816981954,9.573266010879287,11.370726608863409,-1.4409928777225738,9.773376269591356,0.019722113743980196,-0.04625097227233517,0.23071137059933605,-0.0008834372369788655,-0.0014115491788355555,0.032701915758909704,2011-09-26 13:08:32.210031079,7.240525903
49.01467482386873,8.439394673593643,114.49318806508087,0.0468768541495827,0.011558801639032085,-16.98591341850748,3.001803934588636,-5.060293224163345,8.821657512250159,-0.08607388141008285,0.06861313588177625,0.8622642138216378,0.5257327031476665,9.386143284829535,0.14995696631988592,-3.136282257583117,10.068252671297062,-0.06374549316616195,-0.031346134374576826,0.09991892162034038,0.0036230040044314136,0.08362646977597796,0.3269966363645537,2011-09-26 13:08:32.319868406,7.350363230
48.998506524248086,8.433397905730635,114.63330791639319,0.042045452763315415,0.0028800002571609242,0.012634496419368535,-6.679417401535055,18.911575741015902,9.130295637320954,0.07871831022157569,-0.11230811070712973,0.7677807629733839,1.5044321575319202,9.814462286484451,-0.5953024923481754,-0.14274105558087322,10.506140762401616,0.003588197480849711,0.04815434571110318,1.189177179209093,0.012550139590413591,-0.06804520480132141,-0.13371075094216744,2011-09-26 13:08:32.419814584,7.450309408
49.00753623878772,8.435050403298932,114.70215017082329,0.0710695193625508,0.0158634356939115,-1.6675416768340425,15.607858395804524,14.08076271393375,-6.378034237687309,0.249152356512941,0.09222591274115713,-2.280204870829782,-11.225991051501635,9.814026833903071,4.090439383229843,-0.4240917471401829,9.08172691945441,-0.04199395013116491,-0.023602003700640663,0.12465198936930916,0.0021503975167486717,-0.022066458698468912,-0.42662986642081924,2011-09-26 13:08:32.529781144,7.560275968
49.00866743781503,8.431736298483541,114.943904932001,0.10461838355010342,-0.014556039081920475,0.6401405428674571,-7.837783479351838,-13.281140644141761,6.64288742952039,0.7409237778211879,0.01270461358333997,-0.7977869586563092,5.909662632689235,10.615280996902808,0.4898398750112476,1.0981122849622242,10.394846660880248,0.018117891615944674,0.03861068002898686,0.8248111262205046,-0.17001245457012146,-0.023532451541090748,-0.22170621040928817,2011-09-26 13:08:32.629829035,7.660323859
49.01019282965641,8.440524992360857,114.83045689572361,0.07983728478321372,0.019454523361863353,-2.7303506910390447,13.721852191941549,1.9800856903674688,-0.17225424342988482,0.3190598311058294,-0.3526105671740991,5.430416154328389,0.7980682853831874,12.640355750936617,0.03506839911613105,0.1492182693972041,6.401458185426943,0.01666195534555416,0.04265990514373193,-0.06087399231528019,-0.01471875207194696,-0.05021658916310621,-0.12630487331067827,2011-09-26 13:08:32.729850821,7.760345645
49.01083160564499,8.435340721593095,113.91851628120449,0.036019702167523204,0.015680480777290513,-7.7396158936084785,-38.65367056910139,12.632289681517594,10.003550166427006,0.0008074426162625603,0.0047918891084805515,-2.3047870704961997,1.146840800795818,9.974083242153005,0.26481623371232993,-0.6795861953968229,11.285110474530251,0.00860138807667717,0.027453063917148208,-0.053431203755358675,0.027462697740228373,-0.0016863103872843954,-0.0012770028938690892,2011-09-26 13:08:32.839790156,7.870284980
49.01084870094255,8.441041936772432,115.15112472709403,0.013531752380982254,0.005249340679543954,-1.420240594931093,-7.245197454696248,24.945467327272198,18.099216190710322,0.21783661093884277,-0.08846063283611064,-1.374003541711395,2.3003540602214043,10.380575640134726,1.925516538753756,-4.900332283268998,9.976719713535346,0.05778110827593449,-0.0268077688935484,-0.3533590423968584,-0.022030646061028433,0.23059689612144396,0.120976051391611,2011-09-26 13:08:32.939824302,7.970319126
49.00999884899932,8.437016507260116,114.58982868800777,-0.1547071756550459,0.035487736246290674,-1.5590857364448967,74.52845313282008,-14.079525914657953,16.132081835630586,0.08184379237263628,0.12270761380458899,-14.467606533728501,0.29854016989804105,9.920076626215188,2.60650535175836,0.547810472024084,10.572918264078622,0.07330357648207562,-0.06909419897083201,-0.3074679214723248,0.09856491879332448,0.046051272771150634,0.3050628535228586,2011-09-26 13:08:33.039846462,8.070341286
49.0091168300107,8.432240264116034,115.45783847255966,0.038171203144794635,-0.0025478497247703666,3.786253186667472,-6.438784439789741,37.44442724173743,2.1596179229642427,0.23429411276363582,-0.09679362475282483,-1.898170792140208,0.009755323195778987,10.792816513719298,-2.8528913769878517,2.767691288517739,10.745663968151339,-0.052853913101431664,0.045734291254084264,-0.295748852225045,-0.023814736123794783,0.02843164340363378,0.7033624085644054,2011-09-26 13:08:33.149834099,8.180328923
49.01271202916469,8.443896568483625,118.39281766197809,0.008602355475976688,-0.03276487866567654,1.2212893285278577,-18.767233970136935,1.6207514952521649,13.336952586414558,0.1761915005259244,-0.019561264446265852,2.0702209116743293,1.1384549566420614,10.898974419048217,4.32148862773826,3.258337315786826,9.851967054409377,-0.09735235126925602,-0.11825226303810009,-2.94061201895635,0.015279343714124316,0.059415967031947736,0.23030435428078322,2011-09-26 13:08:33.249821369,8.280316193
49.00946071654213,8.438879011775557,119.32509172813224,0.052523167340969096,0.006241405719263733,-2.294013572020159,-93.875422804191,16.457515513029087,-40.19103760055753,0.2490976622574121,0.1782376984162522,1.626397026257767,-0.42480402086068514,8.42886869669995,0.5284011860085606,11.323236240825052,14.64764010686033,0.006741111293301773,0.012827759371493747,0.3339638481111377,0.005570138602314135,-0.02495310432897326,0.01798138643183181,2011-09-26 13:08:33.349822981,8.380317805
49.00788210292172,8.4351031473947,114.12014690773171,0.016558244503236764,-0.003200675988545107,0.631412174450873,-22.626563489403452,56.930558459530076,26.061807579880313,-0.40844551470167656,0.43594135646032894,12.827328423412315,1.0087723115074578,9.356989378100762,-0.21556197135825914,1.229866713236243,9.709107741484672,-0.01797023466879258,-0.0344999504665099,2.672638906130004,-0.07105590306196335,0.002320472278913623,-1.70918355384661,2011-09-26 13:08:33.459804761,8.490299585
49.01006496612581,8.437855422668711,114.1681660575729,0.1227208488119563,0.00840275027428154,-0.0042009859129188976,-10.047823908139938,-17.504417454723658,21.556754106786222,-1.866335044483089,0.31294307470902555,-2.2837250588498454,-0.10931354574063318,9.059423279225067,8.141638759786966,-1.3555561774548455,10.116284127934335,0.05467891252367999,0.003356956646247102,-0.00810754684026735,-0.0051805135485114544,-0.37368604855268567,-0.07177189467175374,2011-09-26 13:08:33.559804725,8.590299549
49.020430427472846,8.440031649694824,114.45001927524905,-0.0912617334315815,0.025056244468812758,-16.558250461029285,-17.70936902717093,34.748649273077724,-18.751525543906112,0.28184650411337253,-0.2886416098809391,-7.594110060545812,0.9121420534429131,10.069925766978814,-0.2572868681270168,-3.239466608939949,10.284369927552659,0.03606018446895044,0.013927202326476509,-0.016486322002218473,0.047832093568258655,0.009008970045489648,0.33880757576795456,2011-09-26 13:08:33.659843956,8.690338780
49.01049575976983,8.439539164845044,113.30847705720983,0.029594846914860095,0.006664686340108209,-2.346172201318356,98.6212693843475,3.3077275557331776,34.338864455211514,-0.02079268057623354,-0.02974040492132666,2.7859072997551118,4.1428159285476776,9.486280132482673,7.591345356933433,2.775415632247238,9.656851042187304,0.13228611942898608,-0.02781574589859461,-0.39068230623046235,-0.012587431020409892,0.03027578724400612,-0.1427063837053505,2011-09-26 13:08:33.769867319,8.800362143
49.011776048301265,8.436427453383205,115.14458217960076,0.07339676696440728,0.022674935211450024,-0.2723311069102952,-16.664711426423295,-10.59474213204661,-39.86793891776057,0.1940427614225512,0.05596370355728347,11.442459919816619,-1.315161117141779,9.71611089764627,2.630733531332834,-1.4949330231429663,9.741429199214,0.04375272998646271,-0.025391163276420027,0.006674584188858707,0.030901023833142444,0.009963597856311117,-0.9564613346420368,2011-09-26 13:08:33.869857978,8.900352802
49.01642473864656,8.425667245870695,114.13160675000827,0.06089201518043001,0.022540747319137234,-6.53780422932919,-10.920523323091746,17.71657640493425,96.04013000925667,0.29800197936837847,-0.09856530968089024,0.561072870404585,-3.2462833488215534,9.751159171206012,1.7513272043800108,1.1784344705653942,9.801863080968623,0.014452401968599553,0.009444776296880923,-0.20553498404151607,0.02644671313196429,0.07873798354062232,-0.1439540825746187,2011-09-26 13:08:33.969850605,9.000345429
49.01044257953441,8.436328519094065,115.23309424101683,0.11277273428354956,0.03910693298940745,-0.20520841198133688,-4.774694202158918,10.573320668183625,7.469977012789389,0.2853567697097994,0.029884437192098573,0.5617764142036639,0.2279684304309044,9.105245907708321,-1.7015344503605927,1.3320668128561666,10.286303310706487,-0.06833045659726697,-0.003971504512534904,-0.2629742297499304,-0.007834187332753874,-0.014556330004813,-3.3007384212619635,2011-09-26 13:08:34.079875512,9.110370336
49.008870009715174,8.434679165237394,115.1937378771116,0.22675177021024792,-0.023373043257409944,5.18954066691943,-25.828686675313186,16.43873194453659,-6.22111627556024,0.12526968727583962,0.004843684577267041,32.38490064296409,-0.44234865090207387,10.084361662349105,0.2400588639481821,0.40204356008849634,6.933326406958033,-0.0019274682716212826,-0.0063870596654390654,-0.036891217164033985,0.06217162879417264,-0.03162082651617065,-0.7694400829535758,2011-09-26 13:08:34.179857906,9.210352730
49.015920462684434,8.439197350287946,115.11178022362806,0.061249669251196695,0.00623929366029097,-3.4700584306545306,4.511969886033297,3.191518332214696,16.282375384590683,0.23560166095105503,-0.20643042668170844,4.473980582156016,0.9189205874889393,9.550203883773927,-4.3871871093559855,1.3979472430856223,8.804674803130672,-0.026391168759339993,-0.025045098026301633,-0.36684201424731033,-0.010977631651665374,-0.11815795096624684,0.1684213307294059,2011-09-26 13:08:34.289906739,9.320401563
49.01022708178553,8.438706354146845,114.96609197556727,0.061203556054918035,0.0043658839076436825,0.5824180433368711,-0.7838698176359835,15.801740124771463,17.72245408918736,1.2334289976307584,0.1734347959596207,7.4341552918893505,1.0636724433738918,9.410603516725237,-2.999036229613341,2.770228507902707,10.562536422161346,0.054134431997449384,0.036864194634652736,0.32297431848760977,-0.09659540868434104,-0.053178914411558795,0.8692426330337569,2011-09-26 13:08:34.389842274,9.420337098
49.01061418553165,8.437750038058171,114.67499902515263,0.08195492917167901,0.001389724058873844,10.183367139569365,-19.504057582179716,11.168952814658175,6.686730363475604,-0.057239373905922736,0.13246319825918534,-1.2424191947479155,-0.1382366543478062,10.97798971484562,-1.3119763758039922,2.0737759557452207,14.37938261511838,0.020234176665496043,0.41148397946704984,0.0709794361084557,-0.010641897134351805,-0.04035266708436752,-0.0029944240951654787,2011-09-26 13:08:34.489878350,9.520373174
49.00232356140911,8.43539278875356,115.27298916866098,0.011815388947198822,0.03589243488175971,0.39488694039161043,-10.75661514681896,16.69574330503064,15.833651949270099,0.09587598282301318,-0.0019078201052818607,-4.8187054009311,4.926234421251124,10.247570270504953,-1.2027221082308364,3.883148230468445,5.221122241219356,0.040442976656897896,0.07645353880033255,-0.678989503246441,-0.051718238482025274,0.13516035712700866,0.5231747872393021,2011-09-26 13:08:34.599907497,9.630402321
49.00852939058283,8.43764398194558,114.61459323632623,0.07671199275732138,0.018709381583266484,1.574058778403317,-168.508666619094,-6.918663805882472,-45.559983590999636,0.23054904083648017,-0.15126224262136226,-3.3807974961376046,0.6688303091900667,7.78848574511847,-0.5368674267006375,1.635543901830713,5.043920794272237,0.04730727934891926,0.06343880760595644,0.019554409684938306,-0.06069106594377737,0.0881169726254209,-0.006957332820291765,2011-09-26 13:08:34.700042032,9.730536856
49.0062520792089,8.434570064914022,114.46284887431509,0.05319609526732494,0.016730716031920598,-1.020864517623169,-5.713689505054614,3.8705326900670745,25.384878868158225,-0.6249810452978942,0.05538111941050254,-5.938911582280824,0.9728610187423876,9.382308853440865,15.531078808123608,-0.9450512916291719,8.648347990433896,0.0020426685791177486,0.5189953578511785,-0.0007074405760165749,0.013591705811520156,0.040224447871726104,0.46817965492209024,2011-09-26 13:08:34.799900841,9.830395665
49.007505193402,8.43281442430483,114.93669737382078,0.029989362743116095,-0.01037354695100454,10.709180474168182,-81.53963601821559,16.252313992626434,24.95685572703437,0.5746515706448646,-0.9102463557698186,-4.4619001575878885,9.85068411871647,10.14516461365803,1.4400885942563757,1.4986425113999757,8.298867067891743,-0.0236488140403146,-0.040999593049443284,-0.033488459824637704,-0.0037507781233927376,0.01918875253466163,-0.29161366547761874,2011-09-26 13:08:34.909920500,9.940415324
49.008654113019176,8.434189895117623,113.6827910649463,0.10864913949953116,-0.0004653309149433016,-2.533682069021112,-9.390313799180388,5.387291306227867,3.1088433508530615,0.051318017410582645,0.021985498509051474,-0.8585047382038508,1.8517532073421883,8.821131711140614,-0.3190700778065739,3.857270574476084,10.670712939887435,0.024527717059432352,0.14770901526017977,0.028682840351345176,-0.005449000530193907,0.08864775433328174,0.10203667225403419,2011-09-26 13:08:35.009910526,10.040405350
49.008928652966404,8.435004573614112,115.06569862892097,0.07727370592344084,0.0067807444897834135,1.2200684098524979,-2.661968789347476,9.831255701573765,28.117322927737305,-0.15771236193155855,-0.033495301788077386,3.5465270920910985,0.4710955087852926,11.210367568553655,-1.3908760761521513,-2.324521590894695,11.063365420561858,-0.01204970079908161,-0.001240783250276846,0.19334567721863932,-0.046799907185038576,0.008607340838308847,-0.07112412946984127,2011-09-26 13:08:35.109899747,10.140394571
49.005731800850796,8.443850340201989,114.78992346002988,0.08891425707987688,0.00766676782685677,-1.3336793229868904,-15.674657288062598,10.422868025617475,23.443628604302926,0.3017523751729842,-0.01593481950122963,2.319249781799563,0.2066528634882342,9.669966240660438,4.052530911308139,-1.4989947917173354,9.485108450674666,0.06552564089167727,-0.004358953186460027,3.031966143469169,-0.007669566747812847,-0.038286799578666854,-0.1957501061511799,2011-09-26 13:08:35.220073934,10.250568758
49.01060109271078,8.443712397956265,114.34972667605612,-0.05242663284806104,0.013471843999341534,0.2046461643756211,6.027269344860867,7.361585337498676,11.413461576385833,0.13416800109016846,-0.17541024552712145,-24.912188306893757,1.8101323760919268,9.759108973418352,-4.496706119953174,0.19216610484865915,9.698989949032248,-0.023809957747771733,0.04467209056366563,-1.8106977783788234,-0.006237571918488673,0.0748371775748424,0.090664683963527,2011-09-26 13:08:35.319948450,10.350443274
49.0086428496482,8.465193953729145,114.82223494416107,0.018728199656728665,0.008073746481427098,0.36480338553413183,-0.6269397706718993,7.3852783855144395,107.29708232354871,0.9564095560098678,-0.07798860707767903,-3.8003061880600164,1.6571793333328264,8.625487165060399,-2.289142855979393,1.4178608888874489,13.64202730283602,0.0006435428306612138,0.016514960350381965,-0.4743127942123311,0.06711268527061084,-0.028734811199416756,0.2726950440088557,2011-09-26 13:08:35.419895503,10.450390327
48.99830316595811,8.439032710867433,114.67554643147037,0.08558047891133294,0.015926789728297436,-1.3107770258551346,8.418936759498749,20.098158100449663,-12.62394094124277,-0.12446356227780511,0.06597376730229512,3.6471780260575914,-0.8353289042484479,10.472230996219054,-15.507131235713857,1.276456113449384,8.957410774661772,-0.022311380256755095,0.056388687601686506,0.0901735057049358,-0.028227188865370116,0.022280252009832725,0.34241953339044057,2011-09-26 13:08:35.529921120,10.560415944
49.00813538689399,8.438698240134304,114.75815851096216,0.06525766601083179,0.004485143635438368,-0.5693624598394489,14.976427756300513,6.605608812188089,62.759349421743686,-1.3696419017707733,-0.0658403497486392,-5.396411816558932,10.017572706848677,8.86229536256265,-3.9289423730790025,-2.2320435675673997,9.921644149362395,-0.06337674844777626,-0.020907534448371533,0.022229177622785843,0.010996971389568656,-0.1483244947905794,0.7305821832603467,2011-09-26 13:08:35.629929612,10.660424436
49.00815247947744,8.436094664691177,113.21909462548106,0.04748969525582519,0.012931824860963868,0.7988376427799084,1.7771900745011782,13.486442694621374,7.560858699603678,0.1905908942197846,-0.6943736838366494,0.8729740572250055,0.7734311683231435,9.545533715215905,-0.7781227972008891,6.645427155975349,9.946224577779276,-0.029158551447409767,0.07551290902166691,-0.0799774583035198,-0.021570148315227276,0.012960777313482903,0.34798221211190006,2011-09-26 13:08:35.729936762,10.760431586
49.008959512933764,8.43918732243221,114.00422675120403,0.042434311667870164,0.016926832979224624,-3.121245732844993,-130.3103161169766,0.26277009029750964,6.604623342604693,0.28116593219218466,-0.13053093845324773,0.2849926760836098,3.796900602101743,8.155299915652206,4.051203725483922,1.1297140998244881,9.921338895173436,-0.2598099317798956,0.03052863309351681,0.8537281039005713,-0.04240382261141132,-0.05969971221415175,-0.5655250311754977,2011-09-26 13:08:35.839949374,10.870444198
49.00811083046651,8.437571724347835,113.74418739945779,-0.00656971639011758,0.01489920324255657,10.380566691798107,0.8782551435937247,-9.632736780296003,12.178211706332716,-0.005463677219304103,-0.06734430172656164,2.4098584340757423,2.1271761154522073,9.940248757446705,2.5505782879065055,-1.267138678203148,9.15025788688339,-0.027041940770109563,-0.1062082775326157,-0.11253504154991258,-0.029595588145851576,-0.007516571195042539,-0.14361698595050923,2011-09-26 13:08:35.939908156,10.970402980
49.00772347818032,8.449690696254903,114.06696624587703,0.03624090205657708,-0.004289917996788935,-4.224801955816909,-14.223050502693173,6.392336669789829,4.689946961510306,0.5200832153442082,0.295265966848134,3.8491990497428485,-1.6677005288580733,9.446974335892115,-1.6302093803416378,5.484374470370628,15.143811711092773,0.021214831769078693,-0.022708471997542383,-0.05681927919763144,0.046093758090931414,0.04597917128120502,-0.12109019006841516,2011-09-26 13:08:36.039973117,11.070467941
49.008471160928934,8.433906627609995,115.29662494079986,0.03188027596218009,0.017990349219677147,1.073965039059715,2.5597320831140244,-8.463557575793473,13.770550546690801,1.1432485863926038,-0.13708817497845505,5.424855224314072,2.685353972901342,9.34043892184793,-3.590884753324083,0.3134595175908221,9.580708076273634,0.026434190592832793,-0.21974107873359072,-0.04978266160177363,0.02429614102760228,-0.0857854587049668,-0.17286417669592413,2011-09-26 13:08:36.149957574,11.180452398
49.006449831400076,8.43484286043196,114.4261784318041,0.00715482420610021,0.01345527936614466,-0.2101727935404256,21.200178237931752,-2.1528677104648377,20.116845465719223,0.28597241951312313,0.12472202694877488,-0.4713728985784439,1.82399120831507,16.25516635055255,3.398025864857278,0.20040153613029682,9.968431470033629,-0.017968165798232807,-0.0023240901919451126,0.13325720585036754,-0.04080771880585485,-0.006327918179422365,0.3557963624846678,2011-09-26 13:08:36.250069811,11.280564635
49.008268611577165,8.43482345126407,114.99347903183165,0.029011010693931822,-0.008513975743408286,-3.1655965183537567,-15.088583172246208,9.747561960902427,14.918883616068673,0.010922326625308953,-0.3247461623794859,-3.2197601408833485,-0.21472700287918906,9.89045973849813,-0.6817033340518239,0.9793452085983516,11.328415967031454,0.05182225131835067,-0.03273746299345473,-0.4207282250608916,-0.027035439505307114,0.45290331666819306,0.3417528175412042,2011-09-26 13:08:36.350073610,11.380568434
49.01061817030151,8.435659514736042,114.96052683223162,-0.11400005890417017,0.005103576773282046,16.4526660405466,-127.54088406992406,-42.6378321536656,19.88761808464382,0.5914744179059874,-0.16874133127914423,-5.929769246101041,-0.8705778880816201,9.235907435226121,1.028428515297225,0.21640222672347764,9.05315222510142,-0.03360720391992074,0.019564767574104826,0.3012546518736863,0.044503306800083575,-0.03834321645182158,0.159899439057346,2011-09-26 13:08:36.459997720,11.490492544
49.00627538449007,8.440102789001793,111.60560679416857,0.007029953737366961,-0.010583540974386532,-1.5150129912308121,-10.60823188866761,16.035273322936966,-2.9439079534989343,0.353952466624221,-0.3453269177598145,5.315003524191235,0.6640402615224806,9.091424280707352,-1.7497454623505662,1.03011112057868,10.740521338282573,-0.013261034571670674,0.01325544116335578,0.13042956415676407,-0.043278065138887656,-0.02211324885348559,-0.05262723113460465,2011-09-26 13:08:36.559933429,11.590428253
49.008631100333375,8.456263296745776,114.20162449764548,0.022056815246698072,0.016119439087879953,2.1846076948741806,-6.231793250188885,4.357527281936567,-104.07517203056045,0.181684837088288,-0.0733136943219798,-1.8856726705265188,-1.2722639650919556,10.545505848836104,3.4101318467949078,1.7751033035654422,8.897200657347184,-0.000492717078166921,0.07185272433547102,-0.02939104423320402,0.027653670252890276,0.011166347591441979,0.5637721552696938,2011-09-26 13:08:36.660025629,11.690520453
49.00740700285609,8.443484375618008,114.6748311400997,0.10359904380011506,0.01827183045525409,-3.080361361254807,140.16786824760007,-11.433912515198264,-14.673279876590035,-0.24748803211750553,0.028512733124722647,2.6823487196307467,-0.2921382157111891,9.206923782227342,-5.2257040084530795,2.217820984783843,11.046173164943784,0.006976364582970428,-0.040352451619016905,0.1565337251607191,-0.021198087416613824,-0.008353558802712944,0.41353167668980695,2011-09-26 13:08:36.770004895,11.800499719
49.00703159269907,8.431357379123167,114.33306269472916,0.1304170296441049,0.010644940960707047,1.2397093868858837,15.39780399156944,3.3201670351461345,18.48038088191376,0.16610433021809667,-0.18406666171160027,-3.2883706794745895,-0.2309472898714723,9.163135098579817,-7.02137252040383,1.7614748452395648,9.185305961342937,0.009565319979752013,0.006652975274249058,0.21274924963078634,-0.06526897884835459,0.04816162520982257,-0.5371446174969581,2011-09-26 13:08:36.869992373,11.900487197
49.010659031504815,8.438753931739763,114.82265795421019,0.07026958228533704,0.010667519407423881,3.166025429405518,-6.543669359676862,5.870518383203188,12.849287954379005,-0.24992036293781578,-0.13605195186295854,-0.5186964103362527,0.21703210710954318,10.46997441657731,0.6709589971768214,1.2055481767388285,9.662926151501436,-0.03254298834562523,0.061007412185960286,-0.0936088975397394,-0.001456129925221249,0.027259755113899817,0.06274884747119416,2011-09-26 13:08:36.979985111,12.010479935
49.0058084948108,8.437884250838811,114.61195575514283,0.08546442423875533,0.0034105646001900995,1.365886436399398,-96.00738526766473,48.60925367429766,9.627439772940093,1.8672462877859453,-0.07379466450338086,-1.916172539409485,0.13957716507247808,14.249184824603805,-1.0276315343007223,0.4138152226864858,9.449095310260711,-0.042490276869099765,-0.010712055197488185,1.6125839962007895,0.2840040858823943,0.010144826624146659,-0.2605591887075104,2011-09-26 13:08:37.079990777,12.110485601
49.01102552335722,8.44001686680908,113.91088060775006,0.022760582718651334,-0.001861041424292961,4.027117629271819,-15.232500804509307,20.4139317655727,6.921735739609018,1.4820674326732135,0.667872715334613,-1.3116861809013851,-3.701698327027281,10.108644663983654,-3.6502867961573955,1.0141052673543745,10.782701705129096,-0.057146166678239955,-0.0551878633005381,-0.19321870712952768,0.017729849730642067,0.046737887237456935,0.44457074367421157,2011-09-26 13:08:37.180202130,12.210696954
49.01680197594124,8.439031568366243,114.24714735392031,-0.022800689238352764,0.009871785762955818,1.9006358708305955,11.672716748038157,2.38497250200023,-11.859722418859109,0.22106069514818344,0.6306877241647804,-1.5810205295754067,-3.50467996277335,9.621553326105865,1.022953435771457,1.320784818147737,8.636987807866772,0.059407618409303906,0.01984915610898557,-0.35997274410481606,-0.02752230574295723,-0.06795612058404155,0.02419275704745301,2011-09-26 13:08:37.290073010,12.320567834
49.00894008483613,8.43988680529834,114.45031232758271,0.023588442753027575,0.03297288343840245,-0.5642495023607195,161.00009322971667,19.22072201374855,23.28412577187371,0.39401684468430936,-0.06622321628633594,1.5669277118635985,-1.4295771796008667,10.941177580477483,1.0878871425905032,3.802141374765627,7.116819327026681,-0.05327248979105003,0.03326774745574061,0.20839298496036446,0.03496425208839331,-0.09863054455613524,-0.6220201883694971,2011-09-26 13:08:37.389988671,12.420483495
