lat,lon,alt,roll,pitch,yaw,vn,ve,vf,vl,vu,ax,ay,az,af,al,au,wx,wy,wz,wf,wl,wu,timestamp,rel_time
49.01091549053095,8.43871438008154,114.58811771409096,0.040842584022204594,0.008447191067928255,2.237812531582555,4.133009819509322,2.1154808310349207,-6.044216495109573,-0.03057983810406053,-0.19020920167057387,0.38897615478958414,0.7976221084735953,9.984876292892105,-1.8376207781883522,0.37222387136807356,9.496410050193628,-0.012357180829199616,0.02584027503130932,-0.0802239166961108,0.04259952884192648,0.0902557441424,0.010815641671539818,2011-09-26 13:10:04.783813635,0.000000000
49.010729694858064,8.438424265868276,114.53601809502838,0.03561814081674355,0.005370052828741791,2.55085507439086,-3.532253735774738,1.673370724285375,-14.172309458610778,-0.3187373668782831,-0.19976325528010302,-3.71250239661503,-2.578523253072392,10.034284062490897,2.10211051806206,-1.130227264582528,11.891516417976602,0.015622637155222234,-0.02866013440081461,-0.018597443961763025,-0.03559187828846954,0.17814531612696594,-0.007234451845237376,2011-09-26 13:10:04.883633226,0.099819591
49.01045187273949,8.434200069439932,114.54990241594622,0.020277627545110914,0.014359963015741842,3.859898600409579,-3.243660036186216,-18.798133017991987,5.725566988139908,0.07612448562657217,0.07550782541676274,-1.0581719872899364,3.0437999160986675,9.620960678193166,1.6699594320695457,-0.4876082170128028,9.486747427270261,0.057394783135904646,-0.03681990703611249,-0.01320906740740322,0.07905180988243508,-0.03737564339435687,-0.05747151509608378,2011-09-26 13:10:04.983623089,0.199809454
49.01089882570697,8.437811051323338,114.61020039932167,0.025867044315889497,-0.015436189063179676,2.090549056990673,31.087563774423494,-8.611060618398012,-11.60483771079981,-0.2787452815238119,0.0905622662661288,0.5131447806081094,0.29565763778482035,10.0382974453456,12.950655993819076,2.6660523846828195,8.42176973136074,0.2701387790612059,-0.03683473667324793,-0.047565530742313344,0.004068674314118484,-0.01080075857272182,-0.1364715619204562,2011-09-26 13:10:05.093657185,0.309843550
49.01081956423574,8.43948013429365,114.98615962023966,0.03758502941528603,0.010408353259367557,2.0953793532265514,12.722028829220857,-7.148173522433483,6.846520016113475,-1.1927188973026592,0.15668459184831085,-1.3936836301740958,-0.13462846447174684,10.588158844620077,0.685272792910531,0.9377454584037741,9.777211677103189,0.008422802820482703,-0.043368015613241356,-0.018999287010602058,-0.018969520505966023,0.021232437351896574,0.02673409700103377,2011-09-26 13:10:05.193823011,0.410009376
49.01043701583692,8.430200010103373,114.8719759966684,0.018988181263700228,0.011983123938952728,2.0685442538236125,2.1735102602833827,55.34114803737153,9.68751754827843,-0.028886510361681158,0.054249793662053035,-1.3406707464448921,-0.9605002499936741,9.932484583408572,-1.4755703707710697,-0.7822789750796155,9.787564496251889,0.02628717750857295,-0.01687403936846886,-0.06055262818794001,-0.009508995703235625,-0.04058088154704687,0.03698366783382608,2011-09-26 13:10:05.293672144,0.509858509
49.0065413592214,8.440041917086038,114.96939620302783,0.04024597142293518,0.00196493318362802,2.67617584322565,11.23779000102433,-10.914240579747151,-107.49004346283223,0.0039146567876243744,0.06532820714564869,-0.5517626503480383,3.1893103066033395,9.594865057710827,-4.337227631678054,-0.07600382958656393,9.011519507327119,-0.052005723800826006,-0.014246363343276692,0.06724542013453719,0.003569031896263012,-0.004097529776285474,0.20401351824571187,2011-09-26 13:10:05.403662726,0.619849091
49.01121140420722,8.439748433642043,115.0512235074829,0.021004114149234875,0.014260094227176282,1.9664824062800057,11.976682234566816,-10.547820142274013,-26.41095394031629,-0.031688720149088925,0.04124891063819746,1.1296626503611171,-1.178561123723413,10.739775951116176,-1.9160560213593798,-0.012175755200729832,10.37756853801197,0.004305297304086429,0.03734181046691204,-0.03293562244649271,-0.07324692599780595,0.05112389102555937,-0.04195239203355534,2011-09-26 13:10:05.503628097,0.719814462
49.01397637648416,8.44061793017305,114.86174036588997,0.021682034714310364,0.01957073150522584,2.1099742059081104,-76.62138468406113,46.74004414336767,31.73395027203053,0.0538230913721469,0.12756237954856806,2.566770579800037,-0.6031050617621037,9.945721550964237,2.4679849130196616,0.10265994274233697,10.067779935908593,-0.029845312692514815,-0.21749903740344323,0.051378199294287906,-0.0067924208934361935,0.024201797635979575,-0.08251921932716044,2011-09-26 13:10:05.603676910,0.819863275
49.01222848065825,8.438757407922944,114.79357822760895,-0.048689859067427496,0.0014752077086363502,2.8238770164513514,-4.043808013160011,-25.154528095204775,3.308845385709219,0.14724205380692323,0.0966515781376357,2.293537154044339,0.17931017432410878,10.325701149170888,-0.38780352309953886,-0.11133168704042357,8.792894644002118,-0.02191738751752663,-0.0066381888210360175,-0.1261375885083585,-0.06341264279028755,-0.04457210643234396,-0.023324226390976737,2011-09-26 13:10:05.713731980,0.929918345
49.010045161829154,8.43933343602049,115.15258459675708,0.005584821999697381,-0.01053276661192078,2.3011448985074248,-8.491074154004727,-24.23273327699596,13.579513670981123,-0.08465315420287765,0.04609193739175778,-0.23150424920407278,0.5080520031888776,10.04957843112844,-1.4463740675387546,4.6968511742247765,9.77414455101643,-0.034020883683278984,0.23977275254745825,-0.01859728975921744,0.021943888483318852,-0.004032883621741947,0.026730873544128286,2011-09-26 13:10:05.813663327,1.029849692
49.01059029819628,8.441433828956498,114.85147526387033,-0.02265875206000554,-0.008537116517995439,2.3187683990299988,8.228536290571228,-7.708550668220554,53.975027409172235,0.15054282973385305,0.11118126728932312,-0.6364108091051961,-0.25364697375878426,10.088047016391956,0.025486848841650298,-2.621509920149992,9.999075759314975,-0.024804913140221374,-0.002234091062053578,0.003910776799875382,0.06368100244222973,-0.0009159020297147338,-0.02819942718381867,2011-09-26 13:10:05.923740362,1.139926727
49.01090720981241,8.439794573735627,114.85968764689817,0.018385845217360988,-0.009130909711805822,2.290207065643649,7.985394639874788,-11.26037421706745,36.870401492778264,0.047028076423400754,0.058387619210761126,-1.0465277544455922,-0.22028306872821976,9.52599899832266,0.22985130429138304,-1.0673039786453147,10.103408561510465,-1.7110349914521705e-05,0.025187268619538614,-0.005880442388092946,0.007929262597219634,0.023449891789267745,-0.015232575944231962,2011-09-26 13:10:06.023691375,1.239877740
49.011612931008464,8.439180308777065,114.98490523313534,0.032165893174311504,-0.0009686629990115891,2.6658333046695435,-44.67495584809906,24.02051236753516,16.167738185418067,0.06745258495792258,0.03706513373964365,-3.113312255413704,0.08543935929931538,10.519560216082636,0.46298221642836906,-3.4618484104436464,11.080348194170714,-0.02019079888733595,0.04791383895233503,-0.31848510579452294,0.006492631441623719,0.0043604355759782835,-0.053647380776433815,2011-09-26 13:10:06.123706508,1.339892873
49.01101397011277,8.438743848637865,115.00934079566171,0.025438423360406755,0.0046393999779591275,1.715421689222659,15.990245078861232,-2.45525278859356,35.940700559973536,-0.027092511432124877,0.06578541523232737,-2.8422451638123905,0.34544410842949247,9.23707705868466,1.0484493925017568,-0.6332900110542821,9.006457506678107,0.027708213462116466,0.05934722524946683,-0.020380733031305328,0.03341142152342511,0.03167941672011705,0.06161237923964166,2011-09-26 13:10:06.233749190,1.449935555
49.009847102029774,8.439708683336443,115.9042513144614,0.030725814547020048,0.010791912234683792,2.610054461888088,8.404818384366155,5.130826700156737,4.060428367218628,-0.2907991234131572,0.003436431282767341,-0.3091481882493264,-0.16043871241620036,10.075624307565114,1.4577050759321668,-0.038002291852495845,7.777781071851969,0.03272675442525349,-0.014028382451924129,-0.2772818626884347,0.0016518560992607814,0.1703291621803484,-0.022037078546843385,2011-09-26 13:10:06.333702569,1.549888934
49.01353440820736,8.43913438647032,115.0152248316117,0.03538337898617176,0.009120756452521334,2.162112248306027,-17.37893283400618,-3.214139736292542,-20.97516715792271,0.1712148989407952,0.008762864890813175,10.478268168396816,0.05180930607096623,9.779151926004026,-0.4569948709499111,-0.9864530787496879,9.623329083602327,-0.023584200497350393,-0.00788581211550645,-0.03255813326359562,0.014806814126144756,-0.006297745593526079,-0.008701889484906442,2011-09-26 13:10:06.433685217,1.649871582
49.011712560634116,8.44096900864126,114.5225213473308,0.015081330210373979,0.010636089541212757,2.881706253705433,63.45796947664225,-20.68710637062287,-0.8392216764066127,0.28099909095482606,0.013879579796889694,0.5648816385889602,-0.3332307404297121,9.581380246340586,0.40935227686979425,-1.0168846555649413,9.565600329105598,-0.1581793762170485,-0.03677188434412337,0.0611646070489329,0.007826905637106443,-0.015295789680009284,-0.06344182322993537,2011-09-26 13:10:06.533725196,1.749911561
49.01052056483329,8.438058474873648,115.28300550250967,0.04445878241414322,0.008921970842482495,3.3059064937276528,-2.8572683097389113,-21.435608157912384,26.277239768426103,0.9119577351104917,-0.013394558890498877,1.1590217672820726,0.3790838159369209,10.315941488151143,1.015062796011108,-0.1390499011731911,11.242782074556427,0.0073303855786715595,-0.00806805129340939,-0.03620916938224548,0.0035488315614823863,0.02532619584439021,-0.597072395109167,2011-09-26 13:10:06.643747213,1.859933578
49.01125818591651,8.440690288616102,115.20374136898918,0.00813061466842515,0.001683496450530439,2.8992644289585354,-7.715301396172123,-33.05149865038163,16.072889879189283,0.0386795523179094,0.0810728160795458,0.27364621907599823,-1.546596696244562,9.72822570089206,-0.26418931738597495,-0.3507347121094285,10.055523699203256,0.011580981970110342,0.009637818368329693,-0.0014855326103589,0.023041757786469153,-0.03971191985088915,-0.20469574095472332,2011-09-26 13:10:06.743820339,1.960006704
49.01107708556161,8.438530470236415,115.19872721738695,0.01389250012433203,-0.0027251974403917512,2.372758348421702,93.40063110357866,-11.040906743343847,-5.183810874325713,-0.17424192318892295,0.19002221766051963,-0.6298211388001518,-5.459715857557755,8.93582701053381,1.757113396671478,-1.8980021391152395,9.716370971562574,-0.036748585301514244,0.001332399061025457,-0.06688851196946959,-0.02829177444004409,0.015455258456961973,-0.20505060603433603,2011-09-26 13:10:06.853732801,2.069919166
49.017512620379975,8.43988280302953,114.65468901503228,0.04108780700497132,0.02657077155202362,2.2617003521139547,29.57467634132678,-22.598192055926003,5.438608657031917,-0.16125747213451241,0.030348550740230587,-3.9223644111814573,-0.422098064871673,9.275685972955005,-1.951217529579939,-1.1053369743141859,9.586226843499555,0.04789879886026146,-0.01664593601038339,-0.04130384711394764,0.004039713574106396,-0.026037388737739586,0.042502588567583065,2011-09-26 13:10:06.953734971,2.169921336
49.01027891144544,8.439729784296109,114.67008343604428,0.036512603348893696,0.018524439536422677,2.047234083949987,7.594057627932595,-21.86594169193398,4.454864561571447,0.07708255919121973,0.10570907193684825,-7.4406313106681985,0.7830590544545307,9.530925975455387,0.3535933071291754,-0.3946199189153453,9.510416943589256,0.00204137687122459,-0.016588099984904986,-0.06284095461949929,0.001246998291217112,0.02077222736454786,0.046850056277807445,2011-09-26 13:10:07.053725403,2.269911768
49.00237781550097,8.438193815480082,115.01977748912444,0.04660959198481221,0.014635134187723338,2.5997662679590787,18.919963686651144,-87.85852336405199,-2.436564710946735,0.07417557103249114,-0.12169107723672364,-1.1793289120364496,0.37039467304438095,9.942496050921845,-1.1439167189068769,-0.144894421096955,9.857586717566392,0.01301708720614525,-0.021702622190764236,0.02753502001942019,0.008157966632838187,-0.00893402745186883,0.22996868907030546,2011-09-26 13:10:07.163744500,2.379930865
49.011969524168094,8.440703864547514,115.71810862619225,0.032098652359499553,0.0007301240628679482,2.7724679030281867,6.890107886237924,-35.46086065111325,-1.3840390456431884,0.09242774159872161,0.24090177613693692,-3.873993810275604,0.5315381856454411,9.009278301707806,-1.2805387925220668,-0.722915434393487,10.24144727631669,-0.0388189926723879,-0.015427903313025512,0.007848040110182624,-0.005430304652108173,0.02687725115767479,-0.032878961445798265,2011-09-26 13:10:07.263832962,2.480019327
49.009389658495344,8.440138722779956,114.73905835817688,0.04394358249675346,-0.005312804644903525,2.1778302593693475,5.680288800407675,9.706305755991824,-10.57830637233248,0.2152420939386213,-0.14777878938069516,-3.5771737861309645,0.5178203878969412,8.959911004665548,1.273328177560078,-0.02588273507420613,13.547503543171928,-0.05484662012459045,-0.03127350143874218,-0.00783778972769652,-0.019135790588581194,-0.006320366771758224,-0.05417770566854476,2011-09-26 13:10:07.363838349,2.580024714
49.010838688346304,8.439577851911213,115.046811881479,0.01614652528492507,-0.06695387245353235,2.481434739697208,-10.547430596923434,-87.25212003028302,-42.72809664964857,0.09165883871067759,0.4279665060233693,-1.20173972881082,0.7002555674384597,9.441742621409833,0.1348702806881604,-0.6173960833886022,8.90713760581962,-0.08503600259695367,-0.028927544278064474,0.2050323581338336,0.09912567197816262,-0.008645192493299335,0.0017128633630468688,2011-09-26 13:10:07.473802736,2.689989101
49.011455524962685,8.43993525848525,114.91632261047174,0.030292413428304764,-0.004436267395308267,2.1530089419696545,15.236341957431199,-17.760431607756814,20.190600653986444,1.1618485304107096,0.1773850700035859,0.04341919993514598,0.37059158802620334,9.586152599787187,-1.1626552278252869,-0.5570476830705523,10.075362330370412,0.05415670640842415,-0.09311724017299916,0.21227693465370606,-0.0066475126527390585,0.04124224932913129,0.002896644664860398,2011-09-26 13:10:07.573784704,2.789971069
49.01057412912148,8.439814920820696,116.56202095574758,-0.001962883233703576,0.010903910594727423,2.1260213616268717,5.128069957006241,-5.67850297581873,-100.86600808950534,-0.11046486083424606,0.10421007759766301,0.7469613613544608,0.9678115472206144,12.733332542669363,1.572952926325228,-0.05015231963261493,9.577146740762528,-0.014728622131314135,0.036860108440344735,-0.06650578554940927,0.0018908583088633499,0.05646663582185668,-0.04230488808000055,2011-09-26 13:10:07.674011558,2.890197923
49.01153134127505,8.439320083922574,114.56686480316067,0.037318818387936346,0.011821234843156916,2.212539554028802,-4.871105257492793,-10.065698612069141,-19.213007629263856,0.2659405487472894,-0.40668958752207973,-2.008958195722881,-0.1839986345060135,9.289578113079752,-2.7403977375060378,0.0155889284579043,11.685699942848238,0.039020138294625986,0.07942773952285218,-0.0727907549296509,0.013455540338733227,0.19666973572023624,0.025782995626332683,2011-09-26 13:10:07.783894355,3.000080720
49.01024521979792,8.439499223327237,115.07548400761156,0.07576698998644521,0.008136621374201155,2.3744376345661395,-12.684347373878236,-2.5024422173023675,-17.038209974066444,0.23839113514970767,-0.6744416044442709,-7.058728805562153,2.800137099916684,8.673032125766573,-0.07466358951159313,0.1898694049180741,8.948199479970075,-0.0037983087124250324,0.32616125227913806,-0.11675549910582746,0.02108593127056195,0.02948985335041624,-0.009515485025134978,2011-09-26 13:10:07.883841386,3.100027751
49.00756295286938,8.440040138497109,113.80666214613073,0.037271841754766624,0.00803223949721089,2.253710638415931,132.87173805362494,3.547192039158295,5.027826936039295,0.007090490685060499,0.010363077051010363,-0.5050217696807473,1.159856255595147,9.72748536193635,0.6039128679852926,0.8258991333020136,9.759453238736958,-0.0007185767443708777,0.018765804609890628,-0.11721549577403949,-0.019427035356675865,-0.019123430595567786,-0.0007210135893442639,2011-09-26 13:10:07.983833058,3.200019423
49.009983843031534,8.438422081197839,115.14835974431065,0.03288837781623189,-0.0018778139944554927,2.06622640415519,1.5629188430173855,-4.22510761868234,5.621542361600927,0.08472517196989805,0.07487366979050952,0.5241521141573018,-0.29368635237938534,9.617182840509766,6.816925709302823,4.329845547792261,12.513716726174833,-0.028615703184054937,0.050097484908670456,0.061157604778181926,0.008562999979459071,0.0022721888044763016,0.30495387937022084,2011-09-26 13:10:08.093857888,3.310044253
49.01184503547787,8.437667000440875,114.95865610437302,0.04403539078533737,-0.0009187334232220613,2.2624986319878624,0.4062129262511629,-11.145211050442386,7.325856272218872,0.04681745307503005,-0.019425854160646534,1.8317944172942338,-0.6639262802081269,6.104272542559984,0.19768398386415958,-4.910424235883187,10.037045174708876,0.04432481769572747,-0.021438995864441902,-0.20428399657813773,-0.012914570258385593,-0.01841041538410076,-0.0010100534426766023,2011-09-26 13:10:08.193979558,3.410165923
49.01177087087426,8.439556111704048,115.14378665127738,0.03605137689056605,0.0050420475381014775,2.2175154824426415,12.04395240251591,2.6374817794105407,19.587064227469778,-0.07817219031292554,0.20562432903509825,-1.4645342676887165,0.17382967265232147,9.816712407274048,-1.4675553544672972,-0.8146438011895561,5.103804166512759,0.007585504963897769,-0.008112497936183394,-0.2526514784291647,-0.022992617434687432,0.011593546151333088,0.05032009248719671,2011-09-26 13:10:08.293843903,3.510030268
49.01028327186801,8.439926451996131,114.97958668635923,0.024669578631505474,0.06032131788248638,2.8467833122993467,6.9334186119586105,-13.48887615691249,-53.4947018001292,0.24507806139760901,0.08187059009820377,-1.5056351615295063,-1.546756924987271,14.261185711079978,2.62383333003399,4.66336579547997,14.020931885218069,-0.01776023672555668,-0.021755882124347696,0.03472937055115609,-0.008029820044602055,-0.1135378293577064,0.009235590820987585,2011-09-26 13:10:08.403826434,3.620012799
49.013476649700884,8.43496433934334,115.62732124302396,0.02906024055162056,0.014807506002757168,3.142831236713389,19.24465483648226,5.073716309328736,18.70216090402581,0.1787286965041343,0.017960078205311564,1.9442449903239931,-0.8218515570479044,9.122271518993445,-4.837494104650877,-0.4753102998089398,9.056962370665929,0.017447006505325605,0.09724323286086364,-0.06141943388321092,-0.009139498812008907,0.029097162407029253,-0.06616500240475924,2011-09-26 13:10:08.503846371,3.720032736
49.00981545917369,8.438275509010893,115.2622401770364,0.03992472299856785,-0.04557871831355261,2.6458918682970896,57.329946677087264,-0.7528054656884722,-2.914524720380598,-0.11696844073315414,0.011249210300628506,-3.4876470472173455,-0.7249892834968861,8.79947651054126,0.6461202674989865,-0.9378779042352343,9.040838458301154,0.028216849622496133,-0.047981905117336875,-0.03585552482209646,-0.00878415939773837,0.0021929537959897265,0.032713269604469436,2011-09-26 13:10:08.603848101,3.820034466
49.01052527061836,8.43966998237755,115.11907006089218,0.04089234232355436,0.011660419114518684,2.3807782044267474,18.225130926394407,-24.756450088299808,0.3243559052495133,0.17788795878940905,-0.10506629819113832,2.4827931308710065,0.8257000312455497,9.726703205947882,0.08919978043204929,6.23356355491997,8.700579990205545,0.012099140906229064,-0.06302438234829634,0.08757254926154727,-0.006029527098264164,-0.007731411096241767,0.0270885672663384,2011-09-26 13:10:08.713938001,3.930124366
49.016547384337606,8.440620890990711,114.72187489961664,0.03276992601972787,-0.030181408976078815,2.529552071950185,16.039412688221592,-19.279795317671223,109.12468480933589,0.03910473703776663,0.060505893220931944,-4.331487870339336,-0.28962581247105273,10.89230727661548,1.0812376742088228,-0.604008370486101,10.09862835827263,-0.022066335599656636,-0.021783857371186356,0.038497774233692265,-0.0063560937880419305,-0.009715305212815908,0.025891322016220797,2011-09-26 13:10:08.813856373,4.030042738
49.010307613529854,8.438651926919876,115.03152024575931,0.035192065369939705,0.0027006673476616255,3.0423769135247998,7.972930070399605,-16.62196598534136,5.819240449290228,-0.19188025736624462,-0.05601125544609424,-0.5691821946483011,0.7099652411618748,9.923188048607331,-8.44502492747865,-0.36400269269762653,9.116051650476887,0.048569238866166244,0.030495264724550757,-0.048014200497466894,-0.0012209157336740637,-0.011778330171470008,-0.1275871647940198,2011-09-26 13:10:08.923885902,4.140072267
49.007811758937386,8.43896972134935,115.28748618653525,0.01571005974964062,-0.005947267910250976,2.7063293713841747,-1.4153568154132916,-5.088533987374918,14.15302726524343,0.14040952097830803,-0.9166173341178201,0.42341146739409835,0.31364966007990686,9.689169312515165,1.751868765000941,0.7061094507184957,9.768329372666265,0.09845447176422195,0.2555680369601609,-0.12857259250805436,0.007643659001623679,0.02762794034164387,0.058437439397558744,2011-09-26 13:10:09.023861354,4.240047719
49.0109657401728,8.437231582646268,114.70230500434053,0.017658105913588622,0.007860569761530758,2.5076193344645623,-114.29520873110432,-6.9097989245703655,8.996304696557512,0.03978495073919556,0.021829907893139076,1.0839115739224263,-0.9944968614685727,10.75972096187335,-1.3213285203430456,-3.1589961395064527,9.994287043925729,-0.010382724328347982,-0.007788027694056759,-0.11503271101412482,-0.00360068775505472,-0.04323911908220566,-0.26908843816942035,2011-09-26 13:10:09.123872701,4.340059066
49.01078625781909,8.433612517926072,114.97351712777359,0.02497617668502636,-0.062252049049118116,2.614462298194049,-16.81499133492341,-10.012609142113497,14.10882742935329,0.5221213052000775,0.06477094547181284,-0.1791949846231149,-0.10948191230718034,9.510091577251682,0.5851843291236125,-0.4008782460402781,9.561121114296583,-0.02730039520112411,0.20686867628281605,-0.07397915347227282,0.025218646450266065,-0.006564249570294253,-0.1594291605938299,2011-09-26 13:10:09.234035255,4.450221620
49.01072263574455,8.439258612678001,115.09262914187353,0.03384375878415015,0.02066301947485776,2.432757091980955,2.7214364124552812,-19.72195658925148,35.8205480973354,0.0527185261961618,-0.09155289109989721,-0.38295023652187626,1.279220972910052,9.539880442743014,-8.596666996778893,-2.8804489559130193,9.426688085299757,-0.0010968523306057517,0.04254599332379616,-0.04565572587711827,-0.0072856720792874715,-0.03574259711439779,-0.07739038710203783,2011-09-26 13:10:09.333882450,4.550068815
49.01029301975147,8.438549310799182,115.22972668376224,0.03694489876868792,0.0017422412007820007,2.50182235136915,9.09740954234865,-13.48708772488536,-21.293101931525328,0.28617873904241065,0.1417324459458389,0.17585423475031658,-0.3108286820802197,9.225182467232445,-1.2282366432709395,-1.274034359562758,9.617228582617534,0.025837853712022005,-0.016409299402921067,-0.015273019063877027,0.06573641382323227,-0.04379642083642066,0.051503604517930526,2011-09-26 13:10:09.433863288,4.650049653
49.01170284971999,8.438651495099899,114.72379693538747,0.017575440856700902,0.0034836014441459026,2.111444050647429,-109.83579270742038,10.068193138890262,2.5805170421937174,-1.1669224891198404,0.3308636097752033,-4.113547524741732,-0.7077372524562332,10.518379542014667,-1.8109441691952957,0.1716104663344326,10.238661229760297,0.028528721849983136,-0.09811260972548795,-0.05050599008104093,0.03865649052040432,0.012908117508007688,-0.04047987836307966,2011-09-26 13:10:09.543910840,4.760097205
49.0116987767232,8.43839119973044,115.23514818535301,0.02330966141278168,0.005644360922567546,0.9955843758300447,20.91251534210886,6.500392572397498,38.33114454732298,0.10405233072288103,0.12556522139836707,-4.181670305116737,0.17700282252262337,10.809011570158917,-0.9517213408449979,-0.3916832986935297,11.03253155751381,-0.010496732030766747,0.01934592110040756,-0.1055421028730798,-0.04163064410740189,-0.004617622131334338,-0.028248374090324768,2011-09-26 13:10:09.643940264,4.860126629
49.01049867160391,8.438960644823847,114.63524292230683,-0.0652122335082595,0.015909163731952253,2.775428060850653,-10.65210541659991,-10.119122539430784,14.56827526932421,0.0609600678427773,0.07633732693685404,-1.367090001118715,1.911606938150646,9.56117754426288,-1.0775093763777277,0.048287036048595355,9.697892825149768,0.06389012287234855,-0.00864652006120247,-0.04918964228517477,-0.0014325963089927736,0.15018979793672563,-0.08996387354546576,2011-09-26 13:10:09.743948663,4.960135028
49.01078548284642,8.439976274647627,114.99672720672335,0.03793009006207017,0.0022140023823100023,2.668854520393576,-9.179514356119766,1.1686012250790405,12.223399119636571,-0.19799204356603872,0.0019456928126204975,0.3206425466355537,-0.222287144798156,9.243333883081197,-1.646652270892259,-0.6149104944817099,9.052026015434594,0.021330566786187437,0.022574730048498796,-0.03269723374276266,0.008528608075415382,-0.20305287879568262,0.38151690583661707,2011-09-26 13:10:09.853904012,5.070090377
49.00976844055822,8.440590386779158,114.95334296418886,0.05041548459483973,0.01695080299106225,1.9706350801035408,-1.4818957773754242,-23.170794647123394,-40.65724269264676,0.13822935459100985,0.022522804059928608,-1.1486705938011226,-1.6055539311902143,9.382944324503072,-1.9798468842583732,-1.2277114220407879,9.82692687725633,0.007105964013286911,0.004517967493005572,-0.033343045471476436,-0.006125742075009988,0.023717029829964622,-0.039310332498282044,2011-09-26 13:10:09.953894437,5.170080802
49.00997290091536,8.440044761290505,114.88766572595803,0.02948570126770146,0.019286030473232674,1.9447845199958547,-15.253173583750655,-1.6476659637499687,-1.633705109520406,0.05280229178821394,-0.030665345862204818,-0.8407512010692851,-0.473937162935245,11.381595216828144,-0.8952076678901475,-1.3044448188839102,11.194734052410377,0.03304254517851664,0.053855071764109516,-0.02665852283774553,0.012947655098030728,0.0377534060126858,-0.023020064528800607,2011-09-26 13:10:10.053906644,5.270093009
49.01546457331056,8.43919431672197,115.00717878792712,0.036037352313132286,0.008303232216031884,2.13225254155036,16.4534722526479,3.316296044924041,2.195666654626711,0.3290499623298861,0.05403070017920409,-3.169434068797258,-0.0012956114572907351,12.466281651470805,1.413252700120167,-0.44581074174958746,9.887166256762065,0.00999949144015366,-0.019561107981630934,-0.05820750759180546,-0.027358446863842617,-0.06590026799967949,-0.055030538953200085,2011-09-26 13:10:10.163909140,5.380095505
49.009499943319,8.444220353755414,114.78589447107676,0.023359262790838078,0.01974423118367738,1.9492484366802283,19.072926917291774,-5.613025977803698,3.8620713648594656,-0.011468038976155198,-0.021249532084520375,2.190186457058349,-0.8601863494380594,9.723572249180414,-3.803119024928904,-2.477424751294976,9.968395256675677,0.018246572360563332,-0.041702759713760966,0.2971963106831055,0.014732800952018206,-0.038072670768142094,0.017412045431535655,2011-09-26 13:10:10.263948372,5.480134737
49.01180732435245,8.439395387443707,115.1167293095434,0.09614260168816782,0.0077905265276498065,1.9018153449637278,7.064409990520764,4.368724558394483,-122.44970340696122,1.0238204029082356,0.028333615375943824,0.4840999187381923,-0.36533919277402876,7.660664237827902,-0.2683390041212361,-1.0909251622973613,10.142110388958233,0.025191705144030793,0.02238216964179234,-0.042850988938056916,0.04432576654973408,0.20426112284394607,-0.07839354891785368,2011-09-26 13:10:10.363949464,5.580135829
49.01122385384945,8.446810674057177,114.62296870358846,0.017977622780841536,0.03747169657562943,2.246512756444342,3.5330949109984386,-7.378435776857322,19.691577765134483,0.11958707202104438,-0.12950084940943593,-8.607857570606745,0.861366480998749,9.106121737745534,-2.068310341758388,-0.6460639767833464,9.976938457401005,0.0405123458843275,0.02350289004268059,0.015292480618466671,-0.13041364520883175,0.03539201217677351,0.004382496799332308,2011-09-26 13:10:10.473919357,5.690105722
49.0114415497981,8.440376746250188,115.03455388272924,0.007001167829081445,0.04443744473178397,2.486190313074777,21.323564281220797,8.257572522328076,-5.657472255450214,0.3843789714187433,-0.11568362771180737,-8.898665293752817,0.5600985886382119,8.501786817700127,-2.07987371076779,-0.9506884799394648,9.776555332108195,-0.04143995334774641,-0.006629756696916608,-0.0009093393902769864,-0.005532915037625916,0.05798662839820115,-0.05056601610808571,2011-09-26 13:10:10.573936916,5.790123281
49.01707317437186,8.439317026704797,115.07751448601368,0.024400895162140505,0.007696486832657593,1.2243095159968107,-17.093134072672292,-11.063449292717168,0.057386051362287915,-0.004706094366756116,0.023248549506903117,1.0186340956949336,-1.0704801696402517,9.467490579282558,0.792311470125312,-1.5596569650254444,9.214464681366723,-0.008908284104339055,-0.011791811191177774,-0.022372964705376197,-0.014197216012656416,0.01241902831462639,-0.0996389649297887,2011-09-26 13:10:10.674116730,5.890303095
49.01300932839686,8.439058143085031,115.08139265933346,0.0299992210965095,-0.05553189462971517,2.260218652776033,12.634085375858026,-2.4689660258575223,19.867419007958993,-0.6282029196690522,0.01220900726065139,-16.94656432687456,-2.2198713005870037,9.765834102819774,-0.8284881660368961,-0.08584423998556556,10.606696721903193,0.01218503209273129,0.017183386777418427,-0.045484712927116984,0.010730704232826876,-0.02973490413332688,-0.1282175665566345,2011-09-26 13:10:10.783939151,6.000125516
49.005236812188194,8.438951189515397,115.04502263001729,0.02784367552192679,0.006952748146894336,2.244990824661944,-1.0100661190370275,-4.803230666095603,3.9702251953473198,-0.12323548956730926,0.10512268503177628,-1.4224788553888585,-0.39225145804808315,10.080534386018229,-1.2039959431637557,-0.04499856948399661,9.517800166730412,-0.05184759957929726,-0.025618905894197935,0.09533576951592536,-0.1775252966378289,0.009633708895696393,0.09092574194047402,2011-09-26 13:10:10.883996141,6.100182506
49.009598702927306,8.438765879264416,113.97440017344249,0.022475465709285603,0.0162486556634577,2.7720713668920767,10.879308081963678,3.047296964717397,-9.894552388235061,0.05400143176413668,0.09332615884638071,1.9689291867918204,-0.9593390872396321,10.356582990428981,-0.001329648917273274,-0.7776647500573568,9.764157724802399,-0.0013008972067713137,-0.008303023675792933,-0.04134191085280874,0.022184694469303656,0.039906384416578684,-0.05826035050784823,2011-09-26 13:10:10.993918801,6.210105166
49.01192319989515,8.437139032939703,115.02100569053475,0.012662461702391294,-0.0028914583238794124,2.4101606844181975,10.525947725750651,-51.070603599098185,-84.25700796185703,0.1834210433849311,-0.11511922686527033,0.3476225611277539,-0.27414808999380613,9.35228522781019,12.170909254098104,0.11841189532626267,8.752576032732469,-0.02863705311116739,0.002331936873668757,-0.09539707795653984,0.09615384582476716,0.029120031002771586,-0.456515478626104,2011-09-26 13:10:11.093962978,6.310149343
49.01089137569542,8.43868712845213,115.13927875307073,0.03351173818970106,0.083421639113888,2.323941469909264,3.700619225521306,-0.8822400030701587,28.254839160522756,-0.14840140421265316,0.19125829056497828,-3.23408746512132,1.2799668575841665,9.251634965291222,-0.1135052330844748,-0.4142145587627947,9.392885805136698,-0.01896856916175379,0.032384869379891185,-0.013819907809251401,0.002890170799496909,-2.1111723860482712e-05,0.018740013088841864,2011-09-26 13:10:11.194044861,6.410231226
49.01154578213197,8.440319100120412,114.94447314930237,0.013336965562812114,0.005387083183474228,2.4404156897259517,6.5324600792071426,36.19735595295004,17.645038264893337,-0.17542685230906258,-0.14696938823045516,5.8057324334550975,-3.638560481570358,8.49713409331863,0.3581359196513463,-0.4737772577523852,10.222316030568063,-0.019283084929462777,0.0103659723656317,0.00422538148081756,-0.006014794072676957,-0.0013758916117391166,0.05448683791713673,2011-09-26 13:10:11.303959539,6.520145904
49.01118014538428,8.43764648642838,115.05791376111362,0.031881444748064175,0.009557597251269402,2.3698320657823477,-60.067577449738124,-4.703560651999779,-160.47839883423123,-0.0806522640935386,0.11001688773116404,-3.5280298462362527,-3.55253734772716,9.596668430121602,3.035532228144035,-0.47583996975172743,9.044334015024003,-0.003458812235482481,-0.012035975272979999,-0.022641869176355682,0.028733913291761205,0.13749158808262804,-0.10258662397385869,2011-09-26 13:10:11.403964137,6.620150502
49.010857157531355,8.437643902000145,114.95446606260853,0.02916469336774001,0.01524005490206509,2.4031404784843664,-41.5075369127212,-23.35703358843962,-17.427287643673523,0.13454734018354322,-0.4840504762184836,-1.5619418156091964,0.08254760097319663,9.882597787634545,13.730336524095893,-0.3376641278452751,8.473860446738346,0.0086687842581561,-0.049180324879908296,-0.04707784702252925,0.2330900864472687,-0.014632530989823554,0.20151297930695627,2011-09-26 13:10:11.513964428,6.730150793
49.01176898124137,8.439518040675837,115.18451861296401,0.033051882427506674,0.011837075354845987,2.277790299166013,15.356306571726378,-79.96366814793511,13.313046285351469,0.2658120631281568,-0.13188472489080227,-2.967192857167236,-0.7176712830436004,7.885158343114618,-4.761380629645987,-0.16782842899831968,3.1983924696898214,0.04811255931779444,-0.012754070616540462,0.02585079150903321,0.024137182071017737,-0.019906427934898635,0.01572652131781748,2011-09-26 13:10:11.613955966,6.830142331
49.01064273359702,8.437979659673298,115.0073099005726,0.03223139552142661,0.018746062460280054,1.894633773438714,47.64725532101178,-16.4619328285861,0.5191818846528733,0.09635887781062359,0.05022918823935152,6.016226313540399,0.5358542611199595,11.43591279006285,-0.5373454162524979,-0.1831196211003447,10.216075750953692,-0.005741051431988777,0.024469077107050964,-0.006377066753012254,0.041134966434252476,-0.04780947283424656,0.06427259725562762,2011-09-26 13:10:11.714041489,6.930227854
49.01063746035324,8.439793334250767,115.3207656291624,0.04375808435930329,0.048643582378470454,1.8979346062766966,11.33532868237733,-3.1543867242661845,-1.6440103479166392,0.34940774477318987,0.0005353580169560196,-4.942254694020731,0.7660485099324785,9.539585834092843,-3.9216539274593316,-0.2412821186598881,10.088671383880076,0.0767867707253359,0.10994916571313995,-0.039813574246789635,-0.028207766926328856,0.0321069103240812,0.17286111455123201,2011-09-26 13:10:11.813975744,7.030162109
49.01096635796515,8.438494065065598,115.14360345182544,0.03482800177327478,0.01394251828017348,2.4216518112187,31.079747449878933,-6.932227005870343,35.85079228582035,-0.23788788701038804,0.027389941772852394,-5.045371905437614,-0.8526671832114762,10.319754773378316,-0.3879400325097486,0.2871496184422786,8.700020328345659,0.11221609352159996,-0.032076970780954006,-0.017129054623257797,-0.020042196795504875,0.017783732573011593,-0.06252695065380878,2011-09-26 13:10:11.924005417,7.140191782
49.01063827604348,8.438164055490018,114.81820773883206,0.032747994960537034,0.017128614486724657,5.985925410525583,55.163653519983605,-5.148975716891155,26.13459186282781,0.07670316405535124,0.037611218761682275,-2.1089217552326964,0.4990036543577621,9.506102951511563,-0.2518075649674969,-1.0399677664091551,9.952063594386955,0.007306490685644381,-0.020489059709954956,-0.024093331603952255,0.03903519778914566,0.0804414397924571,-0.023255515550576603,2011-09-26 13:10:12.023980628,7.240166993
49.0111652538491,8.440897227465657,114.81446705938744,0.039841296901756015,-0.02228752246263981,1.9530622492022751,5.894067763086461,0.7807369136972229,13.246759841047908,0.18016459525081802,-0.003037983942685703,-2.071029989426534,0.5243617914190942,9.2476744870958,-3.7416977709032047,-1.5213110308355628,9.433515587937404,0.049397038263865524,0.010782230556701848,-0.34524829427300063,-0.057380542666381526,0.009437005166893019,-0.05248918345531678,2011-09-26 13:10:12.123974334,7.340160699
49.008535568825295,8.43794978650394,114.86313222712886,0.03506416775329356,0.010302901755398932,2.759793124264481,0.9627085314014776,-12.815274463831258,11.347402339801349,-0.16032244323149902,-0.1264957923006893,-2.7151119823537178,-0.02524816362405602,9.5061281338324,-1.5892846355813797,0.05512903118805512,10.340952471255115,-0.1230457407622644,0.022735973196616858,0.0005388455897275962,-0.007013468358788603,-0.017932661529158758,-0.04972202398581954,2011-09-26 13:10:12.234214266,7.450400631
49.01050752530732,8.433178991326141,114.81709543456158,0.04840190353531517,-0.0019963896084473215,2.229899070049598,89.64454341157025,-16.97863859292611,10.019594108430411,-0.02111031726137376,0.06847598282635452,0.2551410518468138,-0.9353625204306801,11.839217240886535,-2.4674452944354632,-0.3387195128647201,10.315331161028235,0.027008078610097352,-0.05186497113095964,-0.016903813935188073,0.027574920622352582,-0.023583499200960877,0.10814008832701678,2011-09-26 13:10:12.333979737,7.550166102
49.010468123826676,8.438602344765892,115.092687529871,0.041333361407242135,0.0018267681089208674,2.348203836134705,-140.04938021154015,-1.252268221301239,-18.098732622569116,-0.8838496761232724,0.3547469596958651,-0.5544645542294058,0.9261988815873687,9.899850206692191,2.6190791448523796,-0.35606205021968557,9.574170917532916,0.07920338839267252,0.0007738504806873089,-0.40922167113470925,0.018760192855455462,-0.004351054211464709,-0.13186839335459738,2011-09-26 13:10:12.443996598,7.660182963
49.010694691134276,8.440271308711155,114.97677217037183,-0.0349196928049033,0.01745480317654584,4.893076563719065,-10.564764569883076,-3.104863617489274,54.8673456284376,0.014475190453115544,-0.04179188490665253,-3.712338756887446,-0.39595739743604563,9.280986743763146,1.4230157394917238,1.2162441120244039,9.620363766204369,0.02973666453606648,0.053429037469143924,-0.021364230848685155,0.019346655174470973,0.0008486320634162299,-0.03966836915133281,2011-09-26 13:10:12.544003386,7.760189751
49.01029056856224,8.440021574607732,113.24853937491902,0.016682532284631665,0.019250388983146093,1.7775423007787614,22.04294481725909,-11.699162685167899,11.0898207046638,0.1836374948980752,-0.01206218141212051,-4.6586421270258835,-0.5017477144159292,14.683482648765967,-1.3413537053736548,1.1430051538669668,9.080800597653973,0.14490557587883632,0.02955678985061322,-0.011013625700611852,-0.016272912827422246,0.05127361859115947,0.009903012644614557,2011-09-26 13:10:12.654008917,7.870195282
49.01261244843718,8.438940427866104,113.49069403079717,0.04426910778237357,0.0032219111467239516,2.378544377339833,5.10447021474063,-6.765805780955681,2.9596612070366843,-0.019822000316735575,-0.022231814284206237,1.909869061058521,0.15055005222272128,7.657714404345196,-2.085326386545909,0.47246944085790915,10.379247974252387,-0.11835748503473599,0.1769765084594534,-0.05942034924636269,-0.03265985438490955,0.03801748297611282,0.03412289017017167,2011-09-26 13:10:12.754043869,7.970230234
49.01091060479613,8.438515845781446,115.08071705751435,0.02331203374893587,0.013175582666901477,2.027712848268791,-3.550225302641784,-0.009870576035622136,11.725565470118966,0.17015670358396864,-0.006401859109870928,-1.8834443184826504,-2.6875169523929014,10.490437495207324,-0.1340731048773236,1.1147611580544794,9.433519333093017,0.014893117525623122,0.027701492922084126,-0.026529148828426913,0.023280337838655723,0.06203096442222108,0.19357850655623862,2011-09-26 13:10:12.854016384,8.070202749
49.01026575970642,8.443120724648924,114.63605795569637,0.025471912942099058,0.06888163878039516,2.142041695871963,-102.07815829070356,7.314632864588393,-3.653672956956868,0.13112358928699935,0.07386987523332336,-1.6745231313493363,0.7036281219987408,9.989342278850334,-0.030133952968394828,0.07678659670964275,9.579494915454587,-0.04479264960677584,-0.024628858160379914,-0.0559701643969089,0.021963884889174393,0.4064260451511008,-0.05646544297584326,2011-09-26 13:10:12.954020859,8.170207224
49.012107542545436,8.440348300369962,115.23596939032167,0.019470227448045087,0.016043705396142416,2.1676166229723184,45.35472738599547,4.850938062576633,13.821233345217141,0.2736872395479027,-0.1284150021724895,6.112077566961286,-0.7781102277298231,9.64248632678044,-2.9034608025172055,-0.7701970045910387,9.796620020752817,-0.19360636489261884,-0.01661094233423913,-0.026420115123585008,-0.031575313189086865,-0.027375865627060465,-0.03998270035177552,2011-09-26 13:10:13.064001351,8.280187716
49.009770495354985,8.444614263741089,115.06915909868724,0.0015690403597690833,0.006817279023192733,1.4514927686942893,86.72877270486156,0.40595234990728724,-25.061855635873748,0.015360787609244447,0.032263413424890273,-2.3493096191965184,0.8473175411054801,10.525051896639049,1.3154014774073215,-0.7335255282213098,10.201275535588389,0.03934382208511142,0.06924848944053401,-0.04522256728794728,-0.0019081647770319348,-0.019905835597242967,-0.06933100819613013,2011-09-26 13:10:13.164035566,8.380221931
49.01026891207206,8.431015375294736,114.63117011895189,0.03219775091589114,0.0006985533086842494,2.3429303056970343,2.538879701691287,54.95096604490036,-11.539599451822873,-0.1910049599659254,0.014142911412759415,-14.959332007465461,-1.7583375421466831,10.004468317056794,-3.509215099483887,-0.2867058053316519,9.056879053858971,-0.004120790228826418,-0.018071410027949077,-0.18727681710716854,-0.059946513659233557,-0.011988247335435895,0.29939280244576494,2011-09-26 13:10:13.264063802,8.480250167
49.010073400455376,8.440710405334512,114.85507646743625,0.07642347265772828,0.010357352345172032,2.3955478933726897,8.878228896696719,-16.372365950426957,-10.51045452703294,-0.052299475874764516,-0.372383082821357,0.18132490684031177,-0.14535064165691958,11.314908583774708,-2.8297536093411733,-1.225033624175543,9.00676723132944,0.03211473421081335,-0.027475401433225896,0.05286204412024387,0.015448250143811322,0.0017415624044667928,-0.10840801791134357,2011-09-26 13:10:13.374033916,8.590220281
49.01064865410691,8.439453630940923,115.33809879338457,0.02998132286092862,0.002522822702084462,2.1415780719756907,0.3498018595698964,-10.893686181207553,-8.997368043706528,0.0029603663706028044,0.4341752886854389,-0.9609936909475761,-0.11168221440863632,9.295364977270859,13.587976667917323,-0.410708064040401,10.8183448756375,0.008634769579273982,-0.011067377586218202,0.04546567807855448,0.023827846937642783,-0.032557663403858274,0.009755327761154828,2011-09-26 13:10:13.474037266,8.690223631
49.011161678122555,8.43862080216383,114.7638015797928,0.018868077806886045,0.01829532940017295,2.227399201562124,37.9472694770777,-25.427724356699382,-39.16012512333732,-0.05097052364504326,0.06875930043864997,-7.159927860331528,-0.663805599385608,9.820167374697377,-2.854530552596044,-0.702131664879209,10.413297048027257,-0.01685705933473483,0.040860496102119934,-0.016110011576510756,0.026282280135331477,-0.11306522513414126,-0.00602174282947272,2011-09-26 13:10:13.584244234,8.800430599
49.01199938170294,8.438007164890509,114.60428111753043,0.04564948858688406,0.012291851494490703,1.8201753572803145,83.61034228888556,-12.569746296412328,-8.53013236731221,0.15900585210363477,0.02329001299671473,-2.711618146484099,0.4083384622689887,9.059042747150672,-11.498321842726114,-0.13829508515882533,10.277023733474511,-0.038877200984693605,0.008122117529790498,0.047904203494973915,0.019454300082689314,-0.031950252873900735,-0.05020637161335592,2011-09-26 13:10:13.684215725,8.900402090
49.01196246189342,8.439392901213255,114.57798407146632,-0.031242462307533417,0.016292977228170923,1.4007795685756375,44.05081147875528,5.141764936187981,-41.82358598410621,-0.01625955662395545,0.07767012485265863,-1.457528560656316,-0.3743727161719184,9.986833276008689,-1.0304383468935372,-0.611128336215661,9.611503556270488,0.018497195970640916,-0.005490461181786498,0.21829313695223915,-0.013211505198187642,-0.02774583173615432,-0.02729746617351874,2011-09-26 13:10:13.784087135,9.000273500
49.01258102349566,8.438918433415484,114.7484464304962,0.04066203820089869,0.01532034940258801,2.4043875536939954,-22.27835015241449,-41.786537728291314,79.80280853552202,0.16252294499390785,0.1433708944222322,-12.26305053190729,0.6962221059210463,9.845383656412196,-1.7114874261306843,0.24092800073679466,13.073360220934969,0.03753025391781219,-0.024026737604593822,0.015970610934410257,0.028178815259646973,-0.014500227602990703,0.00645346428321357,2011-09-26 13:10:13.894004387,9.110190752
49.01012489882583,8.438628987316754,114.59639424108376,0.047055647842893025,0.013851828644182364,1.8307091544985932,28.942645414357568,1.737238410787128,13.735707051302462,0.1331871988802068,0.03752468897368004,-0.5956178670993346,-0.04383202032356434,9.884544513161204,-2.3904138145081886,-0.7323645275454067,10.051910057987286,0.00808561704350486,0.03541647069916978,0.15480913024386184,0.011315160429063283,0.03106778461658796,0.023675534236364787,2011-09-26 13:10:13.994054079,9.210240444
49.01074448255805,8.438324013845806,115.63512471008022,0.04508860366048513,0.010669822558514954,2.055031800985408,-7.912003351733102,0.45949613562236236,1.8787764489845102,0.29167317213401744,0.03393090070626942,-3.8830718359306147,0.07673872390556306,8.686857846511057,-1.9764035419110677,-0.6404694694770249,10.447330590683734,-0.013726841209564241,-0.016038150638616324,-0.3874067532675622,-0.014570064287587323,0.017266941592695307,-0.02930416367274682,2011-09-26 13:10:14.094083310,9.310269675
49.01151084211393,8.440817827263503,114.72339563141583,0.0926844158902903,0.019168023223571022,2.4207092948688484,2.867061928100866,2.4677029432289808,27.52515550718696,-0.05304984516436735,0.03588186460903049,-2.619572121389703,3.06276899800743,9.98583101073671,-0.558790088049236,1.0869067347849695,9.675931533224402,-0.0006398097538201729,0.009436041717745154,0.2614694932128688,0.014100701329969823,0.030782889414862055,0.005613290227399807,2011-09-26 13:10:14.204360270,9.420546635
49.00949843373004,8.440136079200963,114.96730355003531,0.03610039030859477,0.0005255046525480603,2.251603687928058,12.822600400057315,10.295405338739894,-1.6569215237246775,0.2559512735302892,-0.03802430271089129,8.99806508677453,-0.12271242569652019,9.685513334469043,-13.553745570193614,0.2999046903618045,9.795756262977825,-0.21762909918513162,-0.016472705901886008,-0.047745142168576164,0.004846135820129386,0.015527867903950762,-0.02774280957642057,2011-09-26 13:10:14.304086904,9.520273269
49.010513482484846,8.439547920684602,114.7892902138006,-0.02203290084040109,0.009515844532392684,2.280238050543209,58.828093772497645,-5.277088944869571,-6.691159722104611,0.12968219404534687,0.13656363287667247,-1.6227353658978274,-0.45520310652443496,9.70269885269537,-3.4876286468504727,-0.5555641434849236,9.875390162842285,-0.19602157091838512,-0.00542973406156929,0.037873510935820184,0.07244317445421394,-0.07982757317556892,-0.027646624786259188,2011-09-26 13:10:14.404096738,9.620283103
49.01104959696584,8.439473116445752,114.88998506619836,0.01526892818289901,0.01177044472799605,0.98276538735353,-15.951865163276473,0.23880955416181893,-10.7309981581727,-0.30977372938674325,0.028835325114264232,-1.6547340299284308,0.553387036960251,9.258196549135057,-19.077144198936995,0.46428692017873285,10.686113838317842,0.03879696787595047,0.00842045935668754,-0.019675326519445806,0.05228619999787033,-0.007293865517970079,0.04462870083944756,2011-09-26 13:10:14.514092779,9.730279144
49.01122247602588,8.439192738857585,114.89186026933302,0.026287528707785068,0.01751517418436031,2.2976969336045023,-4.162932485947882,-6.929001891001149,-4.719336385235736,-0.2568499488957555,-0.20771916643390317,-2.469795403131785,0.05196533980095727,10.55884495063538,-3.1409890479235036,0.5040309764726831,9.91822289363546,-0.0027316873350438538,0.04341765216774425,0.30129557315401095,-0.026093885083763837,-0.0678376752430318,-0.0275156849194241,2011-09-26 13:10:14.614108117,9.830294482
49.01120463871243,8.438645234140196,115.01618881672566,0.033482254403549974,-0.012627010879530425,2.180797160621073,16.741646298939052,-4.180413546738298,29.754730983016714,0.1082497147151902,0.016806611230024165,-0.6224275233738101,0.01780463196024276,9.453789411608673,-1.1434375088872355,-0.7203846721037903,10.340726902872616,0.01235549364402377,-0.023494986371275433,-0.019104793102999118,-0.015999202375104344,0.1295699120721075,-0.020956803458336528,2011-09-26 13:10:14.714233486,9.930419851
49.01146756416811,8.436921977237054,114.99514925900584,0.02763834858773301,-0.004118469937343499,2.1114750164020557,11.224873843899337,6.757826623931464,-1.8186763402881647,0.03015404527764098,-0.21164918603149635,-4.064981527573719,-0.7667123962448832,7.7893866332293396,-4.016276905913812,-0.2094213097435981,9.347303482533224,0.010357990450336061,0.01944348805303948,-0.05328613961896896,-0.04754284608341063,-0.01158163564557316,0.005200348838792144,2011-09-26 13:10:14.824053806,10.040240171
49.011501574198505,8.440739458395981,115.95225266036674,0.0006198904595967371,0.013205609725598215,1.8602111303182662,18.64716541859768,-6.059151408860934,9.033159644464371,-0.21326575491855868,-0.1110650243828006,-0.7273679090033542,-0.4408264891362156,9.727510979228844,4.900241518141154,-1.0551638765269258,8.727609484480235,-0.014789099155172427,0.015122522228064329,-0.25894335789134865,-0.01379298807087025,0.16567948235632246,-0.013836108114430548,2011-09-26 13:10:14.924157669,10.140344034
49.011477018107655,8.43831577378419,115.02252814405418,0.018779569811704273,0.01148508704124513,2.2195000874822437,7.8045665037459795,10.571331474726207,20.129389993868216,0.26775382142305654,0.08114678347398452,-0.7294085922993838,1.3735584744791094,9.55782504309196,-4.390345756242276,8.490322088799733,9.703911412662586,0.01974730167181977,0.010841918748284184,-0.297086213042931,0.14824401253341288,-0.011144320949119938,0.24021888403390818,2011-09-26 13:10:15.024077447,10.240263812
49.01158199300776,8.438183663968992,115.00285819336827,0.036414867406707685,0.010279684709719045,2.071492038389822,13.794796956115317,-1.255607669447066,0.4222263614232684,-0.06548009082252286,-0.028590345827584473,-3.2174619345688376,1.2653851058098777,9.672273332489183,-1.3197509837181765,-0.25358652112349556,10.39498462968668,0.01369230199879043,0.006713632577138307,0.06604751718827417,0.02689565837594262,0.029718681314699645,-0.04018737420148988,2011-09-26 13:10:15.134143144,10.350329509
49.00979942054469,8.439475270365516,114.46438460036389,-0.10082496159278759,0.01192500527077615,2.266360275407168,-79.67670671361134,-0.2770778959719489,19.224602775695605,-0.012365825230513876,0.04205000737876278,1.054710625377462,-0.5217895890071143,8.458117051140471,-4.9725939965771575,-0.45816434751080926,11.993599461351462,0.01358878034305707,0.002683100533207495,-0.09574108442596457,-0.03441086770446729,-0.05193664227673904,-0.09052838360858598,2011-09-26 13:10:15.234331841,10.450518206
49.011370086781106,8.439302955784292,114.57381464041858,0.049661238760706314,-0.008091738352120785,2.3299106606592512,21.465347180644073,-11.955793581661284,-10.084767490025614,0.05614981796386806,-0.2652625272477533,0.14087622593697402,0.5426643022640705,8.95927392986307,-3.8071449413754435,-0.20379135659188075,10.679937818130297,-0.043029678421181786,-0.04982787241362706,-0.024012849652599803,-0.284692073991016,0.048169003310059536,-0.05767113407888409,2011-09-26 13:10:15.334157541,10.550343906
49.01302198719444,8.43751724573668,115.78196827510699,-0.02775526037031406,0.005220294767198008,0.3219144192093659,14.313232300811837,13.098606143392832,11.068376442369537,0.03942839816149992,0.0029254692179037835,0.015642562382645275,-0.3820886792025949,10.404658262006581,-1.6205456492304866,-0.5500788391441492,8.154621636493776,-0.010206357403265831,-0.039247591534137614,-0.06749210118501082,3.209620115457039e-05,-0.08794090232183566,-0.032379868260661,2011-09-26 13:10:15.444144244,10.660330609
49.01055742974722,8.439561231625449,115.19719413717306,0.04229688604983598,-0.0010372013816820225,2.0970808240913352,17.749382096149247,-6.286861210450326,14.10103297811471,0.14114392203615955,-0.04218450245647054,1.055572592531997,-0.8204554157417174,4.1880879894325105,-4.300147536634566,1.2560080511386051,10.039286638890095,0.010778439525111438,0.0019327204781400763,-0.00977988286044464,0.013460328386412188,0.06388711456177124,0.02200355518600574,2011-09-26 13:10:15.544153916,10.760340281
49.01063458129714,8.43753694454009,114.75345650792792,0.03792219421518297,0.015922061253370888,1.9676607528421148,3.3963174719812823,-12.138830743530214,-15.16168106873787,-0.24116716411296274,0.05959214301587718,-0.36003265269412776,0.16305887042345102,9.946782269692497,-4.659995411146816,-0.1046457861842775,10.073489090664841,-0.00474839591777598,0.04277196004124402,0.0016165768734666616,0.015769669532727872,-0.029317758916497995,0.08374807771639145,2011-09-26 13:10:15.654160900,10.870347265
49.012113986517264,8.437188088078921,115.02001452131496,0.02016726233135328,-0.08709670589394088,2.3277971302238445,-36.64758513732698,62.41409349724656,-9.887019596775184,0.10196050980880617,-0.35563625770593527,-0.6463881714458184,0.7615914115758059,8.616867506132573,-3.3437033856103264,-0.03937144193424678,9.513366827834275,0.020554597843193072,-0.0020539221589362224,0.017410630226545768,-0.019945934571783355,0.03697085591501297,-0.02289941844067196,2011-09-26 13:10:15.754196874,10.970383239
49.01099259338337,8.438073845676177,114.60052968651217,0.028073315068503874,0.017615219322378788,3.0034445495916984,1.9738195307741808,-10.71305873038701,23.75084817627774,0.01645901002734802,0.8162262317859426,-1.0114523108783056,-0.8121491391418034,9.087984903925324,-2.3554526991608897,-6.869100345231636,9.64322057214355,0.00022777702685418226,-0.009188886182549896,-0.05733685383315798,0.037482010348271845,-0.01907695398685775,0.0069244970143357894,2011-09-26 13:10:15.854153210,11.070339575
49.01356452229443,8.437796665417938,115.02953400025868,0.07342764648902386,0.012579996460269506,2.2469106676357793,6.839086941429615,-6.049213080333459,7.676860024306832,0.2026897389608552,0.03427500145682505,-0.6274358901445618,0.29187389919668283,10.577562801807456,-1.5310905030281023,0.4436992589646481,9.492399343715894,0.02535578941260157,0.03488834740668666,-0.007192688482356016,0.0061084331114418106,-0.04304262549789884,-0.004445789529024794,2011-09-26 13:10:15.964157257,11.180343622
49.011261973199005,8.43480115752414,115.09601327757026,0.05366277708201991,0.02094587013913734,3.3387922965018078,-3.6659781750784184,-10.933461556509293,50.509486045840134,0.46999151360581437,0.040554791457449,-1.2724321326139394,-1.189869672844244,10.369323147174942,3.133623249183368,-0.7484149060668679,7.895309389502909,0.2465531902194934,-0.03375695646934821,-0.02452867252233157,-0.12169042733526533,0.005035874340785881,-0.08294887775208488,2011-09-26 13:10:16.064156308,11.280342673
49.01148543515913,8.43856974931049,114.72213262466907,0.021938946133114028,0.014693630756276874,2.490694500092797,19.977680927051313,-58.38446379675197,31.942278500671655,-0.15874898784108069,0.0012630864436164665,-3.2463587951250954,0.0013386966317855964,10.294256672024757,8.613021140531721,-6.230191938557518,9.968381763085269,0.013540935994952045,0.0048720966288841655,-0.010683732976235044,0.003100759593749953,-0.07862974203466747,0.15349820736266015,2011-09-26 13:10:16.164173419,11.380359784
49.00974365338147,8.438570770824626,115.08081065420434,0.01913624016188389,0.014336748558994037,2.097718695242636,-0.35479393988417174,11.857555064123169,-16.426303736459772,0.1963701532587599,-0.11039174934414368,1.4752067665953525,0.7688227223700095,9.560003883215902,-4.546156554763588,-0.5955486360115646,10.325949019287055,-0.03378319237630478,-0.01772087955577766,-0.047904857889922124,-0.014363163601594633,-0.01036113099014489,0.06412106855995026,2011-09-26 13:10:16.274135110,11.490321475
49.01373273898635,8.43857268737323,114.73661362938479,0.022649924970832878,0.0005497824984036538,1.9497260232064422,-57.118807633232585,-8.937455266337151,48.253586639231585,0.18796987954003144,-0.06277405135792785,-2.123491766673686,0.9914176980136213,7.971036154872704,-5.522493194798997,-0.1484519544203718,9.455101513256306,-0.18402207054283037,0.01576894180642273,0.0322401832003817,0.05060305679919372,-0.010489054221786533,0.05450831570929393,2011-09-26 13:10:16.374186980,11.590373345
49.011048012016566,8.43761312516244,114.7293987025077,0.01043132128728181,0.02121938745702988,2.8763431952364655,-5.608044688538773,0.3255252169884775,-25.062736357022402,0.04784766437589131,0.05660196286269524,-22.31056401121999,-0.11220278474284118,10.28352814913222,-0.1005890962446323,-1.0059194288650475,15.116626682895408,0.03395873818274936,-0.04717867555769258,0.010795760559987001,-0.007490339903278019,0.025170170114895626,-0.002786556418907439,2011-09-26 13:10:16.474182245,11.690368610
49.01045335068032,8.439043447769254,115.01621895644082,0.027828211764521386,0.011047180405006874,2.1251917066051083,-4.98797566350825,62.35298936387371,-24.823596413217963,-0.21579969310471697,-0.05175778044109548,-0.7019639735855461,1.4568071797363276,10.052577119828104,0.8465401405043171,-0.07142868887011272,10.134430935203742,0.018708462956542854,-0.01657856954204838,0.025181943469059897,-0.012645394943022883,0.012006349623347016,0.09684632808578988,2011-09-26 13:10:16.584295297,11.800481662
49.0112236422965,8.438457409705572,114.43172174828558,0.12911913737219602,0.00037525394063123163,2.089172014560545,4.264815749748941,-10.341224749279906,35.70749850243131,0.23388019005086222,-0.09259693474986856,-0.8242941041453171,1.065715518619829,9.279548102421405,1.8919736010414414,-0.958363693897699,9.424365849604213,0.011960788431295107,-0.12310536937359172,0.0013520361635347357,0.042636296970897145,-0.11398259611400305,-0.006268691562055229,2011-09-26 13:10:16.684327660,11.900514025
49.01174517261639,8.4389818080043,115.03027029302079,0.01854549053325765,0.013595457788578503,2.2035807818553583,11.491924579707476,-2.318996772928779,-3.3778411208374606,0.1872275189311182,0.0025618336178149445,6.7019597885033555,3.609312020433601,9.399949954492085,-4.373823246560206,0.36243747350410227,9.839166266323165,-0.011819846150555915,0.02063400627251909,0.01776134570556047,-0.02442448373757723,-0.013794256686500974,-0.13825586589406733,2011-09-26 13:10:16.794161058,12.010347423
49.01037413859796,8.439578181511383,115.25398335560048,0.02294016233658573,0.017602088922085896,1.8221824336950188,1.6556755897093374,-3.480678673829025,12.804022199065223,0.2612669505992157,-0.10597722319057429,10.22196810763875,1.6563078136144,14.352324687948421,2.5365507884392775,0.1031067222603387,10.38766393904575,0.0061855808499277146,-0.014407682958218912,-0.003788381421025685,-0.01685274113069241,0.0008742157027666806,0.37629307982072296,2011-09-26 13:10:16.894131394,12.110317759
49.00977284839007,8.444139410039876,115.92132051165378,0.02808535787224419,0.03895525211717906,1.9146743390841614,12.926701267089708,-5.349014550657258,-15.274304336592584,0.2609249022073871,0.0043070564973868505,7.336151038978687,-1.3318996691633735,9.096164448049386,-0.6451862057472165,0.06970508665294076,10.775691106733378,-0.009166540469842405,0.02499938229202715,0.05043548995310893,-0.024908806271492234,0.021410496406856147,0.008692575032981745,2011-09-26 13:10:16.994191553,12.210377918
49.011935757456214,8.440627627735617,114.89461160335377,-0.0318394395011984,0.006899345473862155,2.145549946432459,-13.3864624045839,-3.365550719231287,-5.1612021200149885,0.08462713107190187,-0.002401316663948685,-2.0376688423001625,-0.2663367511688878,6.151353862497309,-3.0064971743876345,-0.6368186671641743,9.63198011732094,-0.4423743291280075,0.033877884189454484,0.03134542703073043,-0.010411594168408419,-0.04021698654972329,0.06867695771272979,2011-09-26 13:10:17.104155004,12.320341369
