lat,lon,alt,roll,pitch,yaw,vn,ve,vf,vl,vu,ax,ay,az,af,al,au,wx,wy,wz,wf,wl,wu,timestamp,rel_time
49.01062456800414,8.440170084753051,115.2317613867005,0.006499324678886222,0.013004937895490044,2.5871839840678916,-23.582616168639348,-21.525547262062794,14.926562920246145,-0.024918348375283332,-0.044196100841164376,-2.1611004678869157,-1.4361987709768558,9.587695455464077,1.4604627084411164,-0.11159706105707468,8.973264603638967,-0.0333692708922741,0.0058686132335273086,-0.08967870603970268,0.05745276241552917,0.054017127003807536,0.08870040048879557,2011-09-26 13:10:04.783813635,0.000000000
49.01062589166311,8.439386531505017,115.48718055439375,0.015451364454755494,-0.0023636502996040327,2.1986450513671802,-6.621542358287423,-5.384389330717177,13.745570028342598,-0.21523357742201782,0.07040089533638887,-1.3151840707329268,-0.37029368614083047,9.29550109454612,5.408517955376905,-0.558155797552071,9.95688132587937,0.007388243222590082,-0.038870000629067356,-0.04643576817068023,0.04692452074879504,0.006730697405583314,-0.0359384187502744,2011-09-26 13:10:04.883633226,0.099819591
49.01239476891863,8.438713694523182,114.9077185851089,0.02147507308058384,0.0024690248218002804,2.047139738157832,13.48964111819025,-8.165216731949872,16.95491975865731,0.10236569700793748,-0.017188486692513175,8.259518282338556,0.36105630739961914,9.534959780037541,0.7584592187544142,-0.9140815865694691,9.974944886461023,-0.0018515708480791454,0.022374475103010286,-0.04901642859906556,-0.00033437900521747325,0.013031954326205745,0.010196066724698347,2011-09-26 13:10:04.983623089,0.199809454
49.01070373113511,8.437332114281858,114.99082510091537,0.021825359711976394,0.016887099185155362,1.2796551118062336,4.168950305765236,-14.040548060575691,11.359033844644756,0.10060263754185887,0.012367817742766022,-1.8364616189174674,-0.882294983533197,10.350694493895958,-3.5845881211828763,-0.1549794155948403,10.664686647049447,0.04152467513514076,0.012042375527633495,0.06303906544464802,0.008368629919782234,0.0083031034650778,-0.025309202177083857,2011-09-26 13:10:05.093657185,0.309843550
49.01547945816882,8.440329604709413,114.73152335565612,-0.0016406672427615558,0.006248872979796758,2.3118877312477637,13.689345207817695,-16.953706469842054,20.76710313406422,0.071500002739276,0.17685863346584388,0.251881574217835,0.21189496041244948,9.2413921169494,-1.846167867947034,-0.929466465645649,10.224261462208602,0.006964205477559995,0.058632827823860756,-0.03608679443234823,0.007613324948794497,-0.004894616739254605,0.01999057284968042,2011-09-26 13:10:05.193823011,0.410009376
49.01145763126481,8.435369240732571,114.72407581904197,0.014628617728083586,-0.0034307348358687687,2.970184917670588,15.876857979504072,-13.817959261339706,27.007049213846457,-0.6823891140452304,0.11672612338976485,1.3636189704994774,-2.1982170344021963,10.055431447121451,-3.8962840637245995,0.7490446277796847,11.576819382344786,-0.012265988778176463,-0.1877213785421536,-0.06275034503055674,-0.04207264040571965,0.02035360666779484,-0.005770891887663884,2011-09-26 13:10:05.293672144,0.509858509
49.009438048976705,8.440491690626306,114.8315752438671,0.03480183701235299,0.03839333906169357,2.704758392147385,39.52582256284152,-10.877697409472862,22.760299144467748,0.25441917468837866,0.1425281026867799,0.3492735845498389,1.6520045114104651,9.23597548270936,0.5129404125206377,0.001319383966510712,9.872049697269603,-0.12479448144270605,-0.0007506322258584528,-0.04652929801215647,0.0017831953585852496,0.08540183387741147,-0.04814805118501141,2011-09-26 13:10:05.403662726,0.619849091
49.0114577555976,8.444266027644748,114.83889674930965,0.013585692056440559,0.010791618147059518,2.524201504815881,-0.9146177240176723,0.28779344048555267,0.6010383873128173,-0.794074059216073,-0.01897784683992791,3.7629203145561596,0.47834851077538587,9.392632651720081,-1.1545875093678686,-4.022714910217978,8.869979911046574,-0.01787642863894975,0.017847836780865413,0.018501486586286024,-0.021335793525280818,0.019331229904972335,-0.021330364932063483,2011-09-26 13:10:05.503628097,0.719814462
49.01065730679457,8.439573812287351,114.843306307234,0.012856512820155005,0.01615433261133959,2.6488109497810046,-4.823146011270304,15.605461969438213,5.34684440766251,0.04629275657570853,-0.10637761432261066,2.5559952834224173,-0.05589314778728868,9.08569491822088,-0.9936074202923163,5.610343871546231,13.50528875272834,-0.041647064402766526,0.012595553467639475,-0.09920376964493277,-0.04443151591815958,0.005809055241711254,-0.036087259423121264,2011-09-26 13:10:05.603676910,0.819863275
49.01082737492773,8.43983733976474,114.66430157786422,0.010082714467803365,0.010874677323469414,2.0553465760290446,6.699800757636672,-14.729707327707295,22.01042457553003,-0.19285755521840428,-0.09089544613331062,-1.7913794228568194,-0.8241956468001561,9.071343153278864,0.6917644653358151,-0.9684529593750953,11.524034794238863,-0.01590062590995806,0.0026364466407545386,-0.0008338803684839087,-0.03176091329392773,-0.057804031229499155,0.0457580647874525,2011-09-26 13:10:05.713731980,0.929918345
49.00617691453999,8.438785403192732,114.69102910779914,-0.024643991520924904,0.01006291928962286,2.732658969811409,5.446653772953842,-3.7641516483153996,38.49121473358972,-0.04075734156858265,-0.029392492361054123,2.102884331918107,5.959483632208982,9.554130491402722,2.8024912169611196,-1.3709163638824458,10.186101348375606,0.0027518194376154213,-0.017383699191383044,-0.14908855536521748,0.024885997162598983,-0.028107715769715127,-0.07814950258340475,2011-09-26 13:10:05.813663327,1.029849692
49.010656221292194,8.43929710548045,114.90789090866862,0.02313904182745748,0.0038880764061016504,2.6830265849725516,7.2807596236796375,-37.20239088054308,17.998000038508053,0.13528233770020515,0.09270699022317277,0.7777062868136772,1.0345012539810197,11.070402322423574,0.024636282551341888,-0.26825093952466106,10.855762052527883,0.001979977745044664,-0.021146487690038976,-0.01559185289322004,-0.01328585535173926,-0.04015531056989976,-0.008894216626271318,2011-09-26 13:10:05.923740362,1.139926727
49.00565365477513,8.440023738473856,114.8301836239404,-0.0018385152440461641,0.004289123912684504,1.481178897382747,18.592509058432984,2.7958618475643338,95.16573657585289,-0.08315960475394739,-0.04098597503756969,0.6716316136652855,-0.4556271088567497,11.210362927198425,3.936932345101849,-0.09801033197547815,9.385812296273961,0.07153070556998974,0.03300314317014606,-0.005950042657504904,0.02412683296954122,-0.029907918436140817,-0.059994124551258264,2011-09-26 13:10:06.023691375,1.239877740
49.00653517328327,8.43875180731515,114.70242622974537,0.031793746907355355,-0.016073644060968884,2.325092076074215,4.4201221427633,-21.748596179992404,41.995642928456746,-0.06162206035024639,0.13739095586193334,2.1417407415808065,0.04355412156842765,9.893594758758077,1.5888155549808372,-0.22628713207506584,9.760832850557115,-0.0008037027322464821,0.005973652709734495,0.007243030934918161,0.018598004482047042,0.1024815937530479,-0.05854757793124826,2011-09-26 13:10:06.123706508,1.339892873
49.01025884480735,8.43998296151336,115.21417420330904,0.020755720484741634,0.0002940888135433547,2.5528577765399554,0.5091069313638528,-4.604883895679665,12.358454019307933,0.14810340248483428,0.20623819705265087,7.832553422397412,0.43454890908073,10.830874510317747,2.950829809908762,-2.35407219567759,10.36431026512839,0.022291610013973995,-0.003920908961280535,-0.10549846934059989,0.038025567236776046,0.008287857099808501,0.02740128540219447,2011-09-26 13:10:06.233749190,1.449935555
49.01035916689714,8.440810784815055,114.79940852705677,0.030252451841081104,0.015041009433964338,2.7908779161440647,0.5543372033924081,-6.685502156970964,9.23471821160229,0.5774963346295114,-0.058278964990473206,0.563044475580065,0.5957893281060673,9.37663945609948,-0.19154469730737816,0.8726228994949516,9.596142226768745,-0.018378301766908994,0.01895321072025053,-0.033463301202143865,0.02130795504825301,0.00497485727600201,-0.016546717209231523,2011-09-26 13:10:06.333702569,1.549888934
49.01125927985425,8.44061695368117,116.70490201120211,0.029087055235759142,-0.008285909613356129,2.802419302775469,-1.3384945012243072,-11.844997018081429,29.273839545134635,1.945241478480628,0.08998825922537616,-1.1933402042840053,-0.8667860677315721,12.916627671729692,-0.9572129006524595,-0.19303625163202576,9.617113594462237,0.006781681118909108,-0.026692488495699936,-0.04098554214883852,0.0013836981730416722,-0.04438943943101002,-0.03762177322947001,2011-09-26 13:10:06.433685217,1.649871582
49.011348633077645,8.43951369686662,114.9781904323008,0.03973675346736238,0.008950502764237922,2.264368178877402,94.15775904464373,-22.676835802813386,23.8758630787613,-0.05885593979574772,-0.017430402865698268,0.8052852794805717,0.145224168517565,10.15075736306847,0.9283572877825024,-0.10486629187919061,8.240924668629361,0.00942092117263921,0.00013042650674427447,-0.0223245357099945,5.320204605983609e-05,-0.23664154751640729,-0.08576397752886902,2011-09-26 13:10:06.533725196,1.749911561
49.01169022552439,8.439126821305615,114.99508105445543,0.011848938991165951,-0.0017257403112734774,2.1381791365776666,15.633850769502946,-0.21961288979394844,4.241216344747195,-0.33921816910783165,-0.16285367650283247,-1.0008552574390834,0.6396931849117566,10.870024884000225,-1.3966303475720012,-1.3057958715677076,7.936448301153583,0.3283353492817704,-0.04663977451154867,-0.023062072831466905,0.015405025492477848,-0.01056391026069196,-0.028653050201444877,2011-09-26 13:10:06.643747213,1.859933578
49.011204032033355,8.438112414220903,114.87265202193203,0.016375594535427473,0.0033751012464256027,2.2834682877198658,10.973769785291752,-20.495581516101993,-82.3995980486143,-0.19703459823854008,0.023008787346266494,-0.5645327491070186,-0.40101274121320646,10.2956019341819,1.3308096810394834,-1.981389235508927,15.657238380098917,-0.019197460760680823,0.025090536858045298,0.040896835388720035,0.027793180794470358,-0.007402170584955348,-0.06459321340634866,2011-09-26 13:10:06.743820339,1.960006704
49.009913313264995,8.439148101195537,114.99103494587231,0.040676405213297254,0.008711470196222962,2.3739775786446553,-6.4102373160528145,-16.18628574194942,13.24320384511211,0.5323834279739584,0.08564673557843516,2.0051733043127165,-1.9330882672610359,9.679973968410355,-0.17072867475342113,-1.3462778589416948,9.147492483186126,0.03103873451606745,0.03319702799706452,-0.02697720142859827,-0.012202281432900692,0.04574786744656963,0.01343410355447807,2011-09-26 13:10:06.853732801,2.069919166
49.010719264938,8.439547020850304,113.90491079603323,0.02652412494625406,0.011236157462354852,5.403218563598031,26.22933339166613,-53.90305536082213,15.475221598097427,0.16798051224152974,-0.019677446914060075,-2.7354501829106774,8.387302289747977,9.673704864770027,-1.8433320439636376,-0.6851785747546258,8.803062020779072,0.021908226696778426,0.01773386308175028,-0.15755135480288895,-0.03289768938756491,0.002529846611374631,-0.04483171121422526,2011-09-26 13:10:06.953734971,2.169921336
49.01003048941138,8.438847566884522,114.84746446651911,0.03864444199485238,-0.006645776881032799,2.7866822003893312,2.3435716526712804,-8.731086500627928,50.40833444307784,0.009280173846254063,-0.03230909479101782,1.3570003260541688,-0.6569327502836375,9.99175928274342,-0.05069764355730183,5.825295621353481,9.87635407120262,0.007061776570964084,-0.03511597689347838,-0.024900911767844897,0.013024400885265316,-0.004055526696133495,-0.10270167929969981,2011-09-26 13:10:07.053725403,2.269911768
49.015777294821376,8.438489525454266,115.16196808715017,0.043188630273379755,0.020350601864008652,3.1389428581524443,3.7107051706607024,-11.602496959226471,6.2300035154958495,0.6725810989833714,0.041656677099252,0.866632666443178,0.35161531755048125,10.30703570579928,-7.296518703950151,-0.7802361396124187,9.886798732778061,0.050074209257410775,0.0816523036067867,-0.08484360666630998,0.0027669992633680084,-0.007644736474905432,-0.0391598034816327,2011-09-26 13:10:07.163744500,2.379930865
49.01048937993962,8.439139603713274,115.261542871872,0.04105352226035512,0.002444003659168022,2.216889447188576,-13.735541952362759,-64.06088776536035,27.298908793328955,0.3244880895498354,0.06762291570444978,0.1972394173388512,0.7694598917291308,10.601060229122949,1.8074479521010984,-0.4552343115114669,10.450776786638018,-0.026759183958669202,0.01933341972545212,-0.10796456606131302,-0.00903177394281562,-0.02139849390053905,-0.033823417747844475,2011-09-26 13:10:07.263832962,2.480019327
49.01493579862853,8.43985166922332,115.15315711274587,-0.051873742540341924,0.0100431768496131,2.1416134380322536,27.602407471669288,2.353207651097085,8.057262160782189,0.131318911306906,0.03974431277533664,-9.480952497558512,0.0964355786390595,10.231732648197683,-5.58883767079051,0.1697816889580389,11.024864353997005,-0.020365609627111404,-0.014678388757617082,-0.008744948532989254,0.14805675107149652,0.17258251167536667,0.23854377595273066,2011-09-26 13:10:07.363838349,2.580024714
49.00970831545563,8.44019028954431,114.89029567266469,0.03675970379026679,0.009864450474454549,2.7836923752004563,-11.334053947926723,72.42814154858968,27.56406847555118,-0.002705800181998348,-0.09097831747808563,-2.0227196118311928,0.9560682386479051,8.968030251611113,16.75732491990743,0.918516452183055,10.25079524632929,0.02471977980062855,-0.04437461250018493,-0.05251212753262466,-0.04929841488585075,-0.0105584474407199,0.0534717305600025,2011-09-26 13:10:07.473802736,2.689989101
49.01077863080859,8.43952178519053,115.01054174672963,0.04241552243827165,0.0008358717948406356,2.732423903617871,2.8037041139154297,-52.212777662726154,2.4521806392062224,0.20977884296989072,0.039314771980764336,-3.276351356455926,0.3721597738725687,9.697099118297974,4.296171947272554,-0.8592025674752504,9.333011780624958,0.04739658205078983,0.010621222090428383,-0.008815786611354414,-0.037237221644494806,0.010608474948778928,-0.005240917356218199,2011-09-26 13:10:07.573784704,2.789971069
49.01107753692716,8.447446368965485,115.03978717279196,0.02630707779113046,-0.00456650638605083,2.963117625014558,2.460137700106934,-14.102126725014086,-3.2879214782414223,0.07101816228513491,0.14549588814628525,0.09186564221903254,2.2761158130209385,9.983692612148882,-0.3150446660597464,-0.5297547383647057,9.916535565646582,-0.03009370273553672,0.05309500831670264,0.013394150930429723,-0.009627084517306584,0.1704151021345067,0.05314980703163189,2011-09-26 13:10:07.674011558,2.890197923
49.01006328126949,8.440043489528188,115.12990340334909,0.0298291414702192,0.008589728737748166,1.8145462732831694,-4.9066819441802245,-4.1482434800795085,-8.150528915590106,-0.08566863731338659,0.22436293186158407,2.3960352812235013,-4.936581980659844,7.497402057018539,-1.991448409465875,-3.324822463504906,9.598018032800953,0.03219309404801789,0.02867324534526315,-0.4158496038663348,0.013407966140599843,0.02627447559119669,-0.12231161916662453,2011-09-26 13:10:07.783894355,3.000080720
49.01033797140022,8.439097041835318,114.78652198926326,0.03244130454902826,0.013499653166194753,2.547450652228307,5.752133375980527,3.0347266870049587,6.364025455980118,0.09733910368392237,0.08437571299808716,-0.7605285203492634,0.8365465801557626,9.579019641891017,-1.3930496490151159,1.2294496022148589,9.822116346188574,0.004358875327813854,0.07441075335589789,0.03947092682080075,0.04202542990810264,-0.16394450084076956,-0.1834776951646441,2011-09-26 13:10:07.883841386,3.100027751
49.011464260035744,8.439396621300705,114.59875590204727,0.049966641530320696,0.0006346410900434467,1.942001384998038,12.324253890463655,-6.777463267724933,-13.281892030535976,0.05216613534478409,0.7332014417314774,1.6935193897578205,2.534680193151152,9.679219763812158,-1.369517750113133,-0.3841084809640963,11.551482282640498,0.04745937709712134,-0.022045213951183765,0.047646496625699294,0.022521614243982843,0.15033500280515721,-0.17323939586171963,2011-09-26 13:10:07.983833058,3.200019423
49.00997117536065,8.437662901625206,115.03264310181999,0.03107047511221958,0.020523420246546034,2.209598118880418,-79.48842818868846,-6.656706536611879,-7.818552506886217,0.0505996697039211,0.06028853677347693,-16.121194134662495,0.2881503240454078,9.89581212048009,-0.645180649015296,-0.16373746295300218,9.757760264132672,-0.15403532217831,-0.019693539052827058,-0.044327398513250765,-0.031333554365152984,-0.0012593949109921967,0.1101000191969397,2011-09-26 13:10:08.093857888,3.310044253
49.01087936456899,8.439358562547694,114.96672368377143,0.03588795375330182,0.015193790102894074,2.489242231712726,-77.86812233586583,4.660034495879781,22.77643420619608,0.2749877744377599,-0.2505089018839576,-2.368691603876392,0.42227629661370303,9.938942541578358,1.1164746205220426,-0.7110035915612681,10.075924663754598,0.021607484509825543,-0.04052195026609594,-0.03353752293137684,-0.019474424740717304,0.03422790478377687,0.202661645843417,2011-09-26 13:10:08.193979558,3.410165923
49.0115732992816,8.438533632339729,114.72617962611675,0.02073884034306532,0.019606487363939835,2.1555261753135566,2.861140860119926,-16.891126611454148,17.465029929365315,0.06025849337274549,-0.06790048885261905,-2.0871441688675736,-0.6413895582964031,11.656109048498935,1.404545006399389,-0.5703473673811468,10.075779532110985,-0.00108058075457005,-0.02702433119628298,0.0037408950798724395,0.0014106946654308655,0.030265070976738244,-0.06680549327504035,2011-09-26 13:10:08.293843903,3.510030268
49.01075695849402,8.439405875440686,114.94506960086899,0.03454125257060808,0.015411884534541146,2.543366867203485,8.734777271137494,-10.6386846676896,20.138321152698577,-0.018431343653560264,0.005453261422709459,-1.5756334249572772,0.706191987454077,9.670526535922695,-0.3687820091440343,1.1863234352276746,9.925235360423494,0.002952282376976593,0.009939102437237333,-0.1070359474662402,-0.04997136875017087,0.01039227141261466,-0.0016487964356021005,2011-09-26 13:10:08.403826434,3.620012799
49.010222712983236,8.427942196617495,114.94329079470852,0.026385341501229568,0.0007129970218107354,2.386710792763736,4.5781792615423385,66.84318396013309,17.727412468459775,0.27967271475209576,0.17077904497382207,-1.5287986094548627,-0.41142416732665854,9.769211021279867,2.1082726513704015,-0.8785660252772745,9.50540057514153,-0.055192457824850646,0.006927700600188812,-0.10975173164158777,0.0029789290254637057,-0.008740882501035194,-0.09794236360235542,2011-09-26 13:10:08.503846371,3.720032736
49.010748340114496,8.431195161397824,115.23824146117879,0.03215033254231307,0.013702666620934608,3.0152824186901652,2.9756713922024014,30.904344874821454,9.435302485934148,0.0416795046682021,-0.06700745922540083,-0.4580337505926126,-0.1980319423466772,8.78885809717581,0.8061447952544765,-0.36926310757162734,8.81026080804274,0.12764726103218205,0.0701215729464867,-0.07108760289041059,-0.012361426812556128,0.021591630896115755,-0.03266690300803921,2011-09-26 13:10:08.603848101,3.820034466
49.01097912952141,8.44012245902227,115.19363593201209,0.0335500290647005,0.0050748093830290135,2.1132596481175066,9.53546035944166,-3.3408826557538553,4.404150450830872,0.15220664622653327,-0.009549061249875226,-7.491820308614379,0.28595152279449937,9.660027953886923,0.7807241507352325,-0.5112377318947456,13.476002632080426,0.12740354427224354,-0.043051193987549634,0.012927924783187137,0.013446361390760164,0.049526820434267156,-0.06898120269466279,2011-09-26 13:10:08.713938001,3.930124366
49.0106919795332,8.439732365041616,115.0578901543219,0.03269907407740816,-0.0029381479141364925,1.787643704401849,12.302589770449059,-14.975138853556361,5.549258241212976,0.1898816380709583,-0.11568123053750494,1.2899989026001795,-1.8997573765013014,9.665750381828882,-1.8513860656051844,0.6057720495769017,9.727474507935476,-0.014939156207258948,-0.0010955949175861603,-0.018433733173450456,-0.0013426020097206666,0.07023078652523125,-0.008279389099391216,2011-09-26 13:10:08.813856373,4.030042738
49.010756604823115,8.434660246398346,115.21616557066052,0.027928817142593862,0.005741024686009938,2.636464147345457,38.71091177483112,5.126206579426886,-21.01166482521717,-0.14879600522458106,-0.11543612967902966,1.2780659482175847,-0.09757071627106466,10.3389987801088,1.6798149375763731,0.21106370723334145,7.580754421213239,0.26951202014379627,-0.0009494431673441345,-0.1477762993790729,-0.021930364736802318,-0.021713060180919716,0.013848256836486914,2011-09-26 13:10:08.923885902,4.140072267
49.01211688074008,8.438075144045525,115.14025357721806,0.03289843707094738,0.005471873989501301,2.5949747210759404,-1.5198776128369236,-18.237283586641613,-7.442034583063402,0.7024243137111504,-0.10694105329315412,-1.5084922029717016,-0.32873927310986156,9.956047474821244,3.1149198623904275,-0.27028557325972447,3.997671073720399,0.007983879353915126,-0.023436214945082034,-0.13754380587383697,0.03730564375435924,-0.010020840762554876,-0.012243494370279835,2011-09-26 13:10:09.023861354,4.240047719
49.01176741710506,8.437641286876772,114.1868131251849,0.01845587246628868,0.006087509419745953,2.4664109935031573,17.733344216404433,-17.382299467353214,7.945002833043249,0.06845922396241497,0.035768545525375645,-2.3082378681199396,2.568619541394896,10.730482307197814,2.0652813309890226,-0.0048672129650674245,9.797340826539052,-0.028047642367825372,0.03209275745910172,-0.023958015232413213,-0.009665107619495515,0.0032336467256113494,-0.0011245157943720885,2011-09-26 13:10:09.123872701,4.340059066
49.01178129635075,8.43833095820693,114.88718875140226,0.027629670033055106,0.07402259792548667,2.1014035774689233,0.28743522771057783,-17.648812498604286,30.186092583033684,0.06579514026170592,-0.18080690236430852,1.9533495800084189,-1.3332388931713228,9.844884104829218,1.2928997167417051,-0.06105519153604577,9.855619834758553,0.027477843670019916,-0.013930777071341533,0.03054387777981176,0.008067641539437129,-0.028995402543715593,0.010426627277376622,2011-09-26 13:10:09.234035255,4.450221620
49.01302582682379,8.439024915604225,115.06176842320498,0.02696318437429862,-0.04264381688231154,2.280963414569253,17.558055873368016,-14.548345298264582,22.910404742533913,0.16406990666820354,-0.041647391215981516,3.1826207664144377,0.9395858530094509,9.190285498697223,-3.6428631277412853,0.1554524737994405,10.538409660974676,0.030564256415671714,0.007837797714723543,-0.0504711840937991,0.020064668243550243,-0.034344183208291454,0.03830238050324972,2011-09-26 13:10:09.333882450,4.550068815
49.011051692121846,8.439831932065747,115.14628752005054,0.019803129963976603,-0.005916213807146624,2.7733650685300097,10.75318035567928,49.93843304340265,10.266617958357894,-0.0717325919994427,-0.04388203015560497,-3.663526287377341,-0.39684749102355504,8.116391437099686,-3.068758523999659,0.4096234882034578,10.351812066100258,0.013033787985584229,-0.0666472196007361,-0.14945115867391534,-0.09753258126482628,-0.0512450763121299,-0.07501432934986765,2011-09-26 13:10:09.433863288,4.650049653
49.01088509764964,8.439967544610164,114.83220264707573,0.022605066702499153,0.014726986075577694,2.090451329787518,7.427812859699248,6.5433597030277895,-40.015810509790164,-0.13386432226960257,-0.043168674897468166,4.183936430837348,1.6927636244032092,9.446584249527243,3.816297682009403,-0.3578163228242127,8.571518890916877,-0.03179804669950851,-0.05209763802378274,-0.3045329948030481,0.02371389999784917,-0.03387907767159701,-0.03211375773162462,2011-09-26 13:10:09.543910840,4.760097205
49.010860538671025,8.436806286014935,114.72496341442596,0.02142745869322521,0.011762192414936564,2.7413284692927267,16.135595912630986,6.807018775322897,23.09997480361911,0.07729969024577514,0.02114190752679249,-1.4905433832820791,0.30539119503486417,10.320208922732125,-2.9053659332908253,0.44494915920915334,9.811786025951116,-0.13823614739898094,0.03454047800652809,-0.04921763256655075,-0.028762836134296907,-0.023311783050119574,-0.21754398728453095,2011-09-26 13:10:09.643940264,4.860126629
49.010855972803974,8.43804229348292,114.76010145430958,0.017621351865193043,-0.00011298542673277793,2.8613883999763354,10.907726928855965,-6.494198139333163,13.354051374207785,-0.05617532649319396,0.03749054980841097,7.136183102125211,-2.042577675613683,9.659255268988726,-11.257028750466418,-0.6004818986822631,10.110463791316667,-0.020754008594233264,-0.0010941945575416046,-0.05617104295685635,-0.05566616069465962,-0.009878372892486033,-0.12624545853595723,2011-09-26 13:10:09.743948663,4.960135028
49.01113965760822,8.438436900184522,115.23738341291903,0.02115990934302351,0.0010077430208143426,1.8672765242578175,23.083850062625167,-51.199126129929994,-10.863120521793817,0.05362163269962189,0.15074033991836835,-1.209777811989454,0.11534901617731488,10.56371376116315,-11.587035430032426,-0.5129971707575232,10.230774455936661,0.04241718025175181,0.13844917405620247,0.013915552212989846,0.04729981534894058,0.011870177253993863,-0.027146172701392975,2011-09-26 13:10:09.853904012,5.070090377
49.011246192889324,8.439884655254922,115.11130805386348,0.03180085933932256,0.008229205012281868,2.1538451995384773,7.588565953936848,7.497291059139432,13.137378126107494,-0.0022529335819262315,-0.02223345957405396,-0.4324814100975938,-1.516941154406923,10.992494501736186,-2.5350065774184607,-0.46270460052700335,9.378040379247494,-0.0104453123500797,-0.001011903348123309,-0.04724365219942048,0.0006839652586321972,-0.050320746259124347,0.01641545339472275,2011-09-26 13:10:09.953894437,5.170080802
49.011299249310845,8.439251162440819,115.1106039793755,0.034991679401484774,0.013147531877771406,2.363339018455022,-2.17497245942012,-35.68874379165385,53.60844490376465,0.11463777288912531,0.022598127939283646,-1.7408024701309968,-1.2847999938923877,10.530197151979777,0.8065479841084826,-0.38474861346070616,11.156309764512663,0.045674222688806214,0.030680833640372218,-0.03616342017126484,0.01906233737079934,0.040570134325044846,-0.03606770266740484,2011-09-26 13:10:10.053906644,5.270093009
49.01131230284343,8.438034458842399,114.70985835615953,0.0391333612219824,-0.001225018224311143,2.5675560150538357,13.86578263199589,-12.636619534882609,-0.5885998089475564,0.07477617861546594,-0.027645144858306145,-0.3515439649484176,-0.3519061471440383,9.499220128596658,2.7871176872837875,-0.6510898279769995,9.628209878898623,0.013660310688793366,-0.03481008285147011,-0.100177111136884,0.0027391737571507715,-0.005743885531673059,-0.07390151726872836,2011-09-26 13:10:10.163909140,5.380095505
49.010545617866356,8.43543715445299,114.98621696607373,0.02414995658515579,0.00684434412744958,1.901283977690108,15.832736543885888,2.8184990682210236,6.4079793320888685,0.03976388552563878,-0.06476715263110205,1.151518290159696,-0.7702904879812202,10.119661543391699,0.05786311442291478,0.33275525241333426,10.157973732998535,-0.03650132881185937,-0.04547776568188337,-0.05855592911571238,-0.007934983069802221,-0.054138340739825805,-0.0893276681923674,2011-09-26 13:10:10.263948372,5.480134737
49.01092922960845,8.439047225372699,114.85930249325516,0.04975944530953699,0.019542028324687526,2.57586286983092,4.2655055177859165,3.3109504418437012,15.008680532359254,-0.0353075413467802,0.034796354708334504,-12.756451657464526,-0.6981239222631601,10.032430238531818,-2.1718713712977746,-0.5097770924406507,10.853311877117033,0.015074682305977138,0.03496811140251147,0.007995947263439399,-0.012249886770312739,0.03247443491332213,0.006494576342399139,2011-09-26 13:10:10.363949464,5.580135829
49.01035919947555,8.438440456093213,114.7099762036958,0.0330611929807933,0.00031267219727335906,2.208342114385206,15.852174869149582,-3.176205824860567,6.398554710523834,-0.1380028694186347,-0.915950263052532,3.06013325309776,-1.008534747249405,6.6527070423457015,-6.048891966402292,-0.8226352902046551,9.033585740747347,0.019232315962732498,0.06346448622728831,-0.051820613923859,0.00269521506929266,-0.008215944641234298,-0.010216110115277455,2011-09-26 13:10:10.473919357,5.690105722
49.01089432978303,8.440370061748302,115.08292775664165,0.023310955908015664,0.018305855832494743,2.000921863868411,-7.0779509795086035,-10.710945163509534,6.566941067750977,0.6868490049809265,0.05265825153396472,0.12244490599034075,-1.119997515264353,9.46517437096837,-0.8097879052598673,-0.1782979479128271,10.891690467332786,0.02663847142641959,-0.021046306818542842,0.08578904518464647,0.039961440180260245,0.022895712355801137,0.4729954727449464,2011-09-26 13:10:10.573936916,5.790123281
49.01096624422461,8.43913258342772,114.95270426987508,0.017599520898196944,0.006815124556785802,2.2010942598740915,34.698899622947195,-9.461083905490542,-60.83906886606802,-0.015597226631928893,0.09917705544385634,-0.3547777025000961,0.2778177708155488,9.495434171876864,0.1281365053071163,-0.6728657895976847,9.334347801793397,0.01374740936319771,0.08870799977217804,-0.08606990713613624,-0.04349343574092249,0.05351817872315496,-0.06876237683508289,2011-09-26 13:10:10.674116730,5.890303095
49.01098603924446,8.439563495849761,114.9015662685911,0.024761332231711675,0.01093255842273681,2.2938114260216134,-6.56787130115163,4.847705632282702,18.098486859525906,-0.012662833412629994,0.011838366306290638,1.5379067899376588,1.5166628807608646,9.1019595797794,-2.150040426605489,-0.5919071380396373,10.720113483571582,0.04848311170368754,0.041291759943754364,0.037149016716912224,0.01789089543799064,-0.004485431270522793,-0.1267302067949395,2011-09-26 13:10:10.783939151,6.000125516
49.015915809289204,8.440822096701773,115.55978251676801,0.014035988713548385,-0.019185400469097804,2.5394484174041003,-6.905249451553452,-0.5523855179861368,26.253022911099656,0.11263460303700405,0.04092740899904515,0.7288727644554688,-0.43350901724313184,12.523333404155208,-2.439459683345058,-0.7689638209011695,9.982874709652549,-0.008417761378005817,0.013319517589276188,-0.0639360059443453,-0.02489466671200015,-0.047110774526383875,-0.06277174341556399,2011-09-26 13:10:10.883996141,6.100182506
49.01289132037451,8.4336731345254,114.96230297216388,0.02246431317949303,0.00534393047961049,1.929520362764462,7.025073609612506,-12.4848253571829,27.239545097950973,-0.02736941711069931,0.07584899256030933,1.6643003605632676,-0.7491153533050238,10.25988005016246,-2.1258129719752414,-0.5161944616354892,9.361549228191103,0.025839527807635772,0.06749141768061973,-0.0430483317466519,-8.570227056681071e-05,0.022102609329985916,0.0037766377443193416,2011-09-26 13:10:10.993918801,6.210105166
49.00966697621975,8.437257294690653,114.77655961818924,0.09762805970824606,0.017268375878164863,2.3702520734800534,3.8230686403310292,-7.813500322382599,-16.195294359387482,-0.050527466690885134,0.07571747072727426,-1.71929469455735,-0.1288408800331329,10.192683947033117,1.5734367289494333,-1.389578302726411,9.408151973853704,-0.0034601021697483383,-0.01833494508894085,-0.020318626040531668,0.009708708801366954,0.1451807739020444,-0.04149072292915623,2011-09-26 13:10:11.093962978,6.310149343
49.0124099156794,8.438329081601616,113.69332975935028,0.02609740403776787,0.020403823139728147,2.1936474965177752,24.659446519540197,2.7750013999113454,66.05106283965351,0.12807045717580326,-0.11653910652527076,-0.8337519877786411,1.635869462538696,9.959878753205066,-2.2186307054393386,2.563347513477199,9.914360656598694,0.06528094976700925,-0.009576578225585886,-0.12123732237771122,0.03043428351945594,-0.013014900725107713,-0.1394053700839435,2011-09-26 13:10:11.194044861,6.410231226
49.0116432619592,8.440115138753695,114.7354862081571,0.03254417082045391,0.0191491941345006,3.2444361862284445,7.425818402125806,1.3698487206300474,18.92260682453668,0.1213976791670763,0.0036587614507838876,-6.159622896322494,-0.3110158796161598,12.500544399120983,9.60751679260456,0.31623038026380523,10.275676854673371,0.00624635938969139,0.06303864250005417,-0.00728052879547289,-0.016121904843686266,0.0018192087439937712,-0.022611597605530567,2011-09-26 13:10:11.303959539,6.520145904
49.011120775826186,8.44035388458693,115.37898284518108,0.10049871948236938,0.01968881573357259,2.048031860547874,4.336076934933173,-18.316456227175085,0.779361231522067,0.17080139791051382,-0.043799950456946464,-0.7259990338277035,-0.36836417029775237,9.681864119356591,-1.5841323622877228,-0.1377342564265006,9.123716618803352,0.040465925093982724,-0.01840441159497311,-0.20487144389724884,-0.0008645468342121758,0.0164823660451712,-0.03855314363999763,2011-09-26 13:10:11.403964137,6.620150502
49.01118142883637,8.439355375347448,114.88568273174948,0.02977324979493538,0.0025766262070893607,-0.0843633513525317,15.086068408688023,0.96497092960663,-7.345676553144317,-0.04214430671389996,-0.06505848593764725,-2.418572229005447,-0.03102516928368712,9.917966966809425,-0.9618099801020918,-0.019364904596136878,9.754970811542316,0.028852437609508536,0.024979959562745565,-0.027371491526172693,0.0313481859425027,0.00345114414103272,-0.058605610683304325,2011-09-26 13:10:11.513964428,6.730150793
49.00889325361597,8.438603944440592,115.20905255607344,-0.0008117065188165407,-0.044504141206419406,2.6522180671088824,10.543204338926957,-73.94789002301812,-20.122214106538387,-0.12399120118870378,-0.09122244383207073,0.5734318947122177,0.6375556777669814,9.813100568011698,1.6414679533897607,-0.595642103328582,9.964402409841137,0.04322791961038318,-0.022571955567551507,-0.07784636816228518,0.006194264015403388,0.19678954236384788,0.01632015539759244,2011-09-26 13:10:11.613955966,6.830142331
49.01194948838654,8.43997270586514,114.52375213021544,0.04052377829901793,-0.029247903080618684,2.642636295111049,17.793642804522513,-9.9360959850303,136.0980450592933,-0.2992780997482326,-0.08284341501722997,-11.775154884807051,3.129547801882913,9.653436926607647,4.5969646573850635,-0.7003929137030642,10.058060168797715,0.02348772301697087,0.019177895350364467,0.06286012943806407,0.017835508933483263,0.0013997330520445894,0.09237904297339194,2011-09-26 13:10:11.714041489,6.930227854
49.01031493678987,8.439045022903576,114.78528077582507,0.021169362697273424,0.014148952784055263,2.2885095144130467,4.025333609155677,6.446614016643234,-106.46378747143206,-0.03755749056181028,0.059409487364321716,-1.5612937308193278,-0.01077996499657094,9.891777306115504,0.5408405977608346,-0.5639007590651619,8.90432344900231,0.013161492756496876,0.021038362621960148,-0.04955986173356767,-0.0369437822861517,0.0015280968730735228,0.041494805925976444,2011-09-26 13:10:11.813975744,7.030162109
49.01153243051177,8.438284525699846,114.82370864738375,0.04232226520796664,0.013838488545883742,2.360966790052777,7.93104466397903,-3.859950399115591,9.744845135956629,-0.08900526125056277,-0.3161060500112084,-2.3580553658639305,-2.351822495942843,11.261136485920343,-2.561662553191166,0.04152355778991043,10.528179462578557,-0.014615513240206164,-0.021316037895976914,-0.05608517534614879,-0.01671752479735993,-0.00025353613828135377,-0.10528556271012769,2011-09-26 13:10:11.924005417,7.140191782
49.01069558821049,8.44066275583965,115.02455111541367,0.024714782235467258,0.04942200140400804,2.0104166180073118,22.630627005215118,6.357322455379997,22.14820688917579,0.008728649015987064,-0.03821845014507036,-0.5763336981379006,0.14583952247988657,9.686108436694644,-1.4150320095311524,-0.3722485269369503,9.778968513087085,0.015157179754329606,0.028814880957680936,-0.0591964737541293,0.03621703019062074,-0.0014694754959949726,0.006606091636773767,2011-09-26 13:10:12.023980628,7.240166993
49.01080080218222,8.439971226623818,114.80354108856517,0.02326602151453286,-0.029167542591127336,2.191979159262791,10.957637375901784,-11.855029692807797,20.983152068782346,0.10003643430456981,0.05392009271136984,-0.5721199898071012,1.0697938887976743,12.3112977429823,-0.9690165016729356,0.4851498132621767,9.713608100916193,0.01458854129878141,-0.004524577034015778,0.023596071850478184,0.03812817385157945,0.11055145291224429,0.004638404041090238,2011-09-26 13:10:12.123974334,7.340160699
49.010513768948734,8.431456358683425,114.90964131070017,0.03436678334416446,0.006270344292656276,2.7984536093961903,6.307658789408821,-12.674205212268387,20.535133165791883,0.019297737916248787,-0.09230281865384292,1.1282484101613885,0.7755569421334335,10.289808115481204,0.7843488518547636,-0.5805124843601093,9.419396723375444,0.004711729127610622,0.03401517674111923,-0.03419772372133303,0.02849066737760865,-0.03524988304338783,-0.06193501750374787,2011-09-26 13:10:12.234214266,7.450400631
49.01104183046702,8.43850934347201,114.64154660689883,0.030264437507796636,0.00579128164949309,2.1997231361800553,33.04115333552247,-3.765692449216396,-2.6110264160718195,-0.19074317277857528,0.039555523062656056,0.32471273042195015,-0.3427446337470285,9.435108053812115,-1.637438075044522,-0.18025280604215277,9.027060999313537,0.0130429473268507,-0.05657670162567996,-0.035957198408290494,-0.00043921628225104033,-0.043391772318413874,-0.025958020025936016,2011-09-26 13:10:12.333979737,7.550166102
49.01167966478548,8.438474527204011,115.1026251634393,0.018402085217724403,0.0004962951258722465,2.123243059407351,-5.701748237253644,-13.298826498366692,25.085339888833985,0.7514327287158716,-0.09205207547083298,-0.9925301872224027,3.1322672750402853,10.642577159671422,0.802043707576393,5.8485598179258345,7.7466164761653555,0.019790428681471912,-0.007157083315565638,-0.08453207455075801,0.025291145825204822,-0.2647942235482964,0.016374694141442964,2011-09-26 13:10:12.443996598,7.660182963
49.01094014658701,8.438170924176298,114.584239154984,0.03222166498264508,0.012915151618507297,0.8411940898739523,-9.454624377405084,-20.665924057472598,29.53028459976982,0.05937339949949651,-0.11377884812307522,-2.1324774713565597,-1.3042772752292833,10.733279618410178,-1.8773480356764838,-0.1950223026364748,9.406533831595711,0.015025250514230757,0.020059418301516897,-0.05576643212710694,0.015021754032910723,-0.09963170591623696,-0.031329316154379616,2011-09-26 13:10:12.544003386,7.760189751
49.01140680385397,8.4392112802192,113.64891654851456,0.03262131435984408,-0.029869315647047888,3.9052650469076644,28.936019935841475,84.42481401095415,14.528781824063051,0.023485353552251953,0.045139104032683716,-4.4190914439629045,-0.37716723621527604,11.44271820039087,8.416533474860108,-0.06288705772124854,9.636940865179383,-0.013359737721576604,0.021533024022971154,-0.00992094633251766,0.004598106701349874,0.1725989758333521,-0.07649689434064563,2011-09-26 13:10:12.654008917,7.870195282
49.010464773888664,8.43860427991462,115.12295157655517,0.034804021583051736,0.008449686313148004,2.0960648228808436,15.834115590679925,-43.02093185441394,15.943174259246641,-0.10046436754301655,0.031769734884173235,-0.8028137329181185,0.901941614392624,9.837157303998904,0.05645915443092275,-3.627220914167569,10.00640280160502,0.03738145257823343,0.036272439063073356,-0.006683025346535448,-0.00013137062799990773,0.012198680900541492,-0.010681516910543674,2011-09-26 13:10:12.754043869,7.970230234
49.01079927648448,8.43760977328831,114.92895452676325,0.040650159501339295,0.018505227421542293,1.9600255786384273,36.835033010803144,14.331963390430765,-25.45606569678543,-0.9854017984742327,-0.022398506253493305,-0.9201047177258092,-0.16216142572568437,9.41613689090342,-3.2628633620488294,-0.029234384362836957,9.602604658201301,-0.0567577781395031,-0.04018505839213919,0.10048634232471136,-0.0516311877092466,-0.002175017350046736,-0.11222681142754083,2011-09-26 13:10:12.854016384,8.070202749
49.01078898858258,8.439187128097506,115.24933284728137,-0.08135156238044342,0.01205775813804816,2.3015764708322504,28.256027081267256,-0.6374264491869326,25.861921800359397,0.09943970198222489,-0.10187706284268502,0.4580989757920908,-0.3389418014891373,4.826242273177238,-3.5105432676604744,-0.4425363247393171,9.707214973292272,-0.004035574811183178,0.0027777831765191767,-0.02076366339427632,0.23843694367369453,0.008310189230295728,-0.017196182843531072,2011-09-26 13:10:12.954020859,8.170207224
49.010319518091364,8.437905134587378,114.90897626896064,0.06498638729358865,0.014056364233818293,2.1792063951386886,-79.29729245075113,-5.263339037809638,-0.19415862370297354,0.8515394613484865,-0.08128726873316999,-0.4254278342587935,0.49569556054014097,10.15570536809549,-1.3958579234542143,0.7763930149922116,9.823298961864037,-0.024758905352161242,-0.023402042040129824,-0.06336246436621412,-0.05610725504216754,-0.043861277055307346,0.01715990862452284,2011-09-26 13:10:13.064001351,8.280187716
49.01111606299279,8.438573669389541,115.14591110196375,-0.0033268806995939877,0.01104241115351708,2.297622614636122,-2.2622394174302416,3.0764001527646405,32.4575553406379,-0.038020430316700056,0.08777797072008597,-3.356020737514643,-0.1521350806958633,15.838846100643076,0.486060491600099,0.018567862903704574,9.071389150829166,-0.01352812918598435,-0.01002038015470204,0.003857924376233078,-0.019004498318039527,-0.02335914397803179,0.0016098952388747811,2011-09-26 13:10:13.164035566,8.380221931
49.01087184330794,8.440498505380157,114.58946443217893,0.02898480750574379,0.008350399975915019,3.813625665435769,11.545310521404737,10.893887128656848,1.712255270732502,0.2058532365396565,0.9349642786710217,-2.037503113135249,0.5550724106761428,9.619777350786006,-1.6809155919185952,0.6078333218369317,12.210090081177693,-0.006610031164108143,-0.02933282332196342,-0.006175065269702136,-0.03233909668052894,-0.055522372371216065,-0.009799097814116755,2011-09-26 13:10:13.264063802,8.480250167
49.009621595421464,8.439338808123155,114.91395891159088,0.03518892006938758,0.01658216857853127,1.9124059388966206,-15.047779080761305,1.9008198290540186,-4.365710611631387,-0.5581757937901615,0.12876148077145064,-2.4889002785477397,0.14517066318902186,10.385558507199526,-3.377479454258568,-0.2143705290759891,9.722032459000703,-0.018703390945427188,0.09484419984136443,-0.014968947160273511,0.027175848762078465,0.13058400590394276,0.16551015953099182,2011-09-26 13:10:13.374033916,8.590220281
49.01033949480042,8.439836810470323,114.75649019009134,0.05657404905923469,0.005416386075857527,2.1725851848067577,9.156237445107283,-25.246064475393744,23.19457624817015,0.1513912034961729,-0.011002428579105406,-3.504909003897742,-0.010779439239969588,10.254092654517288,-2.843895018277557,-2.9982813887216055,10.14017880501669,0.02031061302416628,0.01904173123781066,0.065064795830617,0.020985184761029767,0.014947553408796261,0.010998447218316942,2011-09-26 13:10:13.474037266,8.690223631
49.00546010388452,8.438247071595903,115.56512539804407,0.02466203198604612,0.007427071009241922,2.644398782978965,66.07034295657722,-3.6940859009617033,8.923079785969726,0.025544746359502116,0.07049094848489507,-4.314840613988064,-1.2274700306840562,10.004935336355068,-0.7085881851365152,-0.010263525705112794,9.268947696723146,0.028980243506319447,0.11231887369572781,-0.06346120454797925,0.01923409670789924,0.009429930077728627,0.315633935287666,2011-09-26 13:10:13.584244234,8.800430599
49.011135895698395,8.445593737880808,114.81977217531073,0.03384048187516864,-0.00037239911083505536,0.8134722049423464,-8.683151145098757,-2.8628124631698784,0.8789456089902217,-0.011679348858105405,-0.024601427989213467,-3.09313329492161,-0.6729423730112681,4.382766535989076,-2.289130824460601,-3.5706482288341848,9.621225961717451,-0.03864017034373579,-0.0028836194263795055,-0.0668486970689787,0.010890961466404451,-0.008703226228603514,0.07987912401215132,2011-09-26 13:10:13.684215725,8.900402090
49.00787616165367,8.439322495450147,115.05787734677811,0.030291404364734494,-0.012309596262436303,2.1516205798865506,57.56626714501609,13.53993223222298,-4.7670237997516445,0.04840738010872622,-0.10210654756763426,-7.521450100691295,-0.16374880261003766,9.495894407935673,-0.8015499500541439,-0.9305759063619911,9.45551097487729,0.30218582627815727,0.012096223962665263,-0.0033963491810073236,0.09597928346675588,-0.010419293885295246,-0.10769739283793155,2011-09-26 13:10:13.784087135,9.000273500
49.011000291461784,8.439275357797387,114.9437122327829,-0.009959371111865373,0.0025565540096396874,1.8171930486011738,14.847558700230202,-8.736665342742787,-52.0337915500105,-0.0007206179028702853,-0.08011365163063089,1.9530691698756892,0.5330353489209784,10.067584486025698,-1.819638238524578,1.8287466059342583,9.695973488188264,-0.004301249377627121,0.027174178802008824,-0.02394875106169778,0.022297786231141578,0.07668970111134735,0.34523517658701597,2011-09-26 13:10:13.894004387,9.110190752
49.01203542295714,8.43863595010807,114.90053719702449,-0.01722936887612646,0.0006882195437725482,1.9567563782342474,2.4772877775977014,-6.317846376891573,-8.324614175760216,0.03701501691725416,0.09363562196103348,-4.956221284975824,1.4887382823989057,8.461889170508428,-1.6462728964726427,-0.5910582927597645,9.247976949216223,0.0012175206176595114,-0.011373527451869923,-0.043148011332964385,0.016233761350937754,0.03208530586597158,0.09027691226871515,2011-09-26 13:10:13.994054079,9.210240444
49.01052110173931,8.438737957194133,114.89059263858643,0.04543591787172982,0.02655095799030168,2.2654591172380356,40.40003133014844,-3.6221782731038785,-8.823847765974637,0.13199159076516806,-0.23472614640923692,-2.1506546936196176,-0.39315124665890605,10.159711303648052,-13.52341163665769,0.16974262821799832,11.821913815234748,7.786593051510061e-05,0.022710183231889964,-0.01489137915211325,0.03166737753989328,0.020014526534277703,0.05744058408803612,2011-09-26 13:10:14.094083310,9.310269675
49.01431760661897,8.439658352539418,114.59663881286006,0.04048438569152868,-0.022030640962107426,0.294280664580302,9.8193975356296,-11.717464585603343,70.56469886482233,-0.007769926366230279,-0.039745305175845354,-0.5902813254367629,-0.36169248624496525,9.996597939160662,-1.6092648757979657,-0.24127720354221122,7.974259522397752,-0.014960796267970061,0.02498041511711022,-0.010490469401195423,0.09439064900086214,0.006268884628926337,-0.04025167368149918,2011-09-26 13:10:14.204360270,9.420546635
49.01065297795905,8.438765250349565,114.71390961060895,0.044009467488416436,0.037316880926105016,2.349642129318004,-1.4954430789393154,-28.732931783929388,18.780166492612928,-0.0492089687965357,-0.19071118435817902,-0.340751620061027,0.1569407871434333,9.320194929257953,-5.334942583177778,0.02298973796007682,10.060807412565516,-0.003277691305445493,0.03780426091840592,0.20736547133843353,0.005086528018669974,-0.021700180287811413,-0.003897225542154596,2011-09-26 13:10:14.304086904,9.520273269
49.010669906852996,8.4403436712126,114.93797668152676,0.04484341509879017,0.0102170862447532,1.985220534334798,-9.178465974922904,-22.548543984879775,27.846650353415864,0.14791448176038346,-0.038559364923878646,1.0216868540818207,0.20377422746591095,10.483997492111289,4.8833762430459,1.2187622439585544,9.813014010288324,-0.0020216165274107084,0.023154458728093942,-0.06922020409168035,-0.018620091429129532,0.0009182217988758512,-0.06448981622090902,2011-09-26 13:10:14.404096738,9.620283103
49.0117064159798,8.439355261168577,114.88548356768965,0.06130964670175415,0.004001062158437033,2.663393480396687,-1.0519279922962816,-25.887502426101783,27.837626780213615,0.07138413556641894,-0.12728427972267548,-7.596272375606559,0.6688515703453338,10.259221533177849,-2.1949296528301,0.22715501209605765,10.066295412183983,-0.02938297868559798,0.021523438348343915,0.08124040958642902,-0.051557353044482654,-0.03336659615206442,0.03618047328498476,2011-09-26 13:10:14.514092779,9.730279144
49.00582527519598,8.440831172881097,115.00635200881605,0.021712183011233194,0.0034130045750204903,2.0890263625986045,-6.2644556485870515,-16.560857705469363,-10.884060519485331,0.715004761305888,0.07898039648854764,-1.3108406870493918,0.5624254123222765,9.33267645806895,-1.8659345737592872,1.1985697917238132,9.856671747152754,0.01637187268632633,-0.006101233155504887,-0.04817989519517357,0.002281284944160727,0.1115040091118913,-0.4701184028922388,2011-09-26 13:10:14.614108117,9.830294482
49.008221469884205,8.437686832063644,114.70831379998603,0.01859727059395283,0.009293846248046463,2.3793812700741284,-6.998214273911946,2.36183450012128,2.813246146874034,-0.16317302573844716,-0.01627114340976917,-0.049261133670774004,-0.47412920987059815,9.641292811080131,-2.269063648034616,0.4587304028655278,9.818842497023338,0.007025041444083505,-0.04200306340110331,-0.029000577797803316,0.038195658590148326,0.017916180362985763,0.05466312787946895,2011-09-26 13:10:14.714233486,9.930419851
49.01198943711367,8.434322787820175,116.18728061307428,0.03812936680557209,0.021267219984514394,2.51609605609781,-105.40650553279664,13.954819223956532,-106.55152162932833,0.1001630675392606,-0.003896287435251569,0.49144302908902615,-0.47415629190981307,9.263506694521132,-6.622542754725286,-0.5448040006100793,10.01156438861508,-0.13428109106753686,-0.02344014214363094,-0.029005552235034468,-0.005867361051390719,0.04021402409028839,-0.0006246601069076433,2011-09-26 13:10:14.824053806,10.040240171
49.01239119141255,8.44151352374119,115.69247900478993,0.0223244305679343,0.010072132541730054,1.9655932719080709,9.488331004941125,-4.837373585366241,12.86001632239882,0.03600791977558794,0.057538662632248286,-1.6293384739847598,0.20261204038546604,9.618192338631932,-12.54502896664886,-0.10956416533923513,10.416674335006798,-0.03418477676703276,-0.033284377003978204,-0.0805681040411161,0.054105324736909405,-0.009381885722756986,0.027388132568010277,2011-09-26 13:10:14.924157669,10.140344034
49.01232916963021,8.439929753211786,113.68427118968124,0.02973457001345736,-0.0015023356940722168,2.106437633891839,2.75405186020327,-11.166815247097414,11.448984149643152,0.04061518003971246,-0.015039647793403806,4.533881677036058,-2.2057494962046027,9.834195629590692,-7.315457680334251,-1.1957005529822708,9.856208870485741,0.023249992418699995,0.021149870126218717,0.0033827134533112348,0.052697188933870515,-0.09531866393597138,0.015464819624033583,2011-09-26 13:10:15.024077447,10.240263812
49.01172463149434,8.438189999998935,114.87364673107353,0.02438023822868107,-0.003467859264834767,2.2935837022177044,-5.316021429583727,-10.429169434744686,3.8154918939363704,-0.9721140524898441,-0.15247408295945003,-2.0523301598589976,0.24677756593797465,9.410436234868415,1.0551648277607608,0.8594783410623893,9.930085243835752,-0.007496482492871713,0.0037299241331433678,0.29454433275932834,0.0015581312594970236,0.009023119516687822,0.022752217620286227,2011-09-26 13:10:15.134143144,10.350329509
49.00893426104484,8.438287294100117,115.07746533437387,0.0336196400400751,0.000528144790191443,1.6589649661813177,7.503158750903369,65.72666393613801,1.6898682451714269,0.37808165981235703,0.19336982958851073,0.22907657362630696,1.6267408850228087,9.825186546768803,0.7652567935409893,3.6285614595406446,8.93267163120422,-0.012296346689293913,-0.22725761550516954,0.06329430949447262,-0.005098694774666257,-0.03699245302120649,0.03212991609894914,2011-09-26 13:10:15.234331841,10.450518206
49.012484388101434,8.440262904217931,114.58772197344209,0.04058136235937801,0.02410861800224203,2.661247731672861,-27.679023113426837,-6.830798651660501,110.02441881659188,0.16642273819771933,0.040339512857338486,-0.7692901444400054,0.10055008303368798,9.8128355005387,0.2057752198548901,-1.356100126438426,9.402131319574709,-0.04868956412710919,-0.05167965045400873,0.020108437088958046,-0.04254568370200788,-0.10238199410589087,-0.049486246817045665,2011-09-26 13:10:15.334157541,10.550343906
49.010833729103425,8.438543494711041,114.9604354377205,0.04737845093704976,0.021515354130644884,4.4229929111403905,0.6735141267997773,-101.35146019987793,28.2320517385538,-0.009782878837022724,0.08864932329790458,-2.2137872118886994,-0.23706313282931094,5.4621591697507705,-6.8920953445096576,-0.13777304944290852,8.992053989428264,0.003189003407927486,-0.007621634858161678,-0.08211530913254429,0.04508341082291094,-0.036782608778037414,0.02088123298606581,2011-09-26 13:10:15.444144244,10.660330609
49.010367704197755,8.437922640898588,114.94148686376691,0.020804973593660715,0.016359305768300986,2.456369460596168,-12.16237428218486,8.431854243833953,-9.403885553226933,0.004204545870684813,-0.10171835324386724,-2.127530127836091,-0.21942312111294832,9.830643010024199,-1.0007691998481731,-0.030341822922885023,7.327742215770291,-0.006166688191766696,0.01112873107843563,-0.01332290614609134,-0.0060677478514928945,0.05166951647548087,-0.04357008332369443,2011-09-26 13:10:15.544153916,10.760340281
49.01191276256879,8.438687371419574,115.18184951969434,0.017676869236786026,0.010426820177656991,1.851106983341684,89.21622157901535,60.217823359381676,-6.725128263105173,0.3373579554391065,-0.2739032468475476,-11.985441657871354,0.873637660268097,10.259181909608593,-3.2731772075799417,-0.19319691225147823,9.889609200550781,-0.015436863828878041,0.03898149073297198,-0.0857925376724816,-0.012717485119796647,0.017116587742100526,-0.09153248362924486,2011-09-26 13:10:15.654160900,10.870347265
49.01114087312417,8.43887710229409,114.18381109935774,0.013635289220684814,0.0197252947850484,2.1723083166681163,-10.228898942899177,-14.477246857821747,-10.885904143749764,-0.012560739019486795,-0.02523881980892513,1.7235117529944135,0.4707074405531828,5.6937799216704255,-1.2324135505936382,1.2165899346674172,10.298273210853798,0.024861719874425384,-0.0012907602761425075,-0.2517614455076569,2.726516143779006e-05,-0.015033240330479668,-0.0032022578519500427,2011-09-26 13:10:15.754196874,10.970383239
49.010102731550084,8.437393239244217,115.17893066436635,0.040586225964470396,0.01655402996567206,1.1961609177741148,-3.916548770098785,14.398112000852143,-23.756671848187885,-0.12600022767093014,0.09595702608703167,-3.3259690774365858,0.24433657186082228,7.895172454805494,1.598192559925504,0.9528184808631983,12.788510661794925,-0.0098857272535095,0.1538152495119282,-0.1947971063408519,-0.05358183508939788,0.02727000346114094,-0.1425351387216456,2011-09-26 13:10:15.854153210,11.070339575
49.01150773146669,8.439072773113718,114.915094286783,0.011849538766861654,-0.002340395413377022,2.2088026381998564,4.668919619300004,59.72547271576202,8.325262106746655,-0.07682789911773245,-0.05444970889727508,6.777346711508937,2.4430110821981534,10.190546436689985,-0.49620722572918075,0.47046977899221776,8.538929562514905,0.00730712426460142,-0.015246184089884984,-0.11426063480544578,0.006775042062924832,-0.004559286272002201,-0.06008264668808949,2011-09-26 13:10:15.964157257,11.180343622
49.01126505472369,8.437081422898231,114.64825441041953,0.025235917642871558,0.017947891694048215,2.242538270184822,11.278772284360922,61.268646235010216,-15.344175447878692,-0.05096523736160268,-0.4772143562132312,-0.3819805977641604,0.4491717004731374,10.56815932456737,-4.007824360367899,1.747704006985472,9.06603591976254,0.029823119316430648,0.04022727469716202,-0.030036924342274843,-0.015207792079008778,0.002400417980991583,-0.0132182710406415,2011-09-26 13:10:16.064156308,11.280342673
49.014234898496646,8.437937642962456,114.70165218958766,0.04415246198562847,0.01050943120859049,1.934932875791303,2.3937067031419237,-14.384020258969043,6.446572290309517,0.49416176235935444,-0.12314261053164642,-2.679100198369156,1.0004148139295403,9.230650525650493,-2.844752033463382,-0.5183738404036433,10.698071746189587,-0.016719177906527955,0.0027040483196573654,0.017714709599540183,-0.09879875917296944,-0.03161027650944206,-0.0520533203095561,2011-09-26 13:10:16.164173419,11.380359784
49.011751416147476,8.438930547637288,114.61635634055354,0.03646145044106062,0.016369659834741007,2.811567828352703,-3.6119711761347917,-8.076446116471736,13.865821166997726,-0.08922119513358633,0.010961558440970732,0.6944269363335742,-0.32112966718885155,9.699547194587227,1.7223697191158307,0.7660625467622046,10.207411066347042,-0.011445966290471695,-0.025946254097971574,-0.06712923673915208,-0.008538659843528276,-0.1686250601981238,0.09356966323577,2011-09-26 13:10:16.274135110,11.490321475
49.010910161709596,8.438915139361683,114.8111876666837,-0.008856336606899683,0.010541694382091755,2.2500491236524973,5.837977885019885,11.798736125285673,4.438908950521943,0.10276306122091998,0.0016330556850015984,-3.1271216240250177,0.035171901106854586,9.067211198753466,-3.545140716020075,0.7889604581458403,9.544679168608566,0.02023244567885955,0.03522694992934899,-0.014847419418186309,-0.011926981292335607,-0.04635406077728974,0.0410418253056943,2011-09-26 13:10:16.374186980,11.590373345
49.01090426995951,8.441197499204016,115.44667759220945,0.022359948089486624,0.008866207313228139,2.8297606399605613,-14.858862133951316,-8.609518585680537,-14.388522517333296,0.04708229741620788,-0.007335076486493536,-0.17299195521957067,0.04250054492394581,8.754395483813026,-1.6696302159097396,-1.0889141281891637,9.746987763517414,-0.003616789283653918,0.10155058212409637,-0.025373774613505234,-0.1760722381150094,-0.006617993875687272,0.035157739104265645,2011-09-26 13:10:16.474182245,11.690368610
49.00949404413101,8.437571011776948,114.73028703389295,0.12081370416229284,0.002996358607191994,1.8612363879726919,18.836816083750975,9.062207279995278,6.756277404697996,0.16333331875535478,0.07919397558786856,-1.1680009340895952,-0.4150536294249827,10.382734033061762,-3.384304306944058,-0.3670743750749342,9.954257086107285,-0.00032295766409897245,0.023415961987426685,-0.14662330681815458,0.008694048543405634,-0.024740505741749557,-0.0430382401840574,2011-09-26 13:10:16.584295297,11.800481662
49.01205876178463,8.44315778113726,114.9758888721475,0.027885558825298508,0.015203256831861803,2.010099733455457,-0.7601380596002287,-6.733445272110699,10.141373138041047,0.07193844518073227,0.6633781775988832,-0.9509695649157881,-0.4793491427613447,9.784140684436785,-0.6595510468769487,0.5123669827166869,8.582751018379337,-0.015728187259140252,0.05217117960693912,0.01088136885835783,0.046790223046852736,-0.03217685697682812,-0.014047422966470836,2011-09-26 13:10:16.684327660,11.900514025
49.01137042564796,8.439440961460727,114.65594637882492,0.020174007909395403,0.027322310274174703,1.974326643398363,-20.21821057416339,-52.285146099251065,-6.210897675280918,-0.04705813209702893,-0.017353377202447447,-0.97605207827246,-0.694551719485192,9.682607903889076,-3.627563509882436,-0.38069139570055743,11.875344484929524,-0.014615635440150317,-0.038069226573378315,0.06821984530011714,-0.057766297784605604,-0.0043162246248097,0.03839143803179247,2011-09-26 13:10:16.794161058,12.010347423
49.01172249930086,8.438195842733155,114.35891991531113,0.008446017413879375,0.019025696724981098,2.532495423753736,16.2126859366143,7.873951124678252,-5.721973684082949,-0.06513327932371456,-0.04493440365061899,-2.615432855067687,0.2331395098349448,9.89565246005571,1.721968621460575,2.10044309132818,10.303480861702724,-0.035508434449674754,-0.04534288569345203,0.02570578397545302,0.033149177322947934,0.015092539624396741,0.022458475136488847,2011-09-26 13:10:16.894131394,12.110317759
49.011806964136994,8.438944770392473,114.66361660836502,0.008217451158171536,0.001399728455431841,2.075323054919778,-1.474976669808331,-4.316351391402454,-5.675183758255655,0.03135293736171007,-0.04784787300366279,-2.421467875521993,-0.3950007881519313,9.160878380800515,13.265354990216082,-0.7488970747312411,10.570031464106927,-0.017434801515678985,0.011780066170166014,-0.019412590570111316,-0.019456327852354356,0.0739385222865838,-0.07954881171346209,2011-09-26 13:10:16.994191553,12.210377918
49.011389041555965,8.438646424654559,113.2827336937147,0.03707369018662335,0.018906331917230075,2.785599201325498,11.286046333088414,14.184854905518218,-48.194257005519646,-0.1504982581941106,-0.022789296022399173,-2.0810090793955327,-0.2821373202387354,9.603461502040947,-1.554215906701176,-0.32705703372097095,10.107109728228586,-0.039309809857738146,0.034419497751829696,-0.0354382291589143,-0.04890350866341177,0.01572957568713412,-0.009832170154006604,2011-09-26 13:10:17.104155004,12.320341369
