lat,lon,alt,roll,pitch,yaw,vn,ve,vf,vl,vu,ax,ay,az,af,al,au,wx,wy,wz,wf,wl,wu,timestamp,rel_time
49.02546746558329,8.448647147509567,113.8672103599465,0.016220592232274303,0.02099293678854626,2.069956389270376,6.533040170427773,-72.7126167064801,-0.7059007826794327,0.09089545540770554,-0.04920183763934349,-0.158019533357042,3.0379028044610843,5.877505890792972,0.4585678364150069,2.670705721649814,9.562024966189389,0.010082541144980875,0.04200232680677398,-0.28304931887440293,0.008566850576710963,-0.041114166327094644,0.133568083376007,2011-09-26 13:13:32.212564044,0.000000000
49.02589903674185,8.448545221682252,113.12299206305032,0.01620617107510659,0.01915624211073366,2.4178740616727614,-7.661740869842864,57.375915886093075,15.156264193705523,-0.018937565884458243,0.09776879993719564,3.446788367267223,-4.690700985355596,9.780437589429168,-7.847162930168632,18.031423751925274,10.296214658351465,-0.03832938940467407,-0.0152913832722351,0.007147278149511264,0.036137599108372755,0.014824340731884482,0.14289484779072847,2011-09-26 13:13:32.322364840,0.109800796
49.02709140975292,8.448425165197154,114.21302609979296,0.022955852929836998,0.014942891122328389,2.037834367009367,12.533899138275359,-8.052783253039408,5.252289795373748,0.08421949011614775,-0.2452402617592955,1.1564116218618596,1.1862370540333604,9.940133862822426,-14.793029617277963,-0.5136565664114288,10.220974805186437,-0.009592568539104254,-0.004429209476955492,-0.0028473567048409444,0.015800870476633595,0.014331117152865431,-0.9824294546888295,2011-09-26 13:13:32.422405664,0.209841620
49.02530114820356,8.448871671404001,113.96717003263367,-0.04834919766513784,0.05673279090483967,0.8048962962941575,0.2943742920766525,-7.493622075709915,-70.72557133413326,-0.12226596334769739,0.08670598629255351,-0.9856354252820034,-2.1022401122839622,9.492926838151384,0.7896166261676042,0.2592686108899281,10.12835847204229,-0.028828842898516727,0.002551167609613031,0.3183900199466541,0.018233542252569877,-0.13521218827437206,0.7840549353868316,2011-09-26 13:13:32.522396024,0.309831980
49.02555673294292,8.449510525139273,114.16858520100864,0.01641169721468674,0.08309514113311338,1.9298717612581093,5.091626992905724,1.506810666308143,1.9053516815236802,0.1315663526092464,0.09009244348557482,0.4038064407574996,-0.716441454693915,9.549799997026053,-4.790934040502255,-0.46832440826471416,10.492146444637903,0.172092945853126,-0.196583032528297,-5.659755229762231,-0.0022283022468628025,-0.05433171516740545,0.38271530367009665,2011-09-26 13:13:32.632434672,0.419870628
49.02514241008446,8.44859185895916,115.29863068627137,0.03168972733905172,0.04903088908019,-2.138019168932025,-6.73543439623189,8.658779059312238,10.232596734338468,-0.15275739336475944,-0.19660576015503253,3.03513311351077,0.23399002050059448,11.771288390864498,0.8222374807503687,-0.5068603857720997,9.738348420847906,-0.026051083808332924,-0.03672105413643931,0.35484210474639627,0.0911501542678563,0.016038627245209568,0.12535683463213157,2011-09-26 13:13:32.732619806,0.520055762
49.02570482289143,8.448485692937282,110.12766319364964,0.02575629193189987,-0.11036236842375403,1.72132241313505,-7.766577955176844,40.38360380613071,-1.4282932203269576,0.009915497476642639,-0.05750724535561334,0.05689029233032161,-2.4763127356090178,9.355927909973234,0.5124312562055533,3.9304801848578625,9.908145031739304,0.00948064917069297,0.013866675741971118,0.2989837979934855,-0.03516213287929934,0.2630439988560629,-0.5013344776350033,2011-09-26 13:13:32.832405355,0.619841311
49.02537501537417,8.44814433036657,113.61802386441131,-0.0014406850292482364,0.010801098964119543,0.5986259232780616,-5.121514913248242,4.93921986106523,6.147405058484151,-0.20117640904033768,0.03792121873664794,1.3878140658785916,4.72819809223671,9.902464277040753,-2.3633280369526126,-2.464054522536287,9.751319762821302,0.016723816126028045,0.019327589745390047,-0.121147320497526,0.009450109160370165,-0.01478093658470295,-0.3441477079573322,2011-09-26 13:13:32.942409752,0.729845708
49.0259178819024,8.448511072898855,113.50595935300552,0.02872041622355622,0.0002271144049579392,1.1005741026215663,2.5447016335645305,-4.471539583536884,-11.240662815345031,0.7253255186791743,-0.10828184249664295,-0.326042622266974,2.0305945247205863,9.836162482637377,-0.600420540862238,-2.8722894881501415,9.290909221678293,-0.02627334176475786,-0.006441426368377215,0.2628982104841912,-0.13725111068206958,0.03995229885793965,-0.11578042750467293,2011-09-26 13:13:33.042470256,0.829906212
49.02533526578326,8.448829709725176,114.0453550345365,0.0035088135281125723,0.01877562352463292,2.476352126049573,-2.350728819855687,-2.911757135810458,-4.097618014238765,-0.03281917955464225,0.4184064915948058,1.530172463057234,-3.2755880369749266,10.378764924941091,0.512011542995627,-4.778936721846038,9.414251309822975,0.007008975978479639,-0.049594174998158234,-0.3429205694844608,-0.06535908518513867,0.013099874666937916,-0.217694306522259,2011-09-26 13:13:33.142436718,0.929872674
49.02538980962485,8.448472267661938,113.590428095684,0.008915157304455641,0.014174441734226412,1.3650126389625235,-0.4858171901998257,2.135493629670129,-3.7163372361731897,0.1566263162459587,-0.013542242274562823,2.2742509496914702,-2.657978570972065,9.519619305759424,0.7293607469246524,2.1120269527692646,7.47159929422182,-0.15081356426252995,-0.012393878545396494,0.6128207285348327,0.021033137964747074,-0.019989205915298056,0.49435184340857,2011-09-26 13:13:33.252493591,1.039929547
49.02593300566033,8.44838022063513,114.05000260233848,0.036561073339687736,-0.0028925272780833573,1.8942604459205827,27.658881729574826,10.68272466020116,0.9362688960868738,0.3471354228133439,-0.05722724838879398,-5.971911375442168,-1.4335708771547149,10.498297936821292,1.6813927795272348,13.405911054231986,6.3452680798526675,-0.01000015724742209,0.0053548181437378314,0.42854223221612997,-0.37573120488498174,-0.03613469267950283,-0.1438860598608254,2011-09-26 13:13:33.352433806,1.139869762
49.02576948444708,8.448572688875872,111.2104848453038,0.006114275110445317,0.011304523113571198,-1.7527785181022415,-51.46999509047846,5.941459725581503,12.82355347547592,0.2626876212969064,0.0010165870925098602,10.023946417332661,4.209330022846762,13.709471929073157,0.39615659129900693,5.092394931670599,10.138075764878959,0.15658230949495353,0.16432280025703883,-0.4816731191667162,0.005618150036258659,-0.028809864445094258,0.22002637832488248,2011-09-26 13:13:33.462447872,1.249883828
49.02545433421463,8.448316617296129,113.80657908518339,-0.06731644204995957,0.0015820671381668473,0.31004138315367,2.963207970027468,10.893126592423437,-12.129805401598292,-0.07873890014030754,0.137648362779755,0.4308803524316155,26.8091501539085,10.026333981164923,8.012927236213805,-1.8803837744859857,10.761197105377388,-0.008653425137101819,0.13840667555216243,0.10171770049145842,-0.007248308325372503,-0.24726020569396945,-0.019664920313495905,2011-09-26 13:13:33.562436506,1.349872462
49.026218833709194,8.448362339751162,113.70721590699769,0.012431448082421548,0.0004501316902679065,0.13893114223672343,25.846498182794587,-94.19251496140807,7.890284447368438,-0.1739860159169365,0.0002938460116075803,-0.8960189491163091,1.3455333735916606,9.789426663719127,-2.1471665368795994,0.012654182150488937,9.790657809698303,-0.002677517942678258,-0.03720840087534566,-2.214793590374258,-0.013333194777763157,-0.009158092366884904,0.5303571095012334,2011-09-26 13:13:33.662499467,1.449935423
49.0273872907055,8.448355680689847,113.94133625182208,0.23755958355324097,0.014492862251327534,0.2008276857324347,1.5873906597372058,-7.53362196600707,-7.629653170702939,0.18087782162523514,-0.07846239149109671,-1.1507214508392056,-5.30883264160427,10.389437695965698,0.38802504286675676,2.199824009472516,9.334980335579266,0.005019472861807924,-0.05449672544620554,0.14976160588371393,-0.1621312483673894,-0.000944720635223257,0.07283944601974122,2011-09-26 13:13:33.772559236,1.559995192
49.02796780513379,8.448510496456024,114.11998511770189,0.04787887654077145,0.020750408601115614,1.597557556575677,-2.887063053839277,-5.976747450194929,4.751264462099833,-0.02319592835863324,0.23926053397328984,-2.6241221730976836,0.4087626629548597,9.304084666286215,2.288398672304673,-0.7774832944479172,8.93840990493025,0.03807522390787207,0.44987993751070565,0.061950422374341015,-0.005738221374420982,0.070271017556583,3.0390072773509655,2011-09-26 13:13:33.872509404,1.659945360
49.025444077910244,8.448573933807438,113.7934387441881,-0.005035838868731945,0.010500504986979381,1.6637176836765957,-1.7755149041307483,3.4888293891822735,-1.0682450736585927,0.06827705788098619,0.11722494476019436,-1.6400482440608328,2.6351720696127665,8.924344946505595,-0.631984279595138,-6.875819430325967,9.505676201831974,-0.019796531772891382,-0.006653445499337293,-0.2893816520783725,0.2928651328851639,-0.0041008722156193386,-0.24605983932962291,2011-09-26 13:13:33.972504422,1.759940378
49.02803996306674,8.448720476441327,113.2767960048586,-0.029780077790433592,-0.012630250388298318,2.7035091504551696,-2.411578848006959,-3.943641058085003,2.8419634644713785,-0.1885202176383203,-0.03928511058200801,1.0210196493476311,-2.1006757571316954,10.533642325657151,1.0247457588471354,-6.876375535100765,9.53333506959637,-0.024723079577020666,-0.045383786765743304,-0.07617598058142341,0.01906375896452491,-0.0176255962353028,0.5333571858568262,2011-09-26 13:13:34.082470790,1.869906746
49.025526058779725,8.448540348689908,114.10454433268211,0.011946295652610859,0.01874865562478279,2.841067288863231,9.79698371553603,-14.683174194510821,6.126040640170989,0.41692358076232094,0.04735771482710659,11.642943681053925,-4.068866804904495,9.69806390471912,-0.4227093386507556,0.8373886203931908,9.634165854485438,-0.03413753147770106,0.2153725390803526,-0.36372485296266277,0.07725767552853222,-0.017384182094873003,0.1365045856666028,2011-09-26 13:13:34.182636414,1.970072370
49.02562418847009,8.448490547963385,113.56632148888876,-0.028566892064917977,-0.02543201079843798,0.7991052657721747,-8.258986984310374,1.0738209536897458,10.151811541767184,-0.03447277091504982,0.501789056545204,0.1508895529792007,2.962939343036684,10.531556855332784,-0.4321170105929283,-3.664027893063505,9.85704365205638,-0.027393951853951905,-0.051021573248789406,-0.3851382664899231,-0.011449753032967032,-0.034218417128750706,0.671615502737861,2011-09-26 13:13:34.282528541,2.069964497
49.02542010194898,8.44850164559688,114.0272093454249,-0.002127501796825774,0.010961233496665411,-8.736276833398438,10.381342613190682,-4.818616707316247,-5.9674586689539115,0.3635849652965636,-0.011598715882407132,0.21193104763008963,-7.113653696403882,9.651198503733113,-1.767862339818091,1.426616718109294,8.913904653454074,0.21451661924607363,0.005082594070302071,0.794195165536472,0.02051435546531741,-0.024523241230837725,0.44608392117072915,2011-09-26 13:13:34.392480359,2.179916315
49.02593847972484,8.448603867318838,114.33368893422659,0.0006635733058445083,-0.010801856500354185,-3.448418724335986,-23.101562758713634,5.3470193612708625,6.28988664803836,0.2911585922444732,-0.11467918639827718,-8.223744143575168,-5.898967643296331,9.61103288822641,-0.3156062830681499,1.9393366607018834,6.32593669440807,0.009209977106325247,0.061594503843216006,2.291392009170984,0.016655673316912534,-0.17635706287439085,-0.8288137203587794,2011-09-26 13:13:34.492492635,2.279928591
49.02526912171613,8.44857591144948,113.92001435624846,-0.13892668361961566,0.04179585755185601,4.080916412316378,-4.26018640891933,-3.76971322926545,8.611905113416896,0.05569392465169151,-0.032835881807334884,-1.6087379764355858,-6.749906004018974,6.444412622197506,1.900629182789504,2.2881978799530356,9.728005562946327,0.02277467497362318,0.006468622649841339,0.4545223864207774,-0.06114392399805216,-0.033772265086037256,-0.2766190461146278,2011-09-26 13:13:34.602490365,2.389926321
49.022841772076355,8.448739876759596,114.65881771243394,-0.019486399861786755,0.011080237887576647,11.393818261333381,-11.789772189616695,-4.449479152329499,-8.419019260807504,0.005736910216332417,-0.21962524001823752,-2.007705252643935,5.326782891202895,9.786399292019052,1.9257453769160142,-15.786914457431097,9.76843305017277,0.013446919212696914,0.04748070908007106,0.35004851150959043,0.03258001945879949,0.013559260232217898,-0.6900084369239115,2011-09-26 13:13:34.702539028,2.489974984
49.0258529346217,8.44856850997901,113.89332232357495,0.03966725393050654,-0.005065583098654326,1.7576745921769374,-7.719405896709356,-9.193600693505154,-82.75837067942811,-0.12981478897101922,0.10999432587918964,1.7347517652733773,-3.449431233838562,8.997249968615547,0.5968240854345016,0.44332567401594736,10.132409888236133,0.013331123402403748,0.007637821885603819,0.7148941114340285,-0.010727767197612722,-0.04476312359342888,1.4984088255879453,2011-09-26 13:13:34.802517705,2.589953661
49.02561014270216,8.449007261942121,114.08076524202168,-0.04617356583301724,0.010880858041019192,0.845209558702574,10.513329271503585,-30.856579600361183,10.462224502474452,0.01452662348511244,-0.003982858149013394,-12.069834210342021,-5.251174667283561,10.376503740576052,0.4390887672356233,0.19484649144223007,10.060319843778233,0.031401262218254414,-0.17458434369379164,-0.23404963186507016,0.029772217179064708,-0.00748662285719542,-0.254643122558004,2011-09-26 13:13:34.912507696,2.699943652
49.024981858173724,8.44838796353399,114.1050980649477,-0.012944509341367148,-0.0013038250242833234,-0.5119150450476562,-12.352214451053175,0.2448945619646061,-4.29947058598252,-0.17594619603578388,-0.01093632974400748,0.02554353353153238,-4.670026556800749,9.515539556661015,-0.9292275360823399,2.2863742261247673,9.966746001685802,-0.03184250593604305,0.03752175710153858,0.5082017557351669,0.0645156827116225,-0.019063965861885336,-0.8256995526124775,2011-09-26 13:13:35.012496520,2.799932476
49.02571291871364,8.44843875184615,111.8960657616203,0.004525464563946707,0.03547173807807123,-0.7095540309692128,2.066330114664901,-0.008358986798735323,-17.100752739029886,0.18146799011499043,-0.08909099556807443,-3.560239317974793,-1.6283486444830184,10.205995393179998,-0.4055256194052297,-2.093158878695815,10.220280116688304,0.023341553349076873,0.12510952245196197,0.00912023183657487,-0.032766464957016614,-0.1293710727920155,-0.046658548594305335,2011-09-26 13:13:35.112515234,2.899951190
49.02579209978885,8.448575486220118,112.90826279705898,-0.015172388805836136,-0.014687068563338408,2.037939091176038,5.848639692887441,-12.923596218907875,-13.237207159240644,0.023055435514259443,0.031477793849667056,0.8022192710694186,-29.906957841540702,9.579105896379886,-0.99070984080952,-0.4510533153768971,9.836381731123275,0.02051338656593467,0.10143978520132911,-0.935500362988539,-0.013841020107518878,-0.054705436322380896,0.4059618825953192,2011-09-26 13:13:35.222620158,3.010056114
49.02611878860855,8.44859957937467,113.41051366549158,-0.03397332781528549,-0.10587298624925699,1.237115848085832,0.358553141041715,-23.095650534674775,-14.114004299102534,-0.19119750654441703,-0.01566292236965294,-1.291655535832505,-3.4237364826398053,9.683376564608922,6.9701904809672435,9.225243550056135,9.29424093012114,-0.01064846727754034,0.02172707213117624,-0.10743852157277305,-0.0004595180344210107,-0.015820156852348936,0.5294229083219815,2011-09-26 13:13:35.322516916,3.109952872
49.026409093417726,8.448510617266935,114.39925071646064,-0.049186034856382885,0.05723854923933018,2.84876675693737,-4.147508042620411,2.285685923047648,-6.573418963576807,-0.03996561350188275,-0.31039042868503774,1.091828026258505,1.5856662963690453,10.34921602156244,-3.561673407188857,-2.078824962037981,10.927787095955026,-0.02089337471250163,0.051589078268729036,-0.7723444342605141,-0.03295647057102391,0.0567972157087993,-0.07422756495228117,2011-09-26 13:13:35.422469245,3.209905201
49.02478469468407,8.448841612763145,114.13729737560828,-0.12166440430454746,0.01048172720135699,1.606338723111476,-6.996939753861208,11.494966829890538,0.16103257723747127,0.12412526461673522,0.14657513574619355,-1.0153232169052335,3.5079289532699645,10.137513671658773,-0.3872590269520212,-1.279748359332206,10.076397454425825,-0.005107447162898515,0.017804605472912474,-0.69049125756895,0.0459277533422,-0.012366401211858901,0.9160524999186171,2011-09-26 13:13:35.532520714,3.319956670
49.02578280201121,8.44860695725685,113.96582770445991,-0.033354874895525015,0.022984428556967616,0.19315118311574508,-0.630122109968147,-8.364643177225094,3.9372601420984696,0.1391141530985866,0.021441649780117696,2.911692557023391,0.4878367932096418,9.59071555480665,1.0258900578842145,-1.8795019367138246,9.450550068968147,-0.04030642628717043,0.011607505269878318,0.10774715820082433,-0.0007042462875936421,0.02410620369955322,0.09683561937858005,2011-09-26 13:13:35.632557554,3.419993510
49.025734774980144,8.448556992026619,112.1580925451421,-0.0013938780413597137,0.01685518100649319,3.343659412299809,-38.27079876852066,7.326668383995585,7.447852570575907,-0.060313019717951576,-0.13718516231259253,0.14952174784253136,-2.9648492639902684,9.141306332581763,-4.692583557401911,-2.0669302442429687,10.627142073289592,0.006784052955827123,-0.022241023263823795,0.4983902420847319,0.01342341881720531,0.04463418943560124,0.23247838705488857,2011-09-26 13:13:35.742763578,3.530199534
49.025547326169196,8.448673575967977,113.64910845954849,-0.028591833598411477,-0.016618383507143862,2.4168354702159043,3.8652483487308937,1.92061805973294,5.0936369796224845,0.030521426584619277,0.07638167132829043,-1.4033928197725134,-2.966419713959162,10.966506598679565,-4.719736161460852,0.3124182610301992,9.591854197339053,0.12056166139464061,0.029632631329189134,-0.4833850544939584,-0.04039282727710968,0.013269750006187893,-0.6655370930193987,2011-09-26 13:13:35.842530901,3.629966857
49.02571044080716,8.448786345819393,113.89396020624339,-0.025064718791321747,0.06976280566261836,1.1129578522887187,-1.4219708762576226,-3.037459933267299,-9.55483390256175,-0.2731517973130665,-0.11812149776634756,-3.11386428563112,0.9697928975952966,10.767827112571007,0.23816489038945912,1.1810812517930058,10.246116019146951,0.37835878337319395,-0.022974098009865124,0.2798573877219648,0.014795896708114771,0.016307752809509156,-0.5485180320671964,2011-09-26 13:13:35.942513375,3.729949331
49.02588245242568,8.448814610962103,114.11574648426537,0.014674379974935377,0.008438638207280417,5.988407580778097,0.3919922907830089,5.113361788767037,-7.229685139424932,-0.041570410221097295,-0.10018673175957782,0.018646676499203957,0.7434122154879773,9.994279314376778,1.2980674186339218,5.348549277662041,9.731710206801095,0.05764690932636444,-0.050213437224001206,0.3368085181108548,0.19931109716526102,-0.02948837440848855,-0.4085569510920208,2011-09-26 13:13:36.042540656,3.829976612
49.02659892427788,8.448652673424819,114.07466973630655,0.27155190632050435,0.036191842451304496,1.7465155669830108,45.25595825846119,11.109158388561433,13.949992130920013,0.06572707981878602,-0.004725377710437176,1.9690890618129504,-14.609484334927858,9.739899525963908,-0.41293592839365245,-28.306958910414664,9.859702309896244,-0.001986020455169349,-0.005543510293219021,0.1760182788884816,0.01352030659113182,0.005499777012539006,0.9366068720886521,2011-09-26 13:13:36.152567958,3.940003914
49.025244110982,8.447839250252967,113.74515502457994,-0.05066762089360397,0.009874896496939452,-1.6438282700215192,-11.462035014179481,5.9847238422205855,10.67993342768287,-0.016784692491918163,0.1737735309145506,-5.445483548267553,-7.133470033847004,9.766215895634446,13.958888301626416,1.5645932990737366,9.895619650953034,-0.019347353695469985,0.06918171580554261,0.44486448012455987,0.01205142233707523,0.028515430014409586,0.2292756854374639,2011-09-26 13:13:36.252663804,4.040099760
49.02527612139378,8.448577199719553,113.4019090691398,0.061243816803246635,0.022303755965315843,1.9344283565772034,1.351422435321441,-1.2512468488421662,-16.346895695208342,0.21491402200756377,0.5162156069761297,-0.6580878636134218,0.33867079100523106,9.534705396601623,-1.7418971769207314,0.6340020277115835,8.704267241837858,0.04196952058910839,0.02349994225165212,-2.7282090855255845,-0.020631026866849655,0.019661826441975814,-0.13323183202900626,2011-09-26 13:13:36.362574078,4.150010034
49.02534644403288,8.448825454288983,114.32854127006338,-0.27214977812974717,0.07672887084044182,2.131198549359214,10.099524235695805,-0.5304178690498811,-4.702081366410087,0.12697134666922155,-0.29708162696367646,-1.7853188738473198,1.7830480998649707,10.353493550013066,-0.06461317412117672,2.521551001348569,10.220967558479582,0.021207841953750008,-0.017361817949220124,-0.5221981180024907,0.1682225801585356,-0.009163108538393444,-0.22246044460519473,2011-09-26 13:13:36.462559687,4.249995643
49.02551386842225,8.448594858705441,114.07386129976557,-0.00847426553610281,0.2049798512916193,5.078084725121888,-11.969575438833571,5.700848530685035,11.464675989338033,0.01119190560987321,-0.3095367635382782,-1.2580951775356275,-0.4799864292781847,9.639797161100788,1.7926211085179082,0.24917392353093185,9.472367550504247,-0.0032033641854966864,0.059598772428680113,0.029940627480407905,0.009160201196125067,0.015772383525681197,-0.12351904439145596,2011-09-26 13:13:36.562562932,4.349998888
49.02452107552548,8.448292441448517,114.10519251402597,0.03440683886788917,0.03672866949237319,-2.4185560848238135,14.06802921195778,8.377163651473397,6.319337353310118,0.13209305975425403,-0.16617384744524194,-0.8302695992357816,-10.405595060267359,7.6582072837373545,-0.5078714000142238,-20.509849755063726,10.316839511931656,-0.006486384946497865,0.04570797327864564,-0.369118946365747,0.021290148031597445,0.025276104770521658,0.03535274534234028,2011-09-26 13:13:36.672596448,4.460032404
49.02567023401937,8.448483758720927,113.63041042021351,0.08509741925599403,-0.013549198597043465,0.9610896666320652,-2.3765555848649664,11.337912713629686,-0.014926487818877971,0.0437320485257417,0.03910055374817127,0.5557947961451006,45.221898251483736,11.699840359074706,-2.1438695037900994,-0.25969702483036,9.908117972481088,-0.003636086056578191,0.018122720138332642,0.03146680844213768,-0.01848308073842678,0.009204224609567754,0.02660175741651008,2011-09-26 13:13:36.772662981,4.560098937
49.025929409004206,8.448547553868938,114.27969847824386,0.0504070764267896,-0.008137343280911905,3.208322227349834,10.415568286589437,-4.0128157312259285,22.90830201884536,0.1306166963890761,-1.0096501264576556,-2.9594269541152514,3.8314225451806507,10.080656068884796,3.6757319676335944,-0.9517577636467767,8.803085831679494,0.013298786000435665,0.029491360697177293,0.953434900907567,0.16583069274616366,0.07390031459894651,-0.17288000273646076,2011-09-26 13:13:36.872584268,4.660020224
49.02558933275592,8.448939755383638,113.42766728884685,-0.16974509564577653,-0.07243648046851248,1.529009329928312,-5.423510208176943,2.8329933063228516,6.832387446715527,-0.0861323281866365,-0.03818516948258682,-1.843304665157366,-3.4585197193351855,9.77737217772817,1.2958074041972387,0.22025482064608415,9.417034366788595,0.01410369369511161,0.14857473550245448,0.10458222441168963,0.00010242506938964584,-0.03273730368341208,0.13467627564437498,2011-09-26 13:13:36.982581005,4.770016961
49.02522012044443,8.448542306744582,113.12845220726123,0.003360927697469776,0.011194873589450038,-6.9698499292513,-6.30869384625909,4.870084143550562,4.395307312389409,-0.12311498681389194,-0.22725663500288823,-0.35017927277846705,-5.008365295627718,9.391664669490625,-6.972353296340982,-3.2372544398356418,14.804882662381502,-0.03362493947127259,0.0167038026140465,0.25351873092135807,-0.04259703115477607,-0.03608554341882565,-1.1242485105138758,2011-09-26 13:13:37.082740896,4.870176852
49.02560102018825,8.448668758300258,113.72334660079409,-0.0844402183700349,-0.008546043461567697,1.1324658184390621,-9.887118263249043,4.199049827277322,12.016472854527871,-0.27662393616326375,0.058750455554082585,0.8954087897159866,-4.722509231645124,10.083562842107755,0.39997696160427254,-3.0700391009248835,9.720503035096396,-0.013873628168411038,-0.012070686973366884,-0.9097382197449486,0.18387335484532807,0.030281224705020326,0.4195096559609469,2011-09-26 13:13:37.192618899,4.980054855
49.02632033823453,8.448521968115122,114.27455177101685,-0.03196563602183626,0.021377044640751384,0.25058760965197324,11.080886961356898,-50.999606042071136,7.027014352525103,-0.37430044175095445,-0.22583890369252957,-10.897665842934341,-0.08671879992141802,9.962837392564612,-0.38943274316933113,2.2449821399982786,9.494936945092698,-0.014348231950339907,-0.2748458807040723,-0.16485299632546008,0.008233352980846096,0.029466439328103344,0.10143257547454546,2011-09-26 13:13:37.292630976,5.080066932
49.02536718188033,8.448265305225847,113.54802237686197,-0.06446381409386484,0.018907652643091386,1.7093819269939259,-8.813522181405476,-5.395506527143532,0.4379768593110401,-0.31538973549968474,-0.6484568656034242,-0.8742450932989447,-17.32238814346595,6.714716292439734,-2.42441679935112,-4.6325713938791475,5.495988039918014,-0.02180319970138435,-0.05713471271356105,-0.4540543049061984,0.0019147940095384298,0.009374797927352886,0.3641131585649865,2011-09-26 13:13:37.392608503,5.180044459
49.025314504220574,8.450085524990806,113.56563802640747,0.016148198055540332,0.02900635498813171,1.6117577897842228,-11.200408860208585,-5.01526275774835,-11.677390827869864,-0.03122416195114318,-0.040638627451107245,-3.276274149437627,15.586300712611079,10.2658294572739,-0.35269181856750575,-3.3851054631258988,9.147100928220707,0.0019097776025044021,0.031810463023991285,-0.0446828440017733,-0.008466394235887983,0.055032745715505316,0.03424617594205994,2011-09-26 13:13:37.502617417,5.290053373
49.025802436076,8.44849186310946,114.13378714813275,0.003042995357974509,0.0034043886681660897,2.6348180182041396,-3.199616257019076,8.64068053737538,5.825158714980482,0.10330071993281344,-0.08280380856784737,2.4338964199045177,-2.0138943250952486,10.007623087677572,1.2918734383569328,8.84038385496443,10.280765742683386,-0.07470023283436397,0.018723259878277207,0.24597184995925359,0.0657328909487906,-0.06518210764431535,0.22758633803553213,2011-09-26 13:13:37.602605564,5.390041520
49.0271873912775,8.447851120016223,113.34562300805435,0.06723875828931508,0.029268997923405808,3.8354539657318574,-2.313620905576229,-7.767807761225931,3.672376770456422,-0.0034740578513165034,-0.04045850672777562,-1.0027692855839059,0.11842199671015986,9.913932928207432,-1.9162435173765173,2.4462780142506073,10.483035359132971,0.02803129596696881,0.007267415516589989,-0.02962760697117847,0.01563098572506535,-0.13348684662084181,0.4906288543726652,2011-09-26 13:13:37.702714426,5.490150382
49.02542129751494,8.44830937835727,113.85456124868922,-0.024292258300389245,0.009435067043105313,1.2600763582761652,3.858891480170161,-25.682008636351615,1.0041278948074275,0.24403878550213476,0.18863781012438835,8.616801461971999,-0.39429640975078734,10.029793940036765,-0.025939405972965755,-15.868464438154248,7.142939858925212,0.03087217227724099,-0.012453419847370239,0.886075394335485,0.022081244803020643,-0.01166187120620147,0.4903438049044632,2011-09-26 13:13:37.812631116,5.600067072
49.02510178205178,8.448430782859342,114.07408549668195,-0.08484501934650004,-0.003134897790369273,0.4825704890606455,4.794516024132305,8.014608715794955,-1.2597864946514912,0.1209531309577894,0.1216220161493399,-0.25186942962463627,-1.4955528518941106,9.534142335402953,-0.10768743806557401,1.4007376991605278,9.23886905170139,0.025780723936695293,0.024323689253002455,0.4689812215683041,-0.03947372467669595,0.025350482554755253,-0.3186284784369896,2011-09-26 13:13:37.912619660,5.700055616
49.026273415785695,8.448216126654257,113.43594983889378,0.008790414289606228,-0.014725909587730745,2.7208731303112788,33.83633471221384,2.9397191780858414,25.541265175839307,0.03270533603756851,0.07141283353542797,7.037343968132761,3.5111910135350897,8.79598797874013,1.003076984258676,-1.2215040324785504,9.323958070784858,-0.09201171566197743,-0.010767257072348813,0.2774755193248229,-0.014435872335028565,-0.0011128092815870182,-0.09287604206902221,2011-09-26 13:13:38.017633280,5.805069236
49.029778844587284,8.448568912009641,113.30038587395934,0.10255545061752123,0.016467757787394767,1.8388879055078677,-0.6238236716646887,31.376491473879078,57.34006151173837,0.08765443969691322,0.7726980042815947,-1.365171232245416,3.1993981349055183,10.790511661165088,0.1545296568948721,1.1525611372556988,9.287412298067938,0.04396842495465917,-0.00501054958408108,-2.734439250673765,0.0013693640869403272,-0.02902236292844048,-0.4016030621121098,2011-09-26 13:13:38.122646446,5.910082402
49.02507368098968,8.448395902412763,113.71393103252441,-0.05866524928665193,0.02372068146555773,-0.828955885817948,53.88674834602805,1.9337421009180236,5.605272268282575,0.1261581843619142,-0.06853809445456818,-0.9737345800579432,10.480226373358747,9.415483649111813,-0.17495660531982646,0.7970113597862354,10.95252617550312,-0.0595290595996975,0.03205040053474693,0.588572667271638,0.034805194746790016,0.013660022604101655,0.5093806726621376,2011-09-26 13:13:38.222796995,6.010232951
49.025668382153114,8.448367857245465,114.09323376880671,-0.007851008614399519,0.008987846142854802,8.746304290667691,-2.323362042990002,3.1252314082309454,1.8474664019503622,0.04898829585769797,-0.07691275684049978,-2.0560087934718374,-1.2275690086091111,9.521117236234637,-1.8555936908915613,10.859069783066861,10.194303932301366,-0.020008457802043612,-0.038358795496383886,0.3351052913061487,-0.000627607646164977,-0.0185531210688014,-0.5709019775407406,2011-09-26 13:13:38.322662614,6.110098570
49.02551194148016,8.448402197689745,117.9869983024363,-0.0359477838153812,0.03957997280399671,1.7564374149376758,7.947782227183686,-9.239016783646527,1.3072888021936646,-0.19962376498969175,0.03417249777471721,2.2806505011123814,-2.589181661341972,10.331081988332782,2.3508033484153876,-4.809892371636448,9.997378753477431,0.010995498276622865,-0.0008366025906575195,-2.3368568857399636,0.007850325016336084,-0.22804612712799358,1.3973736479276846,2011-09-26 13:13:38.432657811,6.220093767
49.02562310431008,8.448419643925805,114.54363858145958,-0.011512172827369311,0.03664545364220011,1.9442395040521006,5.042959264668922,-3.7024110156222996,-10.573114655350675,-0.12423171500588306,-0.05932248084944782,-1.2230090366185022,2.89180751017553,9.509837275380091,-0.36499929505691237,-2.4636155152686356,9.946576924413474,0.019734906508897337,-0.0526395585451695,-0.2847581501368749,0.008193988290226167,-0.016079231052514274,-0.5406263371194868,2011-09-26 13:13:38.532673503,6.320109459
49.02553551482798,8.448326763973697,114.03169610301705,-0.029786541465441952,-0.01205005265757833,-0.9428125378962153,-6.4275655256632,28.379934072044467,-1.9450201735726935,-0.10891194551048568,0.11382380984286858,1.2772816233159912,-3.2773329401592664,9.712663026147725,-1.042239456900287,2.4731764923848796,9.179416367985777,-0.03157547226337061,-0.03458786926213686,0.5251335959216316,-0.021108872074772165,0.01630517317174302,-0.5922205446059828,2011-09-26 13:13:38.642671312,6.430107268
49.025398592307376,8.44874920115327,113.68028352525754,-0.01269521814591318,0.035016804985875755,3.056182962342598,3.249714686295386,-1.4193812628914135,-5.5412280288293605,-0.1015048215167751,-0.41714396979351565,0.25878045084101453,0.8493404107964948,9.625258161039328,-0.7653364931649692,3.3541556463060047,9.202727433717024,0.004798710186596523,-0.0071789541036383735,-0.12638551755145774,-0.0051913900481146994,0.02390719523478273,-0.5120098891464747,2011-09-26 13:13:38.742850791,6.530286747
49.02530903208211,8.448688472744257,113.91406351948034,0.07216802002289466,0.11763262775358235,1.1988314822700081,-3.324743474938307,7.069826549599829,5.763441814154111,0.135762330183866,-0.01076360306236779,2.003722774808639,-24.051558545091623,9.886742006684395,0.91599967256763,-1.2289436891897647,8.371194861779308,-0.03271257291798088,0.05975297057796989,-0.3730122164916382,-0.25028435685812084,-0.030344625922344187,0.6853857379644284,2011-09-26 13:13:38.842672026,6.630107982
49.02512194126743,8.448750003973398,111.90437392921058,-0.0417192637069848,0.008430594887426084,0.4757813962360464,-62.86177064937025,6.722052223406111,5.385167395539181,-0.17190851710429633,0.12413507121958277,-2.2438503046621636,1.4960478943256927,10.340456841293904,0.8863782365847716,-0.14097705840244842,10.462491912583937,0.04416895373185357,0.05093978768287736,-0.012815824315952759,0.03972339705697719,-0.036248007156738433,0.6449982560957442,2011-09-26 13:13:38.952712250,6.740148206
49.02616693516562,8.449994977231881,113.9384039998725,-0.032778310102285435,-0.01050133900316453,1.6352814313140416,2.409024892612579,4.369124230903975,-4.238972192164505,-0.06576387344783717,0.02384874992655796,0.4011833522591909,27.6622089694716,9.833496398195619,1.6589465208914436,0.3454762557859612,9.151478079390136,-0.022524151736852734,0.01976109016527039,0.06818831678791233,-0.060024621683750626,-0.0358191159201376,0.2982688825620979,2011-09-26 13:13:39.052749493,6.840185449
49.02562138591503,8.448984649223398,113.78722695566444,-0.03902222118142161,-0.0006312643476024966,0.4171844179947781,6.8085426602186105,14.273941853279345,-2.5426350164426554,-0.01232397262389362,-0.05537664931023712,-0.817469296649603,0.09869519176099575,9.581630327596297,-2.8493612106026642,-1.989618834902367,10.62506151768045,-0.038548902926075004,0.03595701090126153,0.4796141518550791,0.1102337519763563,-0.026710708334981403,-0.42650069202850116,2011-09-26 13:13:39.152720056,6.940156012
49.02536148616471,8.44858546156494,113.93929413787495,0.002051320657596268,0.0014197732874117203,1.6538416053740894,-0.40599941086671515,13.16829451980502,3.9500484615528606,-0.13490728234864563,0.04080987115571564,-2.0624009781737813,6.503105782378427,9.727411891474896,-0.4738681451925745,1.5654619462176107,10.33247624069582,-0.1267533416101605,-0.016204113115483858,0.201083770260597,0.06428487169040101,-0.05020617100862129,0.001720978503154238,2011-09-26 13:13:39.262850256,7.050286212
49.02483479981781,8.448642052176323,113.89400056567472,-0.003381974367245015,0.024089149354897234,1.8587846040480116,5.119035212903823,-10.900094573121642,0.770214701767622,-0.04975181912923831,1.7083007509063826,1.0307414187533503,4.996297177552851,9.757947725329037,0.625351017009532,-0.16614610650252046,10.223274441255127,0.04002744455334612,-0.03186544316852845,-0.06007999491971031,-0.0012713309573654543,0.006285893767060972,-0.011286576287639771,2011-09-26 13:13:39.362716966,7.150152922
49.025031638351095,8.448599300089459,114.42356004813072,0.0339680444071625,0.148351663421487,1.213100682396127,18.332129157944156,6.027299188898527,-5.310206155248194,0.07162330724977517,-0.08877385649760144,-2.1607485782060114,13.781342754869076,10.173421039296827,-0.06159500724551844,2.0180050819422126,8.576537343877055,-0.01302082080742618,0.1309310826344597,-0.6230025735807548,0.056448175276217934,0.05420336530227349,4.212377374904178,2011-09-26 13:13:39.462700689,7.250136645
49.025338614136054,8.448395906784027,113.67663127532992,-0.0031337853281043215,0.035878921802796955,0.5267740187123285,10.070024349457816,-65.84867481895536,3.7271753248761414,0.16773762761995703,0.6891949258167528,1.2586414344397558,4.263696852303765,10.260923340723814,0.630329125413525,0.09370647476192073,9.69731479903212,0.046041918014313135,-0.03528411085183681,0.17999877125765257,-0.0220055707613497,0.023716560639401182,-0.43430767582831364,2011-09-26 13:13:39.572704973,7.360140929
49.02551452233139,8.448711199175321,113.37725998614103,-0.046239388880118235,-0.0030997449212759043,2.219704249600545,-16.778529898142438,10.255270599361701,-6.824056406849143,-0.02749924325834796,0.03940333789557749,0.4843274701855205,2.6350671056675377,7.568456296978015,0.3637716277005574,-0.4608656376024233,9.451649603901197,0.025695171104725228,0.00019295832363682499,0.0023804481842029435,-0.06283887692019433,0.004397914484253365,-0.5352453492180852,2011-09-26 13:13:39.672766599,7.460202555
49.02148056343719,8.448618235616928,113.92668800702212,-0.039905713739537274,0.02368934217678787,0.9673915498939956,-1.2966103504046238,6.277146838234973,2.9236224407880123,-0.08353531130800886,0.016445709107402427,-1.4810263078011605,18.05188891126574,7.16044044406602,1.8506648184389731,-2.8883650133642003,10.622685774681369,-0.039769754736362774,0.0369118566918666,0.08655011123267584,-0.017420198419919358,-0.017042421287075057,0.4542797363271307,2011-09-26 13:13:39.772785700,7.560221656
49.02681906835017,8.448525544360471,114.00999431082256,-0.01632690515756656,0.01603781045180548,2.2618952249914512,-4.78602529711372,-5.7387928266067005,2.5996098485470833,-0.2162557320058659,0.000867096094402167,-2.1464962331141457,1.7865280124321468,8.881706282235353,1.4868347877577408,-2.5673874306332167,9.786996598870724,-0.04203748903644716,0.012323130665762664,1.496110915587965,-0.013085160613410154,-0.18466044873678117,-0.17117762854364274,2011-09-26 13:13:39.882866482,7.670302438
49.025661855786645,8.448777303598629,113.33193409607917,0.03371132092976318,0.020862506828763932,-0.11033337527535747,-6.662710556497656,-9.01612128575127,-0.30796227489515515,0.03011569923684001,0.10194953550909333,-4.802163601200355,1.592348739097789,10.468369155775992,6.534933864436687,-0.18941398343445026,9.078939256252273,0.03012493425840788,-0.04625861298283324,-0.33392469705542166,-0.024817190123972193,-0.07702730275164751,-1.268758174450544,2011-09-26 13:13:39.982719390,7.770155346
49.02560361148182,8.448709928693692,113.88846050684731,0.053356780028442984,-0.012446663665918132,1.7219700057425715,-3.22744777224952,-17.19863570320536,-19.090738159876683,0.19518684077842163,0.36352964682579847,1.0815253154555446,0.021106119573738202,10.091243103741766,0.6548678210639111,-0.9481460391090963,9.488598320242282,-0.016652038545125446,-0.024519415645213857,-0.05556412562924121,-0.02234160284180474,-0.02781205014331249,0.05287084940329366,2011-09-26 13:13:40.092740574,7.880176530
49.02532795697498,8.44868984135996,113.88930015992091,-0.0614932243770365,0.025148299321498046,1.1837942532967156,-11.405239862299856,-9.807201303480623,1.8466254294237088,-0.06465514704263117,0.20087479584503024,3.271866572971963,0.6178643774484017,9.718018972504233,2.6031947437617884,2.7479812293565935,10.285272436703421,0.016891028909767243,-0.01908075601762467,0.5592049799450697,0.019785019292784426,-0.016954203042069453,-2.587387423093669,2011-09-26 13:13:40.192983413,7.980419369
49.02573040659767,8.44850439953274,113.96713453762855,-0.02375006728176101,0.04639406193358156,2.9784120604578623,13.449631595069578,-8.128097723991186,23.019706369736223,-0.5361595308040749,-0.14254193495791098,-0.02734518709423804,-3.427072240476419,9.496278864728898,-0.8469726295255396,-1.5406598693970566,9.78002134083358,0.16905297942661657,-0.02044600111591248,-0.24928389971085546,-0.014983711060780423,-0.0028041922355560396,-0.48392086627297415,2011-09-26 13:13:40.292791010,8.080226966
49.02603638327889,8.448734380668345,113.68678457443417,0.06740561460755098,0.021358228146066364,1.2143111872020549,-2.341273092538638,7.1739880643018035,-92.56555941889094,-0.09464018357254649,0.6622605816922494,-0.43043061958211515,0.48276966016666745,10.566803897119074,-13.086445023047295,4.494336504548185,10.05735093516457,-0.05742807020187248,-0.029910701415091192,-5.982272848511886,-0.03299084683302912,0.03855061354536679,-0.032106644531658665,2011-09-26 13:13:40.402742558,8.190178514
49.02417442566348,8.448833913867558,112.14818890222296,0.10246524907548843,0.010785540088104884,0.7367360644319179,2.892145300336433,6.896128749965824,12.056401383988968,0.39361388135607034,-0.003603816146243246,0.042088716343641974,-8.988362975502305,8.090361012408989,-0.4371648702526859,-3.0567893885647295,13.367043852902468,0.2452495769052186,-0.13736716515746483,2.528673713423046,-0.018810416030744903,0.2892595106099228,-0.2664509989637572,2011-09-26 13:13:40.502746571,8.290182527
49.02361792176007,8.4485348241905,113.8573592605235,0.17582119640180693,-0.0025915645827718076,1.7487554689789915,-12.11579350036399,6.787795738769778,10.426080543446162,0.18968021100107219,-0.8248537037110739,1.1125177992453839,1.9550985542445438,9.357863657438278,1.4903020542112981,5.879047793086706,8.789470492595393,0.14070232258508777,-0.004844979594690318,0.07298015567121544,0.0673779653086494,-0.015244721743343336,0.15733116159374935,2011-09-26 13:13:40.602762592,8.390198548
49.025984826494245,8.448487443626046,113.84482815822031,0.020213505168345254,0.09169708825584141,-6.743035560544986,-9.04201906400554,3.231319342159534,-3.4279519957780193,-0.006384390011863138,0.005838334073389369,1.3555422581469436,0.7106569790282014,9.830629488409997,0.9640763972269022,-0.8580406295341569,10.3816792244561,-0.05002909475645584,0.20393489384172375,-0.6707119551207085,-0.026157060964142005,0.06080718178359536,0.19897935753983753,2011-09-26 13:13:40.712917440,8.500353396
49.02620375534951,8.44842585046109,113.43527344981291,-0.06157376519626929,-0.0041129041592108204,0.2984440505223831,3.8831689247893024,-2.16182377211225,55.2241847849248,-0.07143422403979492,-0.01558829978994435,-0.06842685887308365,-7.03867950250655,8.040839229554953,-2.227014230948575,1.4417686101206488,9.91121544386275,0.0169344119036863,-0.05964992163642266,0.09750369483920739,0.001755618013728393,0.03837365645334638,-0.2516048122075944,2011-09-26 13:13:40.812794778,8.600230734
49.02371810432357,8.447654811532153,112.04255713990383,-0.013011216839356953,-0.003125155485027356,2.7946228006544453,-20.603474629802154,-0.39010072761213643,20.521219462825858,-0.1490647578328,0.03431888354438004,-1.5473187418094487,-2.0836788816457115,9.318292249356503,2.826804036884275,-0.8337192670859183,9.580373991105219,0.011290404675256601,-0.011857301110913607,-0.2970475416521868,0.03804785567081638,-0.005909006113723424,-0.6255537153744748,2011-09-26 13:13:40.922776405,8.710212361
49.02557927137868,8.448619110223456,113.84263792531792,0.032626337967974546,-0.015399623718138737,1.222567855787347,4.14410577624298,-1.5946024548448712,-6.292181719848518,0.1265061531564457,0.06783575637818647,-0.2263845497704403,2.929952828493438,9.66337587526401,3.6101031095559954,7.717141033936942,10.233633049471502,0.2514360401706236,-0.009456159542006036,-2.190033751827546,-0.01970721782659337,0.31867061500969257,-0.040873176596353256,2011-09-26 13:13:41.022717289,8.810153245
49.02595301488198,8.44822216053834,113.9202061924017,-0.30982317560508166,0.02529009097134105,-0.16128692731698568,67.35940914087284,-5.110374919950212,-7.572612094666778,-0.21486536032292083,0.032657526389027906,16.005990734271915,-3.39095902605111,9.286132737264744,2.733557095469033,4.424844891458585,9.713627529108198,-0.013888871135496325,0.03886021943648286,-0.4654932912546424,0.031286106417261685,0.016201880680530124,0.8931562278629446,2011-09-26 13:13:41.122706004,8.910141960
49.02503572792838,8.448723066593736,113.5198212985534,0.010633177137082388,0.045098148619426584,13.451206994342378,-1.2519577291937005,3.768462999745745,-6.69833660118584,-0.12888878198684914,-0.03534843203683449,0.19492773713264488,1.2834881941086933,9.967462296026262,0.4420039639025824,-0.7819519940928007,9.457485621413863,0.15392231821306573,-0.02726169570121448,0.20554392235943503,-0.003503210382339587,-0.008710472824647847,-0.029373710092456023,2011-09-26 13:13:41.222882917,9.010318873
49.02486135188896,8.448400712537381,114.17574422108522,-0.10738842908628687,0.021754551288216684,3.3749778699911834,4.22153357144495,0.8692390035792762,-3.767050186462566,0.2555660289160697,0.0844883789734178,-0.44650289232292895,4.35952577157697,9.604618484517834,-0.7360782338747014,-2.1998626675292585,9.132857534224035,-0.009329464704901218,0.004142868888115981,0.28069047203405,0.011416451915913558,0.0068344117821394134,0.12000699999086614,2011-09-26 13:13:41.332776464,9.120212420
49.02547839936591,8.448606660786487,111.73279280897663,-0.005211094678446838,-0.03474738069132912,2.0371223724829624,-4.202513652223415,-8.769230129477688,7.277121813394666,0.16063165464772144,0.04411817040427463,0.16268984882295656,-1.0372744894442782,10.65732271111258,-0.4875087953503771,0.1313416878110207,11.401857641105373,0.053319390547694044,0.027436361195871325,1.0666845732866783,-0.1240634125421408,-0.0068720027373304045,0.746898819584854,2011-09-26 13:13:41.432761572,9.220197528
49.02575227126591,8.448556635785705,113.5016658935618,0.02916580401413127,-0.02500487514990606,2.5595305354895377,-3.371674017311522,-4.130992403366482,-6.804859571175565,-0.07471941351983435,-0.12855165763505838,0.09402478796770711,-7.54175996234718,10.10978794551296,-1.1197640970381622,1.8228879815360937,10.133582300177219,0.009156688194274619,0.02017753328558435,-1.3097295235332242,-0.09014350880248032,-0.02075982254933061,0.2461110583093972,2011-09-26 13:13:41.542790312,9.330226268
49.0254580390008,8.448590635566756,112.65057087203651,-0.0023569963831952326,-0.07407153504566318,2.9450427374707733,7.653746838889227,9.929811630491105,-19.103691392160517,-0.17717256544841112,-0.1783053648683637,6.904832290303197,1.5237101366763233,10.239468258900185,2.591163989113668,-3.686370255556368,2.9170192854300296,0.02035529777683247,0.03725584970060808,0.21989607748397194,-0.025360181296371534,0.031024460868566063,-0.12395308694694306,2011-09-26 13:13:41.642810139,9.430246095
49.025604466708295,8.448346730812082,113.89164203900687,0.011712835635492599,0.03548568139104792,0.5473277564152947,7.60691780544455,-2.543277015499044,-20.19306607178314,-0.19451506058640788,-0.5288006757369621,-1.684034819887883,0.8193533841735993,9.551043172176769,-0.3661973381483383,-1.9285917771364312,9.11264673496523,-0.03808019240284037,-0.012845118841923216,0.1091948885951253,-0.032989487554639145,0.014294493401320406,0.1964907957597112,2011-09-26 13:13:41.743009667,9.530445623
49.02649712719989,8.448721096623943,114.22330947810126,-0.020402818206890695,-0.007993056432958659,2.529514298278436,-29.434809877808572,-1.0722055347860662,7.213117676619058,0.045508707510241116,0.04034311205688966,-3.4743145518334213,3.3476562421895175,10.263674695774519,1.0306668957215595,-0.5502375317489143,8.282073422556547,0.021612496076905498,0.020472213611722107,0.5699750677299279,-0.00397204176049106,0.0416224218559848,0.32173974693864976,2011-09-26 13:13:41.852815064,9.640251020
49.02577077518141,8.44873356751546,113.90708711014106,0.14052703969744457,-0.007704901987734198,1.5017736208165917,0.36441569129368095,5.373064866889346,-27.392427573965385,-0.0640850814500919,0.10783049586657162,-2.473924712157569,1.4305234934153792,9.085844641350818,-11.021467178292355,-1.245533732488616,10.183782381895107,0.21758821792228883,0.023915216445767964,-0.18275783842876325,0.14165049933331533,-0.04654956091146216,0.1380235784114797,2011-09-26 13:13:41.952793495,9.740229451
49.025615086307575,8.44836076634356,112.96708635126288,-0.008383474184239246,0.0027296748991080984,1.3362745556123345,-3.347539069249837,-1.1451305469566995,-18.71148468901149,0.15664114614334276,-0.11230787815471985,-0.001980223856044405,1.308596667128728,9.178359044814997,0.10498168867057653,0.4736111208740944,10.943851712837024,-0.003584489243582638,-0.00988538243123344,-0.19729652100226489,-0.01608542261835345,-0.017500683666085943,0.44139146744029734,2011-09-26 13:13:42.062786845,9.850222801
49.02517936450125,8.447989055781683,113.3303204237147,0.04252493560044999,0.018822817916688595,1.1942085335203187,1.5494131663260984,-0.8540828367513091,10.627722625754672,0.2185685170417379,-0.11262346252823707,-0.8688696132161975,-3.539809112039821,8.987626766484842,-2.7203326105729673,0.2745962078406514,9.232022839786833,-0.02924745749756157,0.014410348769200571,0.05127816818420529,0.026409117955348636,0.0790291535001442,-0.21536574855869023,2011-09-26 13:13:42.162937807,9.950373763
49.025173129205804,8.448382939600902,113.75827197568877,-0.01830461664243151,0.04163191338160937,0.4330908375676321,6.985258485171549,-11.13488571480962,69.49288077600185,-0.5767478462376497,-0.04486781329641529,4.773515147153548,16.113881568893742,8.948709322904383,-0.35231340639698727,1.9637188822242493,9.165945864328302,-0.20097847916443018,0.03013538353092552,-0.15293715357856363,-0.07167043135576744,0.05559502303802416,-0.6598688644090763,2011-09-26 13:13:42.262904066,10.050340022
49.025688366213075,8.446495772955908,113.65775509854653,0.041635220238897146,0.026097997836224265,1.790077773255114,-13.148494517702591,1.7269320876485366,6.295026283682326,0.021550149997974683,0.26188667545205513,-1.9641239614403705,-0.6567646569167284,6.546017053530883,0.6626801418377828,-0.3820958550877435,8.71288767453152,0.019960828434211715,-0.04772471515810612,-0.37341243414694764,-0.014111773202217456,-0.00860651686346819,-0.2831803918029229,2011-09-26 13:13:42.362837059,10.150273015
49.02563501731882,8.448668189000914,113.96813107238562,-0.04791390838311589,0.013994913004758391,0.49934986425757943,4.874486051879085,-5.3828823825596706,-1.2561216170670384,-0.01092645669883286,0.060024780532922484,0.7371621053107851,-3.0602601949949952,10.236911755607455,-0.508297270635746,-5.708982724905094,11.933459611325715,0.001137608481794789,-0.00019053690583113373,-0.3220888248980761,-0.05031953834126403,-0.015844495220858127,0.026255167917898753,2011-09-26 13:13:42.472833084,10.260269040
49.02552164013015,8.448477241411236,113.77608413891691,0.005279253154214377,-0.0059736573447695136,0.4802909606959225,-4.917257491566966,-8.019681364837693,-17.450803012370226,0.11567999161793835,0.20366962672861147,0.6944082647607552,-3.1970733149065182,9.703013143221284,-3.9563581872832514,-5.5933023889007645,10.356228827648946,-0.0008055157134588978,-0.010080135205351644,-0.1578851469292662,-0.010073393936744245,-0.029008353989729237,-0.6735973658749077,2011-09-26 13:13:42.572865417,10.360301373
49.025916555752616,8.448808396114444,113.09628121386541,0.0192803115038823,0.017253144501435266,1.5478566769305748,-1.5129373117603142,-5.84424309692084,5.874701396771697,0.13526233114215028,0.022134571474367305,0.3301009115224177,-3.482011886289078,10.823622464580211,-0.008353045064700089,2.804426905980014,9.787362980433157,0.06535279309602304,0.04087021157825915,-0.03100591680974686,0.030173367661133002,0.22610512430216234,-0.6565209185769908,2011-09-26 13:13:42.682948060,10.470384016
49.0258519961721,8.448777152230017,115.92770110798543,-0.055330019246273725,0.014453869186064118,0.5883857895959036,-29.909966716683503,-15.880494053513369,-102.42941152639506,-0.14533022445627042,-0.9314486840774548,-2.2133697206974325,-2.4992029219089034,9.65413760804627,2.276767919968409,0.621319756853203,9.763026478841855,0.023648410922808907,-0.0205518844709858,-0.31645252951883396,0.030165377437059493,0.05488397674418632,0.25031008826034773,2011-09-26 13:13:42.782891050,10.570327006
49.02580376911081,8.448205524285394,113.77442447454274,-0.019036403661046992,0.013312741767233467,-0.2940441313472115,-15.981704538668994,9.594874378382846,13.713386345979744,0.10107399115647385,-0.08520278125418619,1.1363305183986547,1.9378037710785447,10.307852377153868,-0.5521444057870686,11.02493185775854,13.002521402178735,-0.016092252216265812,-0.024781412468888694,-0.14768253897979924,-0.02791752785947723,-0.02653485192389171,-0.0873214044610371,2011-09-26 13:13:42.882886093,10.670322049
49.025073708959106,8.448626662317851,113.80399416752792,0.036962584854742075,0.10692771692595379,12.851881547620183,10.141741477782055,-12.547192193432595,-1.2282342224632117,-0.319445951723373,0.09265477694821718,-0.47928843442806407,-0.32342730475710596,4.249812373961159,2.424494265341439,-1.7367581680921493,10.114049242468381,-0.006450422927409629,-0.0005004824591028467,-0.08035353553701267,0.009561485726548653,-0.008942633706723014,0.060097743524242124,2011-09-26 13:13:42.992862614,10.780298570
49.025345655446394,8.448369493246771,113.64106715165013,0.019003132110383687,0.010219854124096879,-0.853217268388841,-4.976770779595582,12.423320763447169,7.47764711686108,-1.2715557861990328,-0.010332128035557163,-0.8722686630577638,4.573019653526022,9.458381244054774,-0.7651131321765401,21.77555568921659,8.951811222380083,0.007998801261838998,0.15292134962585416,0.46571592312351473,-0.1820586343731251,-0.0016164086529205008,0.017667243144158472,2011-09-26 13:13:43.092865279,10.880301235
49.025244830068765,8.448606852673706,113.89807935802158,0.046758252370874026,0.02542667957629831,11.04805862342633,4.675859035054367,6.412627076988652,-0.2667639247965055,1.0502881855579578,0.1286562885355395,-1.8899640503784205,8.349489343745564,10.027496776740735,1.4950345843128436,2.901251530363171,9.400732523668005,0.003111097769030183,0.010163850520753082,-0.6365342502947154,0.005666545001765776,-0.06167435507288353,0.4971208509824776,2011-09-26 13:13:43.192998035,10.980433991
49.02590747014597,8.448259582647768,113.42898906082291,0.26665930261553283,0.0013488881545396549,2.785325745229792,-5.843563615797549,-12.769388690280755,0.7402727659682019,0.2586464250597839,0.020630630965229765,2.0326082117807958,2.2971016264245003,10.84010619430246,0.13007422295584747,-3.0668206057977896,9.688106441879084,0.2684499572496371,0.053393879954000224,-0.5846455129868998,-0.021708431300242585,-0.017561556858297755,-0.22617722118793862,2011-09-26 13:13:43.302844329,11.090280285
49.02546953506787,8.447885686376726,113.67686937786243,-0.11813622806227589,0.010864929911356793,1.9802651255336197,-1.8999506707317655,-2.262560792587873,-38.87268467566925,-0.08491361454558068,0.22999703970555022,-1.296053797251306,-1.9740299399343622,9.123303945212355,9.035067841487942,-0.04943639758058487,9.827259613448247,-0.02277627256827687,0.05130547471351928,-0.2154034908593876,0.012732325966438356,0.19234019970943483,-0.19103102354200138,2011-09-26 13:13:43.402849809,11.190285765
49.02603174780154,8.44856129099547,114.4535416199191,-0.01259390525221635,0.03663385287842658,1.9293849566311034,3.2552238476506994,1.011066134759909,-10.662499348846419,-0.23348991690264573,-0.09270899121603433,2.848986578569766,-17.985340197964835,9.811906148408685,-0.8468363640590091,-0.6439959668841582,9.058006298841185,0.1297927991234633,0.015081881282338946,0.2436230489770101,-0.07005933316126735,0.19679098238297274,-0.2698576012961664,2011-09-26 13:13:43.502868608,11.290304564
49.025765816606395,8.448489978672411,113.7405227622673,-0.05231804341123714,0.006685631011204279,-0.22474762004274407,0.8350187359717822,8.507157643175068,-13.28025300325114,-0.3128114886114311,-0.21846673238469408,-1.5002813958301717,1.9844056180567173,8.895658055326711,0.540909256048464,-1.8557979004933403,9.424412711005097,-0.017443270141085793,0.015558936726201658,-0.3667840793646691,-0.0139983394448811,-0.020642109734008932,0.44327329670600063,2011-09-26 13:13:43.612874251,11.400310207
49.025257805956635,8.44838273859832,114.22960449328093,0.003914017408342166,0.04345362450089908,1.6906366991842994,-3.5363907056484525,5.8714771122579235,3.362764958211233,-0.1398924162223919,0.05923121008190511,12.35586844343631,-25.455805153367578,9.784839361173848,8.081567886900759,-0.5782157261011593,10.019195738684795,-0.008701189758226688,-0.013392346469730282,0.6462417441483522,0.03559155124566041,-0.04767532063815342,-0.27582412376209253,2011-09-26 13:13:43.713050193,11.500486149
49.02599642126984,8.447666021876502,113.57109844736321,-0.007584323466313581,0.029481203954243664,-0.25810470418527376,28.290542914135276,11.572766806448813,13.77497404026725,0.1966481705179922,-0.8158103409330693,5.506276018511129,22.463922315168315,9.5124031646391,0.6207024801898172,9.014598796258122,10.726482422148008,0.02815048944987207,0.0018676082719143398,-0.3064240230074124,0.02776702089824706,0.00647750919286616,0.2614887746667282,2011-09-26 13:13:43.822878853,11.610314809
49.02544184281886,8.448407682054887,113.91338542697913,-0.025480685108891322,0.045589295379694625,1.3045427051664293,-18.26402105743339,-7.722664142474637,71.79904962614779,0.16148946758045477,0.059929507238706214,0.05004998648838016,0.17501209948524493,9.051542247041441,2.3432218297226988,-3.37497521897279,9.950093172363825,0.02994134379817534,-0.02730061041357057,-0.5821487579986201,0.036168055999482945,-0.004142471365484069,0.31671016865536705,2011-09-26 13:13:43.922884998,11.710320954
49.026093706292194,8.447786847774166,113.9042552828404,-0.24258288346837567,0.007420158237582129,1.7842672718503427,-9.256614509733968,1.6628695901720987,2.156913805866724,-0.12462695568717051,-0.19776265944571486,0.9478564784583332,0.9708563846288732,9.833845904847983,-1.6541447025060088,1.7444873227925768,9.531074733856016,0.03393591518025885,0.044816227225743646,0.07557195950120801,-0.028303538281835204,-0.027464416351256155,0.03623018356283546,2011-09-26 13:13:44.022842114,11.810278070
49.025694447919356,8.448491328467954,113.29189317391132,-0.06376776701835617,0.0059351655878337635,2.200351627846878,8.30851022076933,-2.3715112541368217,-63.835935664192704,0.028678590383100028,-0.25589964336365506,-1.7928989747038244,-0.048641762139868025,7.698660950873226,2.9175318548101514,3.155123488912754,12.885033154837712,-0.03173592154856346,-0.04333344851204641,-0.22082598674078863,0.03157674294686639,0.017876343613227468,-0.37843822766107377,2011-09-26 13:13:44.132916202,11.920352158
49.02527900985322,8.448933879153532,113.88404551986399,0.023353323223530578,0.03246120506782665,0.023477135581534414,-6.1095767907185285,-3.742135649098665,5.0256619717256905,-0.15726759257629017,-1.3533376322600266,1.5624844026883962,1.6040078627664398,9.170351094416581,-1.54672102572106,3.0144153022376097,7.503526855813002,-0.041921132680746605,-0.251396497734741,-0.7306709750907687,-0.018680722912888807,-0.08244123850893051,-1.8550932448678534,2011-09-26 13:13:44.232985197,12.020421153
49.02547339876276,8.448465559029506,113.86118398025845,0.008174030009033467,0.01371260273716055,2.7642754523237256,4.129499265253921,6.122246166835572,-3.2048295332899976,-0.07699336171872005,0.1493707017218258,0.7994158942405624,19.23620368471257,10.190350500204891,-2.161892760956625,6.963900084803886,9.600983159734692,-0.10379438841333047,0.008149097820433826,-0.4232980746223951,0.0025003113520756337,-0.002296146789603491,0.5690493069558065,2011-09-26 13:13:44.332879777,12.120315733
49.025646993818754,8.448623494718612,113.758324747677,-0.03414927450529814,0.03904231218364031,-1.1453000117743646,-5.395954460501781,-10.338691453217544,4.150793577309863,0.16045591594552813,-0.09146303245325835,-0.08106352410305578,-0.9460741245377158,9.596920979370886,4.55717898353271,3.4609033986302324,10.293051924487802,-0.004596530802338447,0.04865681234033537,0.15787542210256894,-0.018938599627052136,-0.020320645519165202,2.5976720206183,2011-09-26 13:13:44.442907864,12.230343820
49.02531148159238,8.449763447319622,113.58041566038959,-0.0686541116562473,0.03794147088058469,-0.18092918064074714,0.6204312865957604,7.839239513891381,-7.315609976003325,0.08864981925474945,0.11981520440119155,13.113599050063938,-1.2998368354462349,10.382272732309803,-3.293635537888216,-0.9907896220902422,10.241233326522147,-0.02063033211964484,0.007185806772822755,0.043331292086299954,0.13472728969182354,0.049892151862675385,-0.10692900480539816,2011-09-26 13:13:44.542883812,12.330319768
49.02531092228683,8.449839242514198,114.52429779660987,-0.03759243585621062,0.01094083433157853,-3.2156942045982095,0.06175114106828475,2.6505878060381356,4.83297644126331,-0.017398835428348303,-0.1832110355500701,0.7370791893871973,-3.5612032987184974,9.190424628820605,1.530485583819241,5.20012788657817,9.19541102913694,-0.11571895150435223,-0.047090099362466824,2.473407020883337,0.02793954246354479,0.08526522269971648,-0.1502650405478567,2011-09-26 13:13:44.642919908,12.430355864
