lat,lon,alt,roll,pitch,yaw,vn,ve,vf,vl,vu,ax,ay,az,af,al,au,wx,wy,wz,wf,wl,wu,timestamp,rel_time
49.0253196156574,8.448491297479464,113.73773433581812,0.042843588914649074,-0.0001744081350378117,1.3493649730953927,1.3048315059774465,10.615457893297267,-11.086440677067525,0.07662825726211148,-0.06194141410147916,1.6765754618240492,-0.4830574937586015,10.054628370536951,2.5754372032051775,-0.8617238982074591,11.099029080747524,0.002654106947145945,-0.06426935135601385,-0.016823484565877192,-0.044362970086985365,-0.01912677031729791,-0.08916058599294238,2011-09-26 13:13:32.212564044,0.000000000
49.02474084032134,8.447876368641362,113.85109452096593,-0.014367779864245152,0.030906983353446105,-7.568157751373201,66.36103532092085,11.41627340967916,-5.611472692405139,0.19503987303303572,-0.042116900113082195,-2.088436824849043,1.3826593286465758,9.333068501045508,1.2245466989653857,1.4879177248280102,9.576986676364951,0.002322219913804656,0.04240694398800688,0.15664341772456256,-0.009973440567664164,-0.06781616376024971,-0.07865459150346688,2011-09-26 13:13:32.322364840,0.109800796
49.025490051483246,8.448837079611929,113.76901037611289,-0.015541485395372905,-0.004571420659508859,3.933001230604197,5.199400235370326,-56.0631483668999,-7.391904189910202,-0.05191212625390358,0.013490722617270766,1.9636041962454676,5.270154744673202,9.591952936022954,0.7071705073409054,-4.147671498013632,9.8193332931298,-0.010864875084585628,-0.21015217130785557,4.7336464389559145,0.014028483393231862,0.0016048517544280383,-0.781245886778967,2011-09-26 13:13:32.422405664,0.209841620
49.0255239078994,8.448832217720698,113.94770525847862,-0.02616656859101816,-0.01868020169213193,3.154577685196636,0.008275749244044978,12.861162239346108,-8.207026969360852,0.04903673794631814,0.017131043504867847,-1.282206266774054,1.180217892719735,9.891252644495703,0.7461168961754142,-3.0513948841698837,9.502867232194351,-0.01854977506236355,0.005580340727634096,-0.7779770365313375,-0.008913081092518168,-0.0028294098951264003,-2.748393697059302,2011-09-26 13:13:32.522396024,0.309831980
49.026504355880185,8.448703455924392,113.91400528791497,0.02027273715405743,0.016592561866863885,-5.557092492383005,-7.21308430432126,3.426477077878358,-1.1834634712077536,-0.5913503466260372,-0.16062449577925916,-1.0224450005888341,-1.804064356541582,9.340756259077883,-0.9627333975363717,-14.909963336380548,10.139641078212732,-0.022680255762815217,0.18079787868148972,-0.12387992865895758,-0.042216804031177134,-0.0273810809242367,0.49261740609697213,2011-09-26 13:13:32.632434672,0.419870628
49.025990799931016,8.448988400026515,114.22280187311286,-0.02082740576595228,0.0017561170574781505,1.3056975269522015,-8.199831573086913,10.252436545466947,-12.229738559557708,0.04141551368218053,-0.13746359116558868,1.7936685017766127,19.424997361800063,9.63365626116043,0.1827566894586876,1.2852959290950694,10.228456299707943,0.014979071661882176,0.015304869175253137,-0.6646423987080723,0.046619564740259516,0.03540750757678207,1.3286240653284556,2011-09-26 13:13:32.732619806,0.520055762
49.025532632911705,8.448405624807059,114.09412657319726,-0.13773177513176915,0.01830491748438273,1.6455238155514889,-0.3306927391876943,-3.4943519935485594,3.631683910877106,-0.23569942078568826,-0.11179057046841262,0.31851265988313676,-0.7303609213352518,9.929248043663604,0.5937067473721508,-9.460284713619291,9.248568652355129,-0.010621056525866125,0.011731586154886033,0.4145821170000273,-0.060211976699255876,0.031651839258248826,-0.09072611507435895,2011-09-26 13:13:32.832405355,0.619841311
49.02500583862792,8.448548426109099,114.11439693019635,-0.0293932570028256,-0.012728020165988913,-4.854307245072723,8.5823546056147,-6.290900654047413,-1.135043679575033,0.07512808767734706,-0.010396939528612297,3.1354816996285755,32.29293022772503,9.52577201016417,2.6325302300038107,-3.0011196915063003,9.090793558607066,-0.035423768909452556,-0.19446943735289765,-0.5243935228463843,0.005467498735834589,-0.004774023904179169,0.41491663584841354,2011-09-26 13:13:32.942409752,0.729845708
49.02557586909491,8.448464929363858,114.55798390994639,0.14928164589733636,0.04647274184919036,-7.259823357477245,-6.37655600987764,-0.573034417047041,-12.59277262110893,-0.06425541104286807,-0.04406191610913891,-3.7783704821943167,1.8689104370554745,9.345001647396549,4.069677423166087,0.4784198558341841,13.095215124380946,0.12745684162024257,0.0560252939295208,0.7681946779095196,-0.0024410667654989012,-0.01712694314673309,-0.26540903738110283,2011-09-26 13:13:33.042470256,0.829906212
49.02543814166984,8.449369105528248,114.00062703532572,0.03978852018204687,0.005095374100602897,7.748696024553195,3.0954204928059963,3.2892580015953246,-2.5108365616823085,0.08844672008746521,0.014939152147008177,2.363401864405515,-1.9371023349537446,11.373313220486377,-0.507366083556008,0.0001757808760628008,11.35973683412095,-0.02248854080015991,-0.023144842314715315,0.9698979666641555,-0.08203782401659276,-0.08023053365830252,-0.04234105976333325,2011-09-26 13:13:33.142436718,0.929872674
49.02506966176299,8.44887276264594,113.59337200968,0.0476883613263646,0.03368132003534389,3.659701573783857,-9.960692198052802,9.007329264153691,2.5641652491324614,-0.011623674157279367,-0.05086854834817239,2.0010803875059833,-1.3958040625955546,10.071312586187371,1.1157412993336242,-0.4204303986006479,10.247443856595234,0.017545892577335926,0.013850819185718883,-0.46959532405752474,0.07902401469209694,0.004804783298086374,-0.350031077792161,2011-09-26 13:13:33.252493591,1.039929547
49.025160067241046,8.447580751440423,113.6832848769714,0.02263666000908314,0.02192759778252301,-5.837385611690819,14.342795219953228,2.872991368041761,-0.20904405964223566,0.04240520603947996,-0.08751530568425488,-1.0073992785144243,1.3216321847921189,10.070818881634258,-0.4080754345651323,8.022778311030489,9.17564529418494,-0.017385110909273308,-0.0069132682723467235,-0.5216005828722872,0.003224291862303705,-0.06667458617231806,-0.5299395852703158,2011-09-26 13:13:33.352433806,1.139869762
49.025519824642636,8.449614861318699,112.55906031639707,0.030905649946547417,-0.08015614403452224,6.048117001323549,-0.2716068800247094,9.39060152597926,37.544785436440385,-0.12257363659051503,0.05321775672608483,-0.1377198362895899,-2.714166482973349,10.358663698580292,-0.19269750602498048,-2.187175129834159,10.37197376436775,-0.007876656881189407,0.013306213895458633,0.35065872872496584,-0.008941124502282242,-0.04590378021525414,0.09698361918897208,2011-09-26 13:13:33.462447872,1.249883828
49.025306885506666,8.448461890672984,113.91619997202864,-0.06129106750899786,0.018703656817443497,0.19893993250903952,0.26536734299305853,-8.435132529263408,13.391191519645687,-0.02196413228106385,-0.1283516227427802,3.9100120092744515,-1.255671655053776,10.169543629943012,24.90500595879709,0.6570586741804628,10.56883613892557,-0.03708487432244165,0.02410046337045941,-0.29365472553900046,-0.16120305228165205,-0.04779241819621462,-0.11592293042751928,2011-09-26 13:13:33.562436506,1.349872462
49.02576490215358,8.448426469805376,113.83141762835064,-0.08199693413360071,0.13204624916569607,3.0447685895492356,-30.333138742454096,-7.386465683031518,-45.24244877582351,0.02378935470002669,-0.008359906327828707,-1.3229541149853554,3.1331720218917747,9.78713908744704,0.13732520539506013,-0.10539329425040642,9.46034250433145,-0.026507212227223943,0.018800359085902503,0.15752373940688244,0.007363540438218589,0.006095024625533952,0.35157960390032117,2011-09-26 13:13:33.662499467,1.449935423
49.02503965659848,8.44793812156195,113.55858846901198,-0.061665095202779706,-0.001351226623605031,1.0155558220228185,-5.0199831705208915,3.5190428428372575,0.7073994559470398,-0.14780144922268304,0.6362771342257333,1.5959130926534502,0.8595979224586997,10.087748039108059,-0.36213615241674424,-0.8642175137258811,10.275127900998356,0.043012828605094526,-0.014837311938370366,-0.47297759314064153,0.007994099196887303,-0.016402388139190704,-0.23308114940498237,2011-09-26 13:13:33.772559236,1.559995192
49.02461670536631,8.448736932175013,113.46786942860055,-0.08402638002490823,0.034492264399963335,2.3826205770014353,-4.600618010699084,-5.349785135855844,4.2480452580085615,-0.008229717469377933,-0.11058809013638903,-0.6601699100811852,-1.3118653388853505,9.850072298141798,-1.6193697282637984,2.6436809382763475,10.200331452132174,0.04443951415295848,0.02985075772316706,-0.3848364831495227,-0.06087900518000747,-0.020531480799179748,-2.3731983188349535,2011-09-26 13:13:33.872509404,1.659945360
49.02580754813902,8.448765727539032,114.04949494734997,0.3131174197727467,0.020728244145761993,2.1725449059499122,10.65588231589529,10.921059057140653,-11.3009086193177,0.015247872991527345,-0.037526082256207,-1.4070780329983135,-2.814351132323632,9.843086394088058,4.496933523007109,-1.6826808307441143,10.305208438824454,-0.02652628298517368,-0.014464211706195915,0.19474901715337528,-0.035274028674291774,-0.1551718045468021,-1.3898411785859968,2011-09-26 13:13:33.972504422,1.759940378
49.02562513100597,8.448494582934938,114.17066767272885,-0.005349434889426255,-0.0014187246489525667,1.179078399784594,-7.720575310065072,-0.736952736945315,16.581683588296066,0.7475028767362494,-0.04217314544637951,-5.601471053360929,0.3007167076533773,10.06162383005791,0.9515823418642037,-0.7944437163882488,9.652209374890012,-0.30034116741865746,0.00936747568204019,-0.09022868168146542,-0.022316500853129365,-0.003986394442984942,0.0905929450646485,2011-09-26 13:13:34.082470790,1.869906746
49.02576091009025,8.448741473930896,113.36622328001536,0.004020911406726934,0.003993956569588154,5.879850609879139,-4.199145516566688,2.3709361219872593,7.210799212700934,-0.0742495266701938,0.07860775219925784,0.36064245242412685,8.111362299193017,9.023581048930112,-1.0048463747263754,-0.6055182485183388,9.74982237521465,0.0022034143018464006,-0.0300682485618937,0.42939905835547487,0.004357605444099684,-0.012005554258462474,0.5828338250725655,2011-09-26 13:13:34.182636414,1.970072370
49.02561843764479,8.448737979495807,113.86425556177431,0.039414844128633796,-0.046223928510192094,2.3783691505850735,-5.148634241163281,-7.320472376611377,3.162435961721679,-0.007421217246561007,-0.3420851062386874,-19.487061248503775,-4.495042197741373,9.426057668874538,2.485092488984489,-2.4748591891675353,10.358226319495415,0.02956444269174573,-0.04463763263908467,0.16415253288659395,0.05485933632690047,-0.1086000851919218,-0.14578792170431137,2011-09-26 13:13:34.282528541,2.069964497
49.025500527253655,8.44843274414882,113.62000507824034,-0.3569442741423026,0.08181131657615784,1.9988503186207935,14.774470095727445,5.501432743693891,2.7757049014355455,-0.09422331215871335,0.03173498375613855,-0.6925522964969381,2.4924390617253716,9.808368999791494,3.3284387897089673,4.476565818420896,9.644259742846447,0.01101836862460194,0.01420052238059937,0.4832789326479594,-0.014026313692196712,0.2686659141202845,-0.4024515327691524,2011-09-26 13:13:34.392480359,2.179916315
49.02521660131238,8.448497739567111,114.25691306254029,0.02406822708206941,-0.11643563123119761,0.9972731406690702,-1.9235876992851355,-6.398377060902092,-3.7583054855603666,-0.24301702433580075,-0.04530378705240643,0.6040635166606726,-3.929496812794336,9.390538537836175,1.0688832057027227,-0.11601762339810738,9.972568694101568,0.01163008190266623,0.009157490111310196,0.5489463414472545,-0.02158120628645955,-0.14041361413741346,-0.32520173178593176,2011-09-26 13:13:34.492492635,2.279928591
49.02543476977278,8.448564594584068,113.9621873178113,-0.007189576543615943,0.026953393461631725,0.9768626978310906,-7.640716893722387,-6.270425633992923,-2.8514872968804954,0.14148174729378277,-0.13459418004778115,1.3773892671029775,0.30894436044534934,9.406293864777926,2.634700279118132,-0.7554838116236537,10.305689115561067,-0.0058588318711913214,0.012734703777424763,0.055179769600037266,0.04156291330628657,-0.13579800827333702,-0.1126359327903993,2011-09-26 13:13:34.602490365,2.389926321
49.026139276394154,8.448615983931273,113.90418507235599,-0.3579021264563286,0.017516677051466943,2.9420080681935796,0.3501023858511668,-6.68012622540653,3.400847224509354,-0.1714004294039897,0.17575412424979367,-0.6665311652770538,-4.047553774214497,9.774346833088792,-16.113960125331868,0.6249482077362359,10.255582525658358,-0.015825179551987287,-0.024339691834669813,-0.5811613650505956,0.003443804457582702,-0.02803126504221984,-0.026416918629222214,2011-09-26 13:13:34.702539028,2.489974984
49.02575222462788,8.448297815154335,114.12847406507802,-0.028359482103749098,0.026733258073900926,0.30098093168485396,1.4678724892177186,22.665460755340565,2.058583151168314,0.13659220761660604,-0.006637764819294194,1.9784164915937748,-3.7140798976892255,11.818338090606499,2.11428937562784,3.10664232872574,10.113681714185187,-0.01997219410062367,0.0016615429396273228,-0.034994500618120414,0.002081255171852992,0.012177639203013905,-0.787506535639448,2011-09-26 13:13:34.802517705,2.589953661
49.02625923666923,8.448592622836964,113.76172088153615,-0.32383815978697883,0.07441531308711237,1.824941231569275,-40.45659677970277,-4.848710797477954,-8.778751207132503,-0.2745265165516904,0.05372114165091684,1.6060048559202327,-17.654982595870326,13.536547579508706,0.9191228821444567,2.6428329701414146,10.05848792166099,-0.1365314927429852,0.02111203044641691,-1.143812922175296,-0.02068710463624325,-0.06976356397884045,0.02968586078225694,2011-09-26 13:13:34.912507696,2.699943652
49.025616545066285,8.448512860048094,113.56821251632259,-0.008784835545063596,0.03447342913986591,0.43115189287601974,-37.55484861708369,15.417209507637544,6.576064336385153,0.0639879995318718,-0.11461702341767174,-3.212583198676771,3.3433352521068267,10.05049708159092,-1.613020696517831,2.9376353536185436,9.980494108452028,0.010754055170697654,0.01439248254109249,0.07337277218510346,0.02829827404386789,0.02129473232128421,-0.19642074013491778,2011-09-26 13:13:35.012496520,2.799932476
49.02529177680359,8.448275459591562,112.4537046731993,-0.050938978513950524,0.02535211776320995,3.4779433595586196,14.351883739104025,3.0899275160009565,-38.85338811894806,0.9289296815628973,-0.04776831084958866,0.7238560191950886,8.291098574982538,9.894785971819637,-0.17419779438684777,-2.906970313681696,9.638108649196008,0.017374703870159,-0.01715060763991027,-0.2819761817040226,0.007459140584593054,-0.31874573862846595,0.011221337543067538,2011-09-26 13:13:35.112515234,2.899951190
49.02543284695042,8.448588849223155,113.82333471445956,-0.04964592206615773,0.014336221396196015,4.206268810592951,-3.058270126788054,-5.901063661520633,-0.4312057823353076,0.10397340372855822,0.03346764660435334,9.250370164387164,-0.1715240177780384,9.520573576414522,1.375395168940915,0.058551214502441475,9.38609494851926,-0.052529483475316815,-0.022004508790922625,0.5566991818596315,0.03301569481531416,0.009079552472282256,-0.21925045114864042,2011-09-26 13:13:35.222620158,3.010056114
49.02532353321048,8.448518139449154,113.95320183828625,-0.7093778444537557,0.006336036141688636,3.130319675881207,2.737015111242068,-1.6648370424877792,-6.6702233904290855,0.17485649659618507,-0.00908901104040707,-0.7000099079454127,18.629409509298732,10.617419687831994,-0.9141393419185648,-2.7516930292341724,9.301620204718947,-0.011722143996205664,-0.014341591022280067,0.09620903102937885,0.043091747236663966,-0.09216181676837712,-0.07162995045276639,2011-09-26 13:13:35.322516916,3.109952872
49.02566184517503,8.44878676277972,113.26345863325471,0.006233134801812713,0.004109751467392241,1.169795277830783,-5.857726948788025,2.8574544719760837,-9.298346177372146,0.26510520944975385,0.12538677798465064,-3.159391323866468,2.3276384137636104,9.828955218958823,-2.1584993472461194,3.7686603526553104,9.600373792913212,-0.10126781297466142,-0.024276882180254946,0.8217406644294468,0.01968397050873871,0.01267464277597325,0.13514115868692933,2011-09-26 13:13:35.422469245,3.209905201
49.02284850526267,8.448829045157824,113.66336694209423,-0.057335513556255754,0.007882904658216847,1.7461341547881843,48.412623870873944,3.0909620015270534,73.274294491742,0.11627528423183718,0.07598570901900419,-0.2518328671801917,2.5479505913804803,9.642782355444552,-0.7822659071381627,-0.42048129823245584,10.608900355097681,0.09056983309797621,0.01493085331612847,-0.609059439148006,0.009920255933097142,-0.016926412357257465,1.4459552267241393,2011-09-26 13:13:35.532520714,3.319956670
49.025026582717395,8.44981020777104,113.85405343230104,-0.03324176125720783,0.013665994236506215,9.307852949143655,-1.288384397587142,-4.851501416080584,92.24343004878534,-0.9521001304417717,-0.06902417616990311,2.0191039885849005,-0.9138105543835706,9.508432289140309,-5.400357962786366,-0.4204287971376596,9.974859455809424,-0.03868265746391246,0.004024135857224141,0.0713299786584644,0.020559871016195035,0.03081704425625679,0.5918987742601068,2011-09-26 13:13:35.632557554,3.419993510
49.025711158150806,8.448762144689038,113.97897479814328,-0.041063332273166026,-0.01996515488382443,0.8351629624039218,-1.4409916235875597,-11.384124391269186,-15.364570662796089,-0.2529534868474301,0.17295738396675342,-1.1158033615816982,3.7857605765878204,10.049531282631087,2.8122186830735485,2.126713859499409,9.412582076370201,-0.03992239430603493,-0.24439556366047346,0.02678987318316745,0.03559880825357652,-0.18580256392100575,-1.6805382292721105,2011-09-26 13:13:35.742763578,3.530199534
49.02568406531304,8.44869618168376,113.50506584923326,-0.0009724587655314271,0.045707536425083614,1.0282380528659545,-2.6815517262015556,0.7713757917654521,9.186990790092898,-0.12855621861456845,0.099730361138727,0.7794892031184136,1.8498804405875509,9.04338198180805,-0.6851174396697446,20.6301959363816,10.120186979469594,-0.022619245003842027,-0.02651994687118252,-0.5611087002515924,-0.017240665055172227,-0.015399655708179093,-0.14339576389259676,2011-09-26 13:13:35.842530901,3.629966857
49.02549997458108,8.44883623641283,114.18763285110356,-0.19578367753772455,0.013328385926628404,0.9710492751747417,-4.665116494084068,0.6026664901765089,-4.296302711221014,0.1876727149019723,-0.12249807182986644,-2.826608904419325,-4.869575878788461,9.51787836243155,4.799021521995977,1.7408521594650568,9.148384762221095,0.027905255451524454,0.00220642033674267,0.33126566670953145,0.005596323781048159,-0.024301810015982323,-2.3661556976302034,2011-09-26 13:13:35.942513375,3.729949331
49.02590593643742,8.44866789369451,113.86610235251459,0.13651141598130642,0.005939926009248213,1.4274964219895574,-29.15238941588722,-11.086920693347187,13.046742166319655,0.11060473139001414,-0.06417764008211035,-1.5779265203860273,-5.052362368303044,9.829317793647984,-0.6635674020463266,-0.5988840878188525,9.273032142444535,-0.020609554423685013,0.04865463899293002,0.335541490401905,-0.0218209793271858,0.011034113161863634,0.5223681844126756,2011-09-26 13:13:36.042540656,3.829976612
49.02576871644363,8.448658155353398,114.16980253893512,-0.03832032793997172,0.03712826645741697,2.0488622392269464,10.360333451609172,-5.299677639821337,-5.688855719514204,0.03976190114190069,-0.03886721196052434,1.681283338749715,1.6543688248132986,10.445000155630924,0.9014995325419322,-2.1609092276843365,11.053625775066738,0.008922198252681524,0.015552338435467479,-0.06105339288622208,-0.018135399378340807,0.04182186929975303,-0.05132155206783428,2011-09-26 13:13:36.152567958,3.940003914
49.0251671442321,8.448796917213208,112.256069697587,-0.059297486459167034,0.040222295912394276,-0.13484381182696992,3.6029651619686294,-7.333006560495003,-0.8144248631812816,0.00450057811603195,0.7886652003342579,5.66300260306867,-9.241255942635865,9.985764100247172,-1.0721455501821346,5.154315501778759,10.121976069568127,-0.04010478851509035,0.0018288046051950274,0.3043845344832129,-0.32479409984931107,-0.003185811221708247,0.9593310599776653,2011-09-26 13:13:36.252663804,4.040099760
49.02473130715034,8.448728808006905,113.96531703826251,0.027822654299855747,0.03474384602830122,2.908041914261818,5.882799493791762,3.8702604098133118,36.89058767618436,-0.21674152254310639,0.46436766970884685,-0.03158101613996228,-2.1037708141372145,10.777209431708897,0.14280699745964257,21.153176746159875,9.204997622648218,-0.0014390041987010558,-0.047666398783687086,1.791342217184729,-0.0024902289843405463,0.05290954448498347,0.8632507875226221,2011-09-26 13:13:36.362574078,4.150010034
49.02476742205969,8.448558608791414,113.91505607701662,-0.03326041355963387,0.0018019733826618659,1.7850729204430356,-6.7523851869302085,-83.97464028638268,-8.33353189017538,0.026050362460924438,0.11402849434440454,-0.3322692326538963,-0.37839553011180654,9.236277779864546,0.7248606718223486,1.710261576298922,8.246186327526345,-0.11308389094930071,0.03644352396344973,-0.4616299119493098,0.029639971260256543,-0.005652971063073163,-0.6466429231366257,2011-09-26 13:13:36.462559687,4.249995643
49.02598996422951,8.448760246844506,113.96753775313046,-0.016173238914230004,0.033964807178260635,0.31396934938074195,3.914009842414948,2.6243142491551272,5.605271258494131,0.017639149157945757,0.09459350769032196,-1.076042615406889,-0.0600617764789691,10.024409567644252,6.185555200478734,6.03999166132782,9.495834880397956,-0.22082120048629628,-0.031026230577254982,0.7394212605505811,0.014441314456437274,0.08748956719803058,0.02364004476476174,2011-09-26 13:13:36.562562932,4.349998888
49.02575821200148,8.448481572509161,113.71418455648488,-0.024048362317882297,0.024642347222003185,1.5666564682298074,-8.777421692257908,-2.0042392235474287,-2.032780347762257,-0.1163927225084042,0.017830108365416725,-10.589172983740166,-0.10919839975341732,9.493965925054264,-1.511051787634407,-2.289268928822198,10.27147457011883,0.0016806085064540045,0.06676673808884248,0.0032705634483765917,0.02078192021332433,-0.008127557048802289,0.5925008180771832,2011-09-26 13:13:36.672596448,4.460032404
49.02513777742258,8.448372633072717,113.82778923897072,0.3225425936772629,0.005671617992244386,4.789515446013559,61.14923171679438,-2.8921420775865814,1.9956666829195364,0.06435023525598663,-0.4625882586644537,0.8071904387144132,0.013807635114756231,8.459357490631545,-2.162040851063899,2.3776913280848264,9.59619348833875,0.025895793053400833,-0.014037471706116042,-0.17072843279692373,0.023047486664371595,0.014872254273358691,-0.14539720588713173,2011-09-26 13:13:36.772662981,4.560098937
49.02590582117107,8.448726046994423,114.15959461057662,-0.034980463786939996,0.021931302813932733,0.5675560700876785,-11.869290854665515,0.9915092005700402,6.014129820207829,0.1112905738223043,0.10638192462986658,1.0660567586485916,-0.6995373430577487,9.750647511041594,-2.819673170451642,0.3962214481932231,9.807310708434505,-0.00477323535794842,0.05077200511419522,-0.23269563911950056,0.007137495269324618,0.04572067658862919,0.3173960682331704,2011-09-26 13:13:36.872584268,4.660020224
49.025579613465716,8.448605712354864,114.00591897583175,-0.12592739675570874,-0.039203622697101065,0.3845697044327492,-8.80351579815921,-5.506267897980303,0.6034792524071915,0.09006152107570992,-0.022851991458055537,-1.475766628494136,-0.24535979270669647,9.573908648953072,-0.8066088920823357,0.7190568382563892,10.359684798952218,0.028379401345640105,-0.03119278395486689,-2.4083991536417515,-0.013069841943717186,-0.08169724528109801,0.3249093725241069,2011-09-26 13:13:36.982581005,4.770016961
49.02565614116025,8.448278721122323,114.41156126342997,0.0011015927404947577,0.008765568264790309,1.4352074109932826,0.3351420893157743,-3.9849597765282163,7.377393190240342,-0.07658273546867488,-0.07908415651572585,-0.3203476357152264,-2.1935321772489598,9.41550874780893,-0.6527255189064073,3.997484018702168,9.932907856023352,0.04192251260189864,-0.2363338364813962,-0.48802156902944865,0.016189347139178956,0.0232445034647827,0.04858562217357107,2011-09-26 13:13:37.082740896,4.870176852
49.02532916312913,8.448490431508347,114.40818249883135,-0.03285907828606843,0.022675446479644833,3.5040982024917917,-15.033863290891142,17.95667600007837,-62.85008104607077,-0.19310398425962794,0.1474515397994301,-0.006996318763080989,1.4150203873140292,9.122071459192332,1.0404769509044713,-4.477820701273906,9.990968511738444,0.03047462253791317,0.028625147748621974,-0.5679243250510384,-0.014984807401729763,-0.1317762752192695,-0.04651719029721817,2011-09-26 13:13:37.192618899,4.980054855
49.02557124828066,8.448591206929418,113.59864383339105,-0.03855114390156466,-0.1480362975389861,-1.5120400071536293,3.610581915349152,17.183481694569398,-4.472779034732164,-0.11776803410910701,0.4111166795065747,1.4086251925393898,-2.3643788184002803,9.927074198399186,0.659302103897499,-2.247383759553694,10.288069530618298,-0.017376888515056445,-0.0070318635056942766,-0.39761234647514987,0.0419056265538682,-0.00900259154979634,0.24268166118111384,2011-09-26 13:13:37.292630976,5.080066932
49.02585645682221,8.448695070896628,113.81842157409812,-0.04007148469793617,0.018567229211134788,1.876456356385445,-37.90861952583798,-14.973644080180147,3.0497105025841016,-0.08149257950136687,0.120150958546934,0.02144366284360283,-0.4959144141235884,9.581634264121123,-1.6741601675800215,-3.1901159159477865,8.933587789741587,-0.04541429768761856,-0.04114835324958162,-0.16433403300996888,-0.0026349269086598866,-0.011630980837761432,0.021790605102495798,2011-09-26 13:13:37.392608503,5.180044459
49.02554230102188,8.447687793008333,113.20949593937296,-0.04389400415528836,-0.02412761253530145,4.1395837921910985,7.1855222061724815,1.9851571028939983,-34.02361262506761,0.010627813165722436,-0.16647653392437053,3.180435407175408,-3.938056186124661,9.490163707198207,8.632552975254537,-0.3225017801308087,10.235901078710253,-0.012328964697778218,-0.04724894736033038,-0.0845908855569447,0.00598628525906534,0.008600567009785882,-0.08424817884615701,2011-09-26 13:13:37.502617417,5.290053373
49.025533623818475,8.448601656531824,113.51778176600563,-0.05694560265168507,0.02391894037911326,4.05746926231925,0.24623493850755923,-4.04344381573617,29.068417561549815,-0.6475704638346,-0.04184348644704076,-1.5474565780406033,-2.703124967120347,9.12719391683374,-0.7546728029456536,-2.1880361303723106,10.369177413366371,-0.02772275802269195,-0.012147224235080443,0.9647836192262363,-0.018675108629954924,-0.056538253146142,0.36755299761224197,2011-09-26 13:13:37.602605564,5.390041520
49.02536598964164,8.448575090260588,114.09902311475162,-0.04967507299661742,-0.03771398150832115,4.15244525468715,-0.8967884973892994,-44.15730877628533,2.253945754227099,-0.04245140318987324,-0.06779743473815084,1.2374913389520688,0.6880568246410531,9.088856655935894,0.6125277506282684,0.33240010321144403,8.839165235831599,0.018400671766556735,-0.016530746839210117,0.49089389014371654,-0.04709184337231174,-0.03410901434211401,-0.3214969235108134,2011-09-26 13:13:37.702714426,5.490150382
49.026233259549045,8.448496762118436,113.41013801228087,0.020572428365287804,0.0044602051675023836,1.5625626145240572,23.434899330213796,16.638364717081856,7.021953036995464,-0.10784420490056465,0.3057757092256651,-4.781793512345848,0.27353728569134583,9.21608533014101,0.4456481507085846,-3.723406881734552,9.164047926475101,0.020945972000877857,-0.03758353690011876,-0.09044147466992336,0.010749102041104009,0.025061858532582505,1.769807031362995,2011-09-26 13:13:37.812631116,5.600067072
49.0265586648402,8.448415991516972,113.988239529881,-0.011374937846646045,-0.2122219109766022,-0.5657899647875855,0.7804126671559396,-0.1912360007300406,71.97753843163771,0.4361242069676584,-0.07771234797691057,-0.9367600090018589,-5.050854327924728,10.01227305630131,1.1075248679422964,-5.534668956480044,9.480187238443511,0.029231467299151617,0.03012557087831587,-0.29229974507016926,0.003022634259969038,0.015202871651254208,-2.601390455575917,2011-09-26 13:13:37.912619660,5.700055616
49.02491158876242,8.44827967704107,113.75341238544542,0.01959994968535381,0.03516876784466983,2.123290662321241,-1.5668593025624657,-4.778816166912368,-21.742619587703892,-0.0993103050951265,-0.05751336854275921,2.2258087931084414,5.405374171254878,10.329382927759568,0.1284847788435276,2.8848788546454944,9.702468473577275,0.02772780282069742,-0.016091383587205212,0.3055079720260771,0.0012783367981140654,-0.0329891467075347,1.0972831453210736,2011-09-26 13:13:38.017633280,5.805069236
49.02559693495037,8.448716552392359,113.7836187845718,0.002844391258042398,-0.10221148049935758,1.0193152022033527,56.33201273108823,2.46484476727345,-6.247869557473922,-0.2962705273330004,0.020619643015705066,-9.920307176163615,3.40909195266985,9.349394579237504,4.889694652760054,-2.7994024185010065,9.218179916990417,0.019640513522879204,-0.0053704179409181695,0.017781019535700982,0.03054021516212752,-0.07974746769817065,-0.46048522373743284,2011-09-26 13:13:38.122646446,5.910082402
49.025662941264855,8.448705228581831,113.6296057723821,-0.06925404003595077,0.015898766970965338,4.7966774376074355,-14.906573005649841,-16.789941059350117,-12.503288449474233,0.04139970377284066,0.04289412340095896,-3.675558782457422,-1.4911009564376776,7.534003267624156,0.841868974426686,2.049384395384752,8.249160519998032,-0.014552118096400534,0.0017081467063089968,0.6958385179509134,-0.02686063670173992,-0.013887156977885118,-0.036800191605794286,2011-09-26 13:13:38.222796995,6.010232951
49.02522462371145,8.448561488144042,113.55881438844088,-0.003792300552354978,0.03503855910618185,0.7713167759745863,4.121597789118563,7.533313269474949,11.571262225859423,0.06794212136866974,-0.1315093147120549,-1.650412064595926,1.7054215730397464,10.242835770339834,-0.5666522747106469,2.1159120776822937,8.947357747957838,0.12887523103542176,-0.005309189036743605,0.3610504631455415,0.02513815778549494,-0.03883681470516632,-0.6296951457331332,2011-09-26 13:13:38.322662614,6.110098570
49.025755521854826,8.448378443593835,113.54692671493176,-0.00904770727697894,0.035761298715617805,1.7858426849558549,-8.905031607057587,-5.9991465991539625,-8.838857941662477,0.3937157124765547,-0.024082283022872013,-3.4169456140678593,3.7480922144218773,8.295013742605244,-0.011324640101770245,-1.5591899991552782,10.087573574471088,0.008318663120571904,-0.239807914752889,-0.10235625393429779,-0.019693424832958953,0.02190609599541987,-0.07925805232841614,2011-09-26 13:13:38.432657811,6.220093767
49.02550907509166,8.448544564341951,113.78158451458327,0.021810536902752864,0.0541970497860813,-1.3397275098794426,-22.317507304636834,7.850133173285508,-60.900230505035125,-0.12265762948464425,0.3433163943309889,-3.7035251494271404,-0.11162342236444513,9.706860439369493,-0.5072673896373884,2.5552603139255994,8.911704012752793,0.017681266497422087,0.03424410577637536,-0.1955530545317569,0.012765004939086147,0.016709999782924728,-0.5307894085887757,2011-09-26 13:13:38.532673503,6.320109459
49.02548959503562,8.448598183102256,114.01356302717893,0.049961835702427765,0.042321043586952795,2.924977911552289,0.598583567671796,8.198136950424217,1.880252470087806,0.13552788842831237,0.4635054399953331,-0.02707123978656481,-2.17795161237864,9.770249689367438,1.7363752791997846,0.24386846571799495,9.568040333222736,-0.031176315550209253,0.05238093309532964,-2.5246337797545375,0.06609681298633358,-0.1793851369003264,0.3868699389091328,2011-09-26 13:13:38.642671312,6.430107268
49.025467910439446,8.44856385729578,114.18711608363988,0.11220359527286752,0.020547913152962276,2.772773892314321,-5.3187712953453765,-2.666005391404144,0.4805550401701296,0.10690615586468002,0.15345753723626948,-0.2548754270032043,-1.4705318502304616,9.274822527176518,1.13124300089781,-34.90207011306618,9.21223450522518,0.006724468928318069,0.008199735738384523,-0.29870883681294247,0.00629640567503505,0.0032277168519523982,0.062107116627534466,2011-09-26 13:13:38.742850791,6.530286747
49.02555567451565,8.448563218966047,114.30879046695286,-0.031829318839070204,0.009418430262623756,2.6297791654307794,-7.302296534975561,-6.322058667454691,16.060371669352914,0.36246574080672106,-0.06286543078157203,-3.2990868024902866,0.3874599762329554,11.158750469569124,2.1371821078395987,-6.31466981500523,11.718569215628296,0.045101369342781764,0.016371423329273837,-1.976082433858013,0.002514323302424496,-0.000884025460274383,0.5357324650668808,2011-09-26 13:13:38.842672026,6.630107982
49.02509666891996,8.448547151165815,113.83890311729039,-0.13296494751207308,-0.11546580400099946,1.4691729663014166,7.843860610735457,-1.209875454750189,-8.143278918038378,-0.20029259458672977,-0.02338810628107061,-0.3226303957319876,6.7015735665765295,10.021003718251901,-0.3504751895232651,0.2233876171421741,7.385514793440712,0.010901194132958505,0.01566660594993056,0.22262454985662197,-0.032416119732471375,-0.0348083360924999,-0.546604955418793,2011-09-26 13:13:38.952712250,6.740148206
49.02539869823153,8.448295915922056,113.98868458156157,-0.03551973330920832,0.010825990611430102,1.7579212858445572,15.688737652899913,3.0494057498361307,-5.165992543881913,0.8282012232168949,0.04775452480647444,2.3839031213374913,-1.541321644102451,9.903518048079437,-0.6280463971624071,-6.046932775020201,9.843542513366057,0.0022227385594777178,0.012122515326075955,-0.5900391869669644,0.019728732612029405,-0.02520210344256342,0.01706901526518506,2011-09-26 13:13:39.052749493,6.840185449
49.02624876394741,8.448425180187128,113.93290283683065,-0.07834992454590305,0.02113323793779233,2.5578800185705735,-4.6915276795655325,-7.788262432290987,4.319190192057808,-1.396267581569271,-0.10070048094886615,-1.0258528865373064,-3.328878469691766,9.49993486756641,-10.95317678163408,-1.0786941068960516,9.720334714258355,0.006279628977812006,0.050336944514655056,-0.6250140385278834,-0.02276204994474287,-0.005622224962172071,-0.025154225725903295,2011-09-26 13:13:39.152720056,6.940156012
49.02594839326681,8.44866613321824,113.65458027043884,0.02413417420774102,0.054366161125441195,1.4080276456506637,12.727345612890216,54.2430218889309,7.5587725528550465,-0.032715921155649495,0.022352885051653563,-1.5164328471699167,-2.440956127190944,10.027960372280642,-0.285323794862204,1.3987841093310371,10.086871862219464,0.013732941068147738,-0.004550758896867798,-0.33184786712017045,-0.027091363718873784,-0.024912662579659895,-0.36669910434288144,2011-09-26 13:13:39.262850256,7.050286212
49.02519139433642,8.449114659693684,114.29929111669664,-0.06597984643661822,0.01558108099161957,1.6715246796385455,-8.649993205477797,-4.717609819054957,-6.937937964442169,-0.6074660905243863,0.07901719557381733,0.027247950630693102,1.7373750796394505,9.764608982935833,-0.37135017350392796,-0.5034248011095259,10.730881225803063,0.02214448876205583,0.24509264981060874,-0.5876138648481583,-0.009229377359434984,0.028959617674741017,0.09315504068777819,2011-09-26 13:13:39.362716966,7.150152922
49.025738528780586,8.448802753336675,113.64615337824823,0.0015471183734635813,0.025453906199511527,0.9116054227027335,5.669789768487924,4.582454016859626,1.3757735724967461,-0.15363306959606182,0.18790229609944692,0.19263929225411433,-2.8696594076872595,9.971100521844056,-4.593908149567626,-20.669666905236788,10.094816474917735,-0.006678113764153567,0.06759747003201477,0.3694062911407285,0.005431726677046735,-0.2912267408556672,-0.07366277594199865,2011-09-26 13:13:39.462700689,7.250136645
49.02560600708482,8.448225824957012,113.88911344950289,-0.007478229233607305,0.020587905628400165,0.14914582653930175,6.385921118721218,41.3338779487695,-6.408547486243226,-0.08646669191756425,0.07114815731358151,-0.03605012781343002,18.10081473556061,9.92483330496934,3.4828620573016664,3.7157477887892396,7.956189059118287,0.01925065252630867,-0.05704491644842467,-0.6709478322242005,-0.19258515034454762,-0.051310953977757305,1.576117169187459,2011-09-26 13:13:39.572704973,7.360140929
49.02702542227599,8.448308237246987,114.00927662375182,0.000750022149848744,0.03449323920949719,0.7771722349346819,1.1020325174896224,-4.348133781690933,-5.058291842949145,0.23595976017901066,0.12699729724192774,-4.9521148807291215,0.510048538789211,9.25854497289885,-0.23673004791070465,-0.9051788774315872,10.13281927314698,0.04528719932410638,0.04751851503192814,0.31571895757297685,-0.03445599277599899,0.0065825213409028294,0.16418334507401552,2011-09-26 13:13:39.672766599,7.460202555
49.02526733788219,8.448537154729463,116.73156731949356,-0.301262792854179,-0.015909545363554364,2.3304524341620465,11.346487958454166,9.760368618524899,-26.685779883359903,0.10673552685062733,0.08273393357165218,3.6887889034446726,5.007535432472545,9.91485559249706,0.3371013640224881,1.9040692279588003,9.651976353268866,-0.151966548061191,0.0515187335658047,0.02733861735831164,-0.037990676941338807,0.025352747403785788,-0.5411767259765515,2011-09-26 13:13:39.772785700,7.560221656
49.02508262718792,8.448571940916015,113.932637575649,-0.04365750901200927,-0.02740372310238301,2.3780887545609275,3.811057554818338,6.8506784047525935,-12.252602415789578,-0.1254621099248609,-0.020363110066880942,1.887480574462728,-3.9211362657403988,10.414580717344469,1.7868441137872393,-3.6734930004277686,10.415925305958904,0.017792327735379646,-0.0005413925999488145,-0.6125037704108226,0.0030294604405845214,-0.05735373109479284,1.2033621763512679,2011-09-26 13:13:39.882866482,7.670302438
49.02572245269765,8.44829956141232,113.95552235001034,-0.06256841263031179,0.019548277288430935,-4.975341947269362,2.5088043074755806,-16.790893116018275,33.65637408699281,-0.2951319388018965,0.07792954781892178,-1.5876515036613614,3.6056777642820736,10.767539434084902,0.1863795742184785,1.1953825197990755,9.722046989971915,-0.03606189013417089,-0.04228011895666967,0.04485187514353205,-0.01650606692559587,-0.036854878072297856,0.08499183007633827,2011-09-26 13:13:39.982719390,7.770155346
49.025796294090675,8.448482318495897,113.41035245637508,-0.0111718406483288,-0.0026092955379852668,-0.4370628340069982,2.466282182109881,-3.238594124513236,13.230279097043825,-0.10807491230448156,0.13085130860684357,0.1422121680829075,-3.7174306798194605,10.184647738680843,14.249119062418275,0.9437658210797375,10.734436300825903,0.030633629459981247,-0.010782951379214905,0.0384254822584943,0.027909890973799766,0.01539848009151122,0.023704847096512466,2011-09-26 13:13:40.092740574,7.880176530
49.025504087826526,8.448629054297594,113.70710553819748,-0.07958768559651017,0.0009508747619373838,2.8029677414831182,-3.9377349859221793,1.889199750932328,15.954993047731158,-0.005599013489040221,-0.09733213293169615,-0.11820176417800383,1.0244103554431072,9.51920643679456,-3.2034999743472965,-4.876525330026683,9.910923190098785,-0.03233550483465784,0.032241949584720306,-0.22700726452730527,0.02427249838202138,0.03434663392506793,0.1981503208085323,2011-09-26 13:13:40.192983413,7.980419369
49.025137757877005,8.448505326629277,113.84963550221264,0.07566649057913015,0.01940572152880979,1.8899141842483997,-2.8468864526918853,30.66384386528575,9.141639847699814,0.0249148491033831,0.24817464287540456,1.7028404433699644,-2.7937598513650697,9.981355626133446,1.3727248880081395,1.8983192638642652,9.407698629594814,-0.002126745239221698,0.015678203254744963,0.4192369206518512,-0.004710866588654749,-0.06929364787400556,-0.04789275721936063,2011-09-26 13:13:40.292791010,8.080226966
49.02568180228022,8.448843261725129,113.9686162967665,0.03693660776005929,-0.0009962241871631881,-0.12215901341825242,-4.493207021538491,11.332993813796472,11.277992390862103,-0.1669197822822449,0.07960009802040845,-0.7384212345596072,-1.0510886103388162,9.673684969261076,-1.5583429229094472,2.862423085696837,9.744564877474406,0.040916330250228936,-0.003184467864566805,0.4521014388658305,-0.029573056930699084,-0.024233593979923095,-0.060305634391592214,2011-09-26 13:13:40.402742558,8.190178514
49.025430749023606,8.448660323739736,113.82871453633157,0.00422311874449097,0.016511742610730462,1.8525210945347068,-8.873577346769036,2.23394805212148,5.923627456910937,-0.021625361038869466,0.0796844661880878,-3.9760425484601747,-1.9196690272906969,10.062931544286373,0.649008092801497,-3.3392515855480824,9.592234524981851,0.039556882347889635,0.0850977141472215,0.1909693456618656,-0.033125132586622016,0.18630349311722985,0.2531718869122517,2011-09-26 13:13:40.502746571,8.290182527
49.02545294506389,8.448083608829098,113.97983933792514,-0.009061722240025124,-0.161197059135567,-1.3740702729183858,4.565157765179785,1.5361731757763222,-7.392504272443657,-0.06369639359233532,0.5671031386452159,-0.7732212252000579,-34.18216912401322,10.804036000343057,2.668648381767869,1.2810645943444188,9.225471487525114,0.002667201115363427,0.1284849286022812,-0.46000622032093136,0.004674629711992122,0.04368551720068641,0.3764412441920432,2011-09-26 13:13:40.602762592,8.390198548
49.02485307114083,8.448675377561898,114.03412640674085,0.029467407008918117,-0.014389448682315517,0.965450120842617,6.027071626363681,8.857576673610025,32.934006458881534,-0.01664362194954552,-0.04210152739171577,-2.5784803545083848,-4.5590472084604245,9.7698565212155,-0.698842478361884,10.127003696266538,9.408157274155451,0.021248254089270963,0.033903168923790056,0.6017878785724673,0.009584239657910358,-0.016596051118491696,-2.711627476263476,2011-09-26 13:13:40.712917440,8.500353396
49.02519676418718,8.448549762689414,114.00315407194168,-0.004099303977692195,0.0054368367504649805,0.23758134243262963,-15.532033433314993,8.532007707277382,10.604503635935759,0.8445484507715963,0.07410523642681159,-1.7444212151234537,0.16674808954921547,10.620444959580288,0.2254534058997218,1.4038153408893739,10.733831646850968,0.006516726141305769,-0.002990067306201386,0.008515957079791176,0.03137424925861513,-0.16008473308857787,-0.4416959727416402,2011-09-26 13:13:40.812794778,8.600230734
49.02524106128352,8.450371173610334,113.55629852261167,0.005817657354345656,0.005425605629990431,0.2147481101858939,-6.935488310288486,9.713439910208043,-18.28563995177795,0.0008256457435246202,0.019465207824728988,-2.6560827343317253,-0.21793828474703347,9.325854157225047,1.6917360436020532,-0.33057513361014007,8.882232834350404,-0.05928505395489004,-0.11697041694147925,0.7030975250051016,-0.034108018572027686,0.033291783584571105,-0.21382159355581506,2011-09-26 13:13:40.922776405,8.710212361
49.02474558461022,8.448846871147579,114.26340056786263,-0.06565966449807073,-0.01535134150092959,0.8659318164780089,6.991499264324381,-2.416926611942546,-3.9009733924617196,0.27971140120826926,-0.06075114382024426,0.05091752801710123,-3.4650761624491215,9.354036698457403,-1.641027870829386,1.476641158827477,9.970870622943055,-0.010010660996445889,0.028115339245295433,-0.08406922669965415,0.0065441029965118335,0.057626013484885594,-0.9349727066235773,2011-09-26 13:13:41.022717289,8.810153245
49.02544268708905,8.448236306594257,113.18069218514816,-0.1704527568272002,-0.006292708183240792,2.2582098875792505,1.871838001477289,1.563628568405881,10.27191502522088,0.3295062839788532,-0.09787499192721902,5.117896607813485,-4.633569945293257,9.759110478025741,1.8507461107237664,2.647899907969069,9.226886208910829,-0.029884180413688274,-0.054549125215966845,0.8424051224859496,0.3927867213882234,0.0011723515031382811,0.10904481074591882,2011-09-26 13:13:41.122706004,8.910141960
49.02577821948362,8.448624815945086,113.36822552512368,0.0007732161223950526,-0.05051963434605227,0.2594228961892373,-0.0976830819118726,9.796910726043697,8.845015141781284,-0.3510449833222511,-0.14613438568672796,-2.677142125562282,7.81865173272438,14.297666463571389,-2.453419538907642,0.29890189595239947,10.120242771257761,-0.062258890089506774,-0.077194510591699,-0.3014426433967665,0.0027954956461778676,0.009289170700243063,0.30596670276945526,2011-09-26 13:13:41.222882917,9.010318873
49.024135677462766,8.449276976971127,113.337780086219,0.009414978035626628,0.0022889049864600244,1.742193787369716,-2.51530423876781,1.498265555709115,-3.3174428739687336,0.0726516868149836,0.013409608639187992,8.378022167030702,4.159489695089948,9.739558007116667,-0.35952497271232137,-4.231726377283259,10.311498911133182,-0.005289688858219943,0.025048735752816676,0.30601653735773654,-0.0999780822594048,0.026110761447006064,-0.6148851813534842,2011-09-26 13:13:41.332776464,9.120212420
49.02543752750119,8.448727364028487,113.4107370165079,0.00839708653540865,0.018169665582406097,2.5269923187347043,12.083956070260637,-0.3723240170890109,-22.24165054252162,-0.04061821636676307,0.023576190668831855,2.159037630730358,-1.5446350447518373,8.924294317909629,2.1192342452911825,0.022363934616076008,8.44510084038086,0.007626194086651459,-0.03290966489787307,-2.4302707121782055,0.03854939860437939,0.0055532739744698165,-0.19334288095070423,2011-09-26 13:13:41.432761572,9.220197528
49.02714239540344,8.448456785892144,114.06922026694735,0.00907359765782345,-0.023977986496473865,2.8432506591731084,1.3757949715743576,-0.6099015283330131,5.255921606456823,-0.028157706311273997,-0.04193977759498641,-0.37415236802917695,-0.008927528890813594,9.824965865928835,0.9965092339358562,-0.9852089112741549,9.324815261132255,-0.10717945520062752,-0.15455610649829377,0.06822516887383005,-0.023430121411909612,-0.02048545240125204,-0.22941549409944773,2011-09-26 13:13:41.542790312,9.330226268
49.02514266376834,8.448361699403359,114.12390693276724,-0.011869533990017627,0.01965293291858794,2.192934020689328,3.091608960079544,4.2037879489449725,-15.734012999205628,-0.13522567243023353,-0.7148855188989027,-7.3967169439223746,0.29295103068981976,11.489563306849123,1.01557133310943,-2.372136118610087,9.070180349603056,0.02065172188908127,0.026986414954767453,-0.07249121372867157,0.01689060177495067,0.004376861095861282,-1.7840394273633569,2011-09-26 13:13:41.642810139,9.430246095
49.025283809021374,8.448417008094083,113.78370865348509,-0.05711079962743124,-0.0006247455708335101,2.1646175825335856,-3.8686065636296028,-3.880389799965447,32.30884664842619,-0.21864986902627406,0.14630311409192104,-1.2634990302787652,-5.3357535981923805,10.122187705763329,-0.6903259226332882,-1.4427383605517377,9.280335194539523,0.009335583690191145,0.03713366100832349,0.6697954380533581,0.05830639398590471,-0.3521042954201793,0.17336491462337442,2011-09-26 13:13:41.743009667,9.530445623
49.0254093624214,8.44863459158719,114.48258108957818,0.03126077773064985,0.00989232795167382,0.12173555345106024,-11.934722027923174,-17.352168133506247,14.745550712505464,-0.008031184287036017,1.130049965958025,-0.20265882433466725,-8.559158809841387,10.206137934670517,-0.9046962754345191,-0.2132780251951605,9.079194671015166,-0.042821065442872536,-0.509051058235164,0.4222554385264065,-0.02434032953374231,0.008868668612974126,4.242913857021747,2011-09-26 13:13:41.852815064,9.640251020
49.02515016059318,8.448390035766371,113.89031751567687,0.03954932775536405,-0.01724277350698447,-2.82025568997929,2.615736713914144,8.947337287637382,-4.418771443780053,-0.09627545863613073,-0.14310616081537572,-1.0516219119357484,-2.517331359187015,8.503875308458078,0.19840886167016664,-5.235704720745379,9.707770029250133,0.015818398697340627,0.03796133797321788,0.2573512292037434,-0.017655139848584262,0.00866467602291294,-0.2957339510742448,2011-09-26 13:13:41.952793495,9.740229451
49.02790343418169,8.448926376803238,113.7714197453568,0.007439098630096296,-0.03850581858675624,6.932017597409763,-9.24886653724203,-4.972376788974622,-19.229251010927914,-0.09184989753073437,0.009304218087975782,1.0727306458183679,-2.0567955689137327,6.932017394703176,16.662741841391657,3.5611654498815466,9.465785342168061,-0.012033447344101045,-0.07624426054953236,0.16845406709728433,-0.039801620777862694,0.024539899054538152,-0.05287185124630106,2011-09-26 13:13:42.062786845,9.850222801
49.02529864021132,8.448279610912978,113.85147534078702,-0.04068038751422175,0.019515097035044775,2.441404814205434,-11.304855135495886,-2.7639416007702464,-5.852993472155088,-0.051705204060091305,0.09524869146228702,-2.747878991893515,15.66478827879935,9.74040087735945,2.372258757770955,0.6573361988963028,9.460040248672072,0.13309546711336162,-0.04832864107105121,-0.13286528020635782,0.054589369448281466,0.009320282800309823,-0.16383796361813735,2011-09-26 13:13:42.162937807,9.950373763
49.02569535373679,8.44825511169393,113.6453499981832,-0.07069550056856785,0.04909625379757543,-0.21923741999351964,14.70860746985778,12.518988152808616,-0.8812900168903178,-0.14938752696683716,-0.12578558465249565,0.6261612729499397,15.43032250689078,9.764976447543603,0.1527445519080076,-2.5342724812168735,9.927549879998134,-0.009183166320284127,0.038154230617474874,0.0076754663800617205,0.020545293342484762,-0.2556736142526497,-0.3493892859593917,2011-09-26 13:13:42.262904066,10.050340022
49.02528304413998,8.448310526826628,113.0426180980289,0.016095723644214948,-0.017316446137213063,1.3323304248283028,-18.09227916924883,7.463814716009969,15.991091943555908,-0.24575461794693132,-0.1272431359863598,-3.3392519305380195,1.3604115844544746,9.279730908528938,-1.489586639332923,-3.5488573009809623,9.496831084861192,-0.020399272264072663,-0.10810821099694556,0.14684941553979902,0.033651968572566866,0.011497598603337779,0.03472157490643279,2011-09-26 13:13:42.362837059,10.150273015
49.025538501981245,8.44858557921666,113.78158102950175,-0.00857393561530383,0.005403840642532588,3.5253355364471823,3.091551830247025,-46.53306198870227,-8.988711663719732,0.10927688569916359,-0.07197588293725335,0.2628772845562718,-40.60003049854806,9.790969823820419,0.7317103777954056,2.0128165415875388,9.704015288953977,0.010174211195804915,0.0016719665901951248,-0.00941927794878621,-0.02283739519299476,-0.0008261228724133767,-1.7052566279059393,2011-09-26 13:13:42.472833084,10.260269040
49.025713571823246,8.448562247417003,116.44733268206296,-0.0009522281781180753,0.03962908754434286,2.6418875832327267,-1.3607150150182619,2.550187643518576,-9.03208191726255,-0.0626743125790966,0.08471610364828631,1.8068208508229953,2.7031938282306838,10.33442571859557,0.22678496140063545,18.110433520485028,11.422969272717058,0.014048680170700873,-0.025945065744230198,0.4463043807872971,0.007311402733602994,-0.03825361607100413,-0.9315946530518309,2011-09-26 13:13:42.572865417,10.360301373
49.02550129458063,8.448524568567802,114.22568508489135,0.04086568463378629,0.08578815559757103,2.5622371584748085,13.971100353196613,4.728282485107297,76.43239281391173,0.1460404136600685,-0.026306151388634066,-0.7840441536535528,-0.5711325073119865,10.030377278819598,-1.4271992252186412,1.1500440939465542,9.881741073468644,-0.05985454849004328,0.026991539860699645,0.2203413690511164,-0.025472150985305166,0.04070593155712244,0.059242799052848114,2011-09-26 13:13:42.682948060,10.470384016
49.02548011622202,8.448514967743337,114.02641123214809,-0.003725502966155361,0.012228276701343431,1.6096636057960394,-34.69111610072582,-2.5563465951914206,-23.160923277979407,-0.026204740799774442,0.08114654691305784,0.4655075967466821,0.4714363682703538,8.552982433819595,-3.1386498538000054,-3.5603068220765377,10.16060926521401,0.017703930875554198,-0.0564586077139901,-0.17760539697094516,0.021444931881998232,0.05962557407443519,0.20684552244743554,2011-09-26 13:13:42.782891050,10.570327006
49.02555853212019,8.448652093872603,114.33632550572516,-0.23329228842425614,-0.005527554442072813,14.983722802683856,1.622839675585484,-45.1254539758188,14.813495136043416,0.08898923201852918,0.07115827331177828,-2.150715032268474,-2.554213074820504,9.205461760424805,0.11083734146947005,-2.2805830798075455,9.651464758340639,-0.012994229959727405,-0.02043835717177185,-0.05430647494782651,-0.010328622912770351,0.06304219072298524,-0.44299545297228965,2011-09-26 13:13:42.882886093,10.670322049
49.0255741441739,8.448635511840513,113.2558623609185,0.10528023447251149,0.03426087105557146,3.805884736939995,-11.989782970057853,-2.341945679998798,-3.435452381758252,0.04284514663276966,0.02874561561512789,1.3216578508456966,-5.503523437051426,9.502788880663227,-1.9374491447245958,0.20079666615558153,9.460927997806774,-0.03320323536409269,-0.19647956957215368,-0.45067481369268575,-0.01972158991255654,0.026575898682800702,0.46093615219355266,2011-09-26 13:13:42.992862614,10.780298570
49.02548113046484,8.448665568710082,113.71545382933401,-0.02282835653747181,0.014468062396085966,3.5454092854892485,1.871730834667719,-7.3576616767471625,-26.255843968016283,-0.02343592959791984,0.05243043955610046,-0.9748118995257232,-1.324396393013849,9.95952288472853,0.6716147969506954,-3.3353381199635486,10.253889211449819,-0.021780722255368194,0.010408190130086837,0.11840249301693265,-0.00842341199289718,0.008489565151769705,-0.027254521830888147,2011-09-26 13:13:43.092865279,10.880301235
49.02488173944292,8.448740004771476,114.33136850852762,0.3074267446592349,0.015863820781362822,-1.0047430688343781,13.447421986136472,3.6632746591512704,-0.9555120743710893,0.15065465582392668,-0.20494733620652394,-5.038625944238862,-4.239495046462984,9.79455290787287,-0.7962248905038957,0.7576631616747274,10.096256647812465,-0.03248479117338971,0.12036527268757162,-0.0978156434234198,-0.017085431384970665,0.178800969295506,0.24372108309070983,2011-09-26 13:13:43.192998035,10.980433991
49.025677556656596,8.449578767052332,112.52541911185904,-0.11696632441220826,0.1603664827501582,1.9000114667300732,-1.2625198585656439,15.494517092493409,4.7923082110658015,0.03957124358822463,-0.11092625763225576,-15.385463867419462,-2.53541857840399,9.8554662889153,1.3398169651792364,5.606646914649415,9.59586661814895,-0.044017558566902225,-0.05518966990395208,-2.1718679353343786,-0.11093388364059889,-0.049835740356566655,-2.4519175739310577,2011-09-26 13:13:43.302844329,11.090280285
49.02561576870223,8.448125855807955,114.53056542497688,-0.1591508561139296,0.013543603939474293,0.15817381198927838,5.643905317447537,-6.78163292855491,-8.80294570511841,0.2642846533299728,0.09778408838181635,1.2211521717566047,3.994452671187019,11.672869405839817,0.31324998082160865,-1.9893202271278776,10.471944823422623,0.0830726058183304,0.03431968875698626,-1.2476078164259783,0.010075747356184207,0.06580889531531929,-0.8431400559730924,2011-09-26 13:13:43.402849809,11.190285765
49.02564520343256,8.448773945868062,113.71287741245243,-0.052518369479460425,-0.011471771514047211,0.4797519340546863,61.367858770480225,-3.5847991173369307,-14.72412343088833,-0.09112373182465773,0.2391619659015339,-7.696312527346078,-15.898569281856643,9.53849032927925,1.3458851242350809,0.6948122719436134,9.267031715525029,-0.0012895894089906498,0.0010224283419832864,0.11562789171866909,-0.39333986365189044,-0.07291601876956229,-0.28563519840748064,2011-09-26 13:13:43.502868608,11.290304564
49.02538667557476,8.448858213599015,113.80741665679588,0.022970924506599245,-0.08055047708847848,1.223429414184607,3.865219976204723,-5.056457726538168,9.870325312198485,-0.2330968210969501,-0.06536290222389263,-0.25123090162276407,-0.6919323846779246,9.85089720563781,4.048033289842366,10.216718116108346,9.578579617073672,-0.04067609502012867,-0.04494281576135263,-0.10008273013008298,0.012166294951010072,-0.05442094941055132,0.09106515359035253,2011-09-26 13:13:43.612874251,11.400310207
49.02571756983258,8.448432265425398,114.10897530576358,-0.004959687563650664,0.006165994606606349,10.993512663792963,-5.797411143921613,45.19118698313797,21.400153748479067,-0.2720837283538507,-0.05118423666913818,-0.3187994776235724,2.018987581906848,10.268587947688516,0.33568900125021245,0.5020312238807189,10.232382865508486,-0.02076415941332556,-0.027682016371838425,0.39971060932373986,0.018176749414932025,0.013814015712230024,-0.10022772894225468,2011-09-26 13:13:43.713050193,11.500486149
49.02592443615766,8.450160860972128,114.30204606126924,-0.06707011123943839,-0.010660878880663253,5.144940846394798,-7.100754625777994,-18.38662479382782,7.890444733344655,-0.07202029045770217,-0.1011568823018623,1.0361004040663486,-2.3805035828114605,9.969348702653624,-0.0707123478760275,-21.868960257613026,10.371535115738117,0.016717718322572635,-0.05197648619265815,0.09501256943718403,-0.011165998551517606,-0.025442233945614207,-1.8161261416213683,2011-09-26 13:13:43.822878853,11.610314809
49.02522211910383,8.448451858575078,113.51117778505056,-0.06196429083380095,0.007721215420341981,-1.1614721430712744,0.21839286924990275,3.609447345358207,-3.894162353059875,-0.21515794517204795,0.01806579452296702,-0.555827330860644,-0.67293185166178,9.778179030399167,13.0181110181655,-0.0999587990538404,9.884935311688714,-0.016486418902731243,0.21278473922443752,-2.4765241654443932,0.22785347331378158,0.018578746141149897,-0.1984769153452206,2011-09-26 13:13:43.922884998,11.710320954
49.025112840025876,8.449186290389385,114.34272161429793,-0.07331562332183203,-0.0015027580262025678,1.1926199118827008,6.4501944595899765,55.64214208357478,-1.115162855853396,-0.05216753280300149,-0.8244778366509452,-0.5789779493434956,4.74430900627308,10.23092566376088,-0.3587995508955744,-7.8768355666673235,10.040891786914269,-0.050038899189152095,0.035891373671451135,0.33626947407109037,-0.04047166489678475,0.03769876006679823,0.393701553606995,2011-09-26 13:13:44.022842114,11.810278070
49.025122143978656,8.44879136405573,113.49606760307958,0.05449392897051013,0.003917785418585954,0.6512880879460763,11.84682320909066,-5.272518980139903,-16.641484915986926,0.0008201340347477838,0.13443107167611443,0.9491296735715369,-7.87590549681366,9.50677363720967,-0.13509972366933648,-2.003329653790258,9.923597670066568,-0.07866346882302692,-0.015880830325863626,-0.3471685168758054,0.01594172263913077,-0.021030998741213957,1.4142173948978642,2011-09-26 13:13:44.132916202,11.920352158
49.02859260425235,8.448621086351224,113.30731215950944,0.050938440747717834,0.13646448125083754,3.0443670868317954,17.31663643425262,-25.231819204416652,-60.8402007880934,0.050401062898433366,0.012310849743328146,1.6742130509611155,-4.347864613795361,10.027698558769565,-2.3479404295354476,-1.3963546674749794,9.395472067269992,-0.06662652287028967,-0.032954738280819657,-0.3085716887486323,-0.002309541491879062,-0.05303073404440994,0.23220317208807106,2011-09-26 13:13:44.232985197,12.020421153
49.0256472693418,8.448658481607266,113.93932902815789,-0.09051744570430026,0.018039286460124454,0.7214825836842838,-3.0546661736888816,-29.911621828860245,6.081604120090497,-0.03504280942180989,0.6037229361944799,-2.270422968962524,1.4455918324031718,9.991802986468866,1.3661609821559895,1.722038564362637,8.862129025999158,-0.010491127529696598,-0.03242623332138261,0.2759062445521375,-0.024990180523833436,0.04679926708207102,-0.263892067843199,2011-09-26 13:13:44.332879777,12.120315733
49.0256137386765,8.447948722128904,113.82388309193307,-0.04469312873771786,0.010192043286832405,2.4099371224570483,1.5265272496131845,4.562921077714711,-61.249549179406685,0.02687432190524303,-0.2562685056047794,0.18765989833056515,-1.953820457484711,9.91430998397458,-0.05072609178274564,3.0431772303259144,10.137999732836679,0.05017722402305936,0.0027453192192878834,0.366490100282551,0.03520610676761308,-0.012890406860582423,0.43097489848480836,2011-09-26 13:13:44.442907864,12.230343820
49.02549478864211,8.44887305200543,115.60735852983834,-0.04448519529926997,0.02727407813512216,-0.8949318726687254,0.17875503049000183,13.535470426053386,10.549910886043003,0.4033579115691372,-0.1242595981299073,-1.3777291633018915,-7.915538978781683,9.990371195945311,1.755566163343565,-0.9254048627066909,10.092261063127154,0.03680226646906168,0.02156452745056799,-0.4762914903191912,0.09528325030847463,0.027363232271835087,-0.6412205292256159,2011-09-26 13:13:44.542883812,12.330319768
49.025508261152524,8.448761752794498,113.3305165304209,-0.014437503738281095,0.011566531549184689,1.9062610233722075,-9.824714219004438,14.089728826037481,1.6351101132628727,0.02279504591212399,0.057011952029650065,10.707938198316148,-3.3820182388161095,9.719815636648121,-13.168054725424255,2.305222329203836,10.216196306633908,0.15376074287042113,-0.051300690142738005,-0.4294620345869932,-0.01849480727113509,0.015325121596871726,0.3242316815181679,2011-09-26 13:13:44.642919908,12.430355864
